current_Start_Timestamp:2020_10_22_02_13_12.386
successful:{"high_accuracy_location":"$GPRMC,181313.00015600,A,3959.5296218,N,11625.0227794,E,0.00,0.00,211020,0.0,E,A*37\r\n$GPGGA,181313.00015600,3959.5296218,N,11625.0227794,E,1,10,1.5,119.307,M,-9.399,M,0.0,*5F\r\n"}
current_End_Timestamp:2020_10_22_02_13_12.700	Interval:314(ms)
current_Start_Timestamp:2020_10_22_02_13_13.379
successful:{"high_accuracy_location":"$GPRMC,181314.00015600,A,3959.5296860,N,11625.0228125,E,0.00,0.00,211020,0.0,E,A*36\r\n$GPGGA,181314.00015600,3959.5296860,N,11625.0228125,E,1,10,1.5,119.570,M,-9.399,M,0.0,*58\r\n"}
current_End_Timestamp:2020_10_22_02_13_13.498	Interval:119(ms)
current_Start_Timestamp:2020_10_22_02_13_14.359
successful:{"high_accuracy_location":"$GPRMC,181315.00015600,A,3959.5297113,N,11625.0230555,E,0.00,0.00,211020,0.0,E,A*31\r\n$GPGGA,181315.00015600,3959.5297113,N,11625.0230555,E,1,09,1.5,119.192,M,-9.399,M,0.0,*5F\r\n"}
current_End_Timestamp:2020_10_22_02_13_14.488	Interval:129(ms)
current_Start_Timestamp:2020_10_22_02_13_15.374
successful:{"high_accuracy_location":"$GPRMC,181316.00015700,A,3959.5297857,N,11625.0232466,E,0.00,0.00,211020,0.0,E,A*39\r\n$GPGGA,181316.00015700,3959.5297857,N,11625.0232466,E,1,11,1.5,118.718,M,-9.399,M,0.0,*5B\r\n"}
current_End_Timestamp:2020_10_22_02_13_15.497	Interval:123(ms)
current_Start_Timestamp:2020_10_22_02_13_16.366
successful:{"high_accuracy_location":"$GPRMC,181317.00015700,A,3959.5296732,N,11625.0232308,E,0.00,0.00,211020,0.0,E,A*3A\r\n$GPGGA,181317.00015700,3959.5296732,N,11625.0232308,E,1,10,1.5,117.852,M,-9.399,M,0.0,*57\r\n"}
current_End_Timestamp:2020_10_22_02_13_16.498	Interval:132(ms)
current_Start_Timestamp:2020_10_22_02_13_17.363
successful:{"high_accuracy_location":"$GPRMC,181318.00015700,A,3959.5344441,N,11625.0172984,E,0.00,0.00,211020,0.0,E,D*30\r\n$GPGGA,181318.00015700,3959.5344441,N,11625.0172984,E,5,06,1.5,99.484,M,-9.399,M,1.0,*6A\r\n"}
current_End_Timestamp:2020_10_22_02_13_17.478	Interval:115(ms)
current_Start_Timestamp:2020_10_22_02_13_18.351
successful:{"high_accuracy_location":"$GPRMC,181319.00015700,A,3959.5343107,N,11625.0185125,E,0.00,0.00,211020,0.0,E,D*3A\r\n$GPGGA,181319.00015700,3959.5343107,N,11625.0185125,E,5,07,1.5,97.223,M,-9.399,M,1.0,*64\r\n"}
current_End_Timestamp:2020_10_22_02_13_18.469	Interval:118(ms)
current_Start_Timestamp:2020_10_22_02_13_19.367
successful:{"high_accuracy_location":"$GPRMC,181320.00015700,A,3959.5324093,N,11625.0186611,E,0.00,0.00,211020,0.0,E,D*3E\r\n$GPGGA,181320.00015700,3959.5324093,N,11625.0186611,E,5,06,1.5,102.508,M,-9.400,M,1.0,*55\r\n"}
current_End_Timestamp:2020_10_22_02_13_19.488	Interval:121(ms)
current_Start_Timestamp:2020_10_22_02_13_20.365
successful:{"high_accuracy_location":"$GPRMC,181321.00015700,A,3959.5322791,N,11625.0187543,E,0.00,0.00,211020,0.0,E,D*39\r\n$GPGGA,181321.00015700,3959.5322791,N,11625.0187543,E,5,07,1.5,104.732,M,-9.400,M,1.0,*5E\r\n"}
current_End_Timestamp:2020_10_22_02_13_20.489	Interval:124(ms)
current_Start_Timestamp:2020_10_22_02_13_21.379
successful:{"high_accuracy_location":"$GPRMC,181322.00015700,A,3959.5324115,N,11625.0202939,E,0.00,0.00,211020,0.0,E,D*39\r\n$GPGGA,181322.00015700,3959.5324115,N,11625.0202939,E,5,06,1.5,106.336,M,-9.399,M,1.0,*5A\r\n"}
current_End_Timestamp:2020_10_22_02_13_21.498	Interval:119(ms)
current_Start_Timestamp:2020_10_22_02_13_22.354
successful:{"high_accuracy_location":"$GPRMC,181323.00015700,A,3959.5325222,N,11625.0209592,E,0.00,0.00,211020,0.0,E,D*38\r\n$GPGGA,181323.00015700,3959.5325222,N,11625.0209592,E,5,07,1.5,106.210,M,-9.399,M,1.0,*5F\r\n"}
current_End_Timestamp:2020_10_22_02_13_22.468	Interval:114(ms)
current_Start_Timestamp:2020_10_22_02_13_23.357
successful:{"high_accuracy_location":"$GPRMC,181324.00015700,A,3959.5326163,N,11625.0208595,E,0.00,0.00,211020,0.0,E,D*3C\r\n$GPGGA,181324.00015700,3959.5326163,N,11625.0208595,E,5,06,1.5,105.742,M,-9.399,M,1.0,*5B\r\n"}
current_End_Timestamp:2020_10_22_02_13_23.481	Interval:124(ms)
current_Start_Timestamp:2020_10_22_02_13_24.360
successful:{"high_accuracy_location":"$GPRMC,181325.00015700,A,3959.5334576,N,11625.0214940,E,0.00,0.00,211020,0.0,E,D*37\r\n$GPGGA,181325.00015700,3959.5334576,N,11625.0214940,E,5,06,1.5,98.624,M,-9.399,M,1.0,*64\r\n"}
current_End_Timestamp:2020_10_22_02_13_24.479	Interval:119(ms)
current_Start_Timestamp:2020_10_22_02_13_25.369
successful:{"high_accuracy_location":"$GPRMC,181326.00015700,A,3959.5320630,N,11625.0240488,E,0.00,0.00,211020,0.0,E,A*3D\r\n$GPGGA,181326.00015700,3959.5320630,N,11625.0240488,E,1,12,1.5,111.288,M,-9.399,M,0.0,*59\r\n"}
current_End_Timestamp:2020_10_22_02_13_25.478	Interval:109(ms)
current_Start_Timestamp:2020_10_22_02_13_26.377
successful:{"high_accuracy_location":"$GPRMC,181327.00015700,A,3959.5320803,N,11625.0238136,E,0.00,0.00,211020,0.0,E,A*3D\r\n$GPGGA,181327.00015700,3959.5320803,N,11625.0238136,E,1,12,1.5,112.736,M,-9.399,M,0.0,*5A\r\n"}
current_End_Timestamp:2020_10_22_02_13_26.503	Interval:126(ms)
current_Start_Timestamp:2020_10_22_02_13_27.370
successful:{"high_accuracy_location":"$GPRMC,181328.00015700,A,3959.5327994,N,11625.0232631,E,0.00,0.00,211020,0.0,E,A*30\r\n$GPGGA,181328.00015700,3959.5327994,N,11625.0232631,E,1,12,1.5,118.166,M,-9.399,M,0.0,*5E\r\n"}
current_End_Timestamp:2020_10_22_02_13_27.519	Interval:149(ms)
current_Start_Timestamp:2020_10_22_02_13_28.344
successful:{"high_accuracy_location":"$GPRMC,181329.00015700,A,3959.5324128,N,11625.0227364,E,0.00,0.00,211020,0.0,E,A*3C\r\n$GPGGA,181329.00015700,3959.5324128,N,11625.0227364,E,1,11,1.5,119.580,M,-9.399,M,0.0,*5C\r\n"}
current_End_Timestamp:2020_10_22_02_13_28.458	Interval:114(ms)
current_Start_Timestamp:2020_10_22_02_13_29.355
successful:{"high_accuracy_location":"$GPRMC,181330.00015700,A,3959.5327252,N,11625.0224833,E,0.00,0.00,211020,0.0,E,A*33\r\n$GPGGA,181330.00015700,3959.5327252,N,11625.0224833,E,1,11,1.5,118.630,M,-9.399,M,0.0,*5A\r\n"}
current_End_Timestamp:2020_10_22_02_13_29.479	Interval:124(ms)
current_Start_Timestamp:2020_10_22_02_13_30.343
successful:{"high_accuracy_location":"$GPRMC,181331.00015700,A,3959.5325229,N,11625.0222273,E,0.00,0.00,211020,0.0,E,A*34\r\n$GPGGA,181331.00015700,3959.5325229,N,11625.0222273,E,1,12,1.5,115.010,M,-9.399,M,0.0,*57\r\n"}
current_End_Timestamp:2020_10_22_02_13_30.458	Interval:115(ms)
current_Start_Timestamp:2020_10_22_02_13_31.348
successful:{"high_accuracy_location":"$GPRMC,181332.00015700,A,3959.5326110,N,11625.0205103,E,0.00,0.00,211020,0.0,E,A*3C\r\n$GPGGA,181332.00015700,3959.5326110,N,11625.0205103,E,1,11,1.5,119.593,M,-9.399,M,0.0,*5E\r\n"}
current_End_Timestamp:2020_10_22_02_13_31.488	Interval:140(ms)
current_Start_Timestamp:2020_10_22_02_13_32.353
successful:{"high_accuracy_location":"$GPRMC,181333.00015700,A,3959.5326516,N,11625.0165821,E,0.00,0.00,211020,0.0,E,A*33\r\n$GPGGA,181333.00015700,3959.5326516,N,11625.0165821,E,1,12,1.5,121.414,M,-9.400,M,0.0,*50\r\n"}
current_End_Timestamp:2020_10_22_02_13_32.498	Interval:145(ms)
current_Start_Timestamp:2020_10_22_02_13_33.338
successful:{"high_accuracy_location":"$GPRMC,181334.00015700,A,3959.5332030,N,11625.0130583,E,0.00,0.00,211020,0.0,E,A*35\r\n$GPGGA,181334.00015700,3959.5332030,N,11625.0130583,E,1,12,1.5,118.211,M,-9.400,M,0.0,*5F\r\n"}
current_End_Timestamp:2020_10_22_02_13_33.458	Interval:120(ms)
current_Start_Timestamp:2020_10_22_02_13_34.348
successful:{"high_accuracy_location":"$GPRMC,181335.00015700,A,3959.5317054,N,11625.0073260,E,0.00,0.00,211020,0.0,E,A*3D\r\n$GPGGA,181335.00015700,3959.5317054,N,11625.0073260,E,1,13,1.5,126.657,M,-9.400,M,0.0,*5D\r\n"}
current_End_Timestamp:2020_10_22_02_13_34.468	Interval:120(ms)
current_Start_Timestamp:2020_10_22_02_13_35.348
successful:{"high_accuracy_location":"$GPRMC,181336.00015700,A,3959.5314933,N,11625.0028434,E,0.00,0.00,211020,0.0,E,A*3C\r\n$GPGGA,181336.00015700,3959.5314933,N,11625.0028434,E,1,12,1.5,122.175,M,-9.400,M,0.0,*5E\r\n"}
current_End_Timestamp:2020_10_22_02_13_36.049	Interval:701(ms)
current_Start_Timestamp:2020_10_22_02_13_36.357
successful:{"high_accuracy_location":"$GPRMC,181337.00015800,A,3959.5319597,N,11624.9964159,E,0.00,0.00,211020,0.0,E,A*3A\r\n$GPGGA,181337.00015800,3959.5319597,N,11624.9964159,E,1,12,1.5,122.112,M,-9.400,M,0.0,*59\r\n"}
current_End_Timestamp:2020_10_22_02_13_37.019	Interval:662(ms)
current_Start_Timestamp:2020_10_22_02_13_37.348
successful:{"high_accuracy_location":"$GPRMC,181338.00015800,A,3959.5315593,N,11624.9903179,E,0.00,0.00,211020,0.0,E,A*3E\r\n$GPGGA,181338.00015800,3959.5315593,N,11624.9903179,E,1,12,1.5,122.203,M,-9.400,M,0.0,*5E\r\n"}
current_End_Timestamp:2020_10_22_02_13_37.969	Interval:621(ms)
current_Start_Timestamp:2020_10_22_02_13_38.331
successful:{"high_accuracy_location":"$GPRMC,181339.00015800,A,3959.5326437,N,11624.9844592,E,0.00,0.00,211020,0.0,E,A*33\r\n$GPGGA,181339.00015800,3959.5326437,N,11624.9844592,E,1,11,1.5,120.176,M,-9.400,M,0.0,*53\r\n"}
current_End_Timestamp:2020_10_22_02_13_38.959	Interval:628(ms)
current_Start_Timestamp:2020_10_22_02_13_39.361
successful:{"high_accuracy_location":"$GPRMC,181340.00015800,A,3959.5331255,N,11624.9779972,E,0.00,0.00,211020,0.0,E,A*3A\r\n$GPGGA,181340.00015800,3959.5331255,N,11624.9779972,E,1,11,1.5,117.591,M,-9.401,M,0.0,*52\r\n"}
current_End_Timestamp:2020_10_22_02_13_39.501	Interval:140(ms)
current_Start_Timestamp:2020_10_22_02_13_40.364
successful:{"high_accuracy_location":"$GPRMC,181341.00015800,A,3959.5335944,N,11624.9715697,E,0.00,0.00,211020,0.0,E,A*3A\r\n$GPGGA,181341.00015800,3959.5335944,N,11624.9715697,E,1,11,1.5,111.843,M,-9.401,M,0.0,*56\r\n"}
current_End_Timestamp:2020_10_22_02_13_41.009	Interval:645(ms)
current_Start_Timestamp:2020_10_22_02_13_41.334
successful:{"high_accuracy_location":"$GPRMC,181342.00015800,A,3959.5334228,N,11624.9645157,E,0.00,0.00,211020,0.0,E,A*36\r\n$GPGGA,181342.00015800,3959.5334228,N,11624.9645157,E,1,11,1.5,108.531,M,-9.401,M,0.0,*5A\r\n"}
current_End_Timestamp:2020_10_22_02_13_41.979	Interval:645(ms)
current_Start_Timestamp:2020_10_22_02_13_42.344
successful:{"high_accuracy_location":"$GPRMC,181343.00015800,A,3959.5343017,N,11624.9581818,E,0.00,0.00,211020,0.0,E,A*30\r\n$GPGGA,181343.00015800,3959.5343017,N,11624.9581818,E,1,12,1.5,104.137,M,-9.401,M,0.0,*51\r\n"}
current_End_Timestamp:2020_10_22_02_13_42.462	Interval:118(ms)
current_Start_Timestamp:2020_10_22_02_13_43.364
successful:{"high_accuracy_location":"$GPRMC,181344.00015800,A,3959.5386420,N,11624.9488025,E,0.00,0.00,211020,0.0,E,D*35\r\n$GPGGA,181344.00015800,3959.5386420,N,11624.9488025,E,5,07,1.5,24.702,M,-9.401,M,1.0,*63\r\n"}
current_End_Timestamp:2020_10_22_02_13_43.492	Interval:128(ms)
current_Start_Timestamp:2020_10_22_02_13_44.347
successful:{"high_accuracy_location":"$GPRMC,181345.00015800,A,3959.5355923,N,11624.9477818,E,0.00,0.00,211020,0.0,E,A*37\r\n$GPGGA,181345.00015800,3959.5355923,N,11624.9477818,E,1,12,1.5,82.701,M,-9.401,M,0.0,*6A\r\n"}
current_End_Timestamp:2020_10_22_02_13_44.484	Interval:137(ms)
current_Start_Timestamp:2020_10_22_02_13_45.343
successful:{"high_accuracy_location":"$GPRMC,181346.00015800,A,3959.5364206,N,11624.9413041,E,0.00,0.00,211020,0.0,E,A*3C\r\n$GPGGA,181346.00015800,3959.5364206,N,11624.9413041,E,1,12,1.5,79.852,M,-9.401,M,0.0,*6C\r\n"}
current_End_Timestamp:2020_10_22_02_13_45.463	Interval:120(ms)
current_Start_Timestamp:2020_10_22_02_13_46.362
successful:{"high_accuracy_location":"$GPRMC,181347.00015800,A,3959.5350536,N,11624.9253013,E,0.00,0.00,211020,0.0,E,D*3E\r\n$GPGGA,181347.00015800,3959.5350536,N,11624.9253013,E,5,07,1.5,25.027,M,-9.402,M,1.0,*6A\r\n"}
current_End_Timestamp:2020_10_22_02_13_46.494	Interval:132(ms)
current_Start_Timestamp:2020_10_22_02_13_47.330
successful:{"high_accuracy_location":"$GPRMC,181348.00015800,A,3959.5358140,N,11624.9184578,E,0.00,0.00,211020,0.0,E,D*3D\r\n$GPGGA,181348.00015800,3959.5358140,N,11624.9184578,E,5,08,1.5,34.958,M,-9.402,M,0.0,*66\r\n"}
current_End_Timestamp:2020_10_22_02_13_48.090	Interval:760(ms)
current_Start_Timestamp:2020_10_22_02_13_48.349
successful:{"high_accuracy_location":"$GPRMC,181349.00015800,A,3959.5377675,N,11624.9110283,E,0.00,0.00,211020,0.0,E,D*3E\r\n$GPGGA,181349.00015800,3959.5377675,N,11624.9110283,E,5,08,1.5,37.507,M,-9.402,M,1.0,*61\r\n"}
current_End_Timestamp:2020_10_22_02_13_48.484	Interval:135(ms)
current_Start_Timestamp:2020_10_22_02_13_49.330
successful:{"high_accuracy_location":"$GPRMC,181350.00015800,A,3959.5403322,N,11624.9036740,E,0.00,0.00,211020,0.0,E,D*3A\r\n$GPGGA,181350.00015800,3959.5403322,N,11624.9036740,E,5,08,1.5,42.200,M,-9.402,M,0.0,*66\r\n"}
current_End_Timestamp:2020_10_22_02_13_49.931	Interval:601(ms)
current_Start_Timestamp:2020_10_22_02_13_50.357
successful:{"high_accuracy_location":"$GPRMC,181351.00015800,A,3959.5427626,N,11624.8968238,E,0.00,0.00,211020,0.0,E,D*35\r\n$GPGGA,181351.00015800,3959.5427626,N,11624.8968238,E,5,06,1.5,33.714,M,-9.402,M,0.0,*61\r\n"}
current_End_Timestamp:2020_10_22_02_13_50.968	Interval:611(ms)
current_Start_Timestamp:2020_10_22_02_13_51.346
successful:{"high_accuracy_location":"$GPRMC,181352.00015800,A,3959.5448292,N,11624.8900893,E,0.00,0.00,211020,0.0,E,D*31\r\n$GPGGA,181352.00015800,3959.5448292,N,11624.8900893,E,5,07,1.5,33.855,M,-9.403,M,1.0,*6E\r\n"}
current_End_Timestamp:2020_10_22_02_13_51.473	Interval:127(ms)
current_Start_Timestamp:2020_10_22_02_13_52.356
successful:{"high_accuracy_location":"$GPRMC,181353.00015800,A,3959.5479371,N,11624.8907928,E,0.00,0.00,211020,0.0,E,A*3D\r\n$GPGGA,181353.00015800,3959.5479371,N,11624.8907928,E,1,13,1.5,65.579,M,-9.402,M,0.0,*66\r\n"}
current_End_Timestamp:2020_10_22_02_13_53.061	Interval:705(ms)
current_Start_Timestamp:2020_10_22_02_13_53.367
successful:{"high_accuracy_location":"$GPRMC,181354.00015800,A,3959.5496076,N,11624.8826168,E,0.00,0.00,211020,0.0,E,A*31\r\n$GPGGA,181354.00015800,3959.5496076,N,11624.8826168,E,1,11,1.5,65.391,M,-9.403,M,0.0,*69\r\n"}
current_End_Timestamp:2020_10_22_02_13_53.493	Interval:126(ms)
current_Start_Timestamp:2020_10_22_02_13_54.334
successful:{"high_accuracy_location":"$GPRMC,181355.00015800,A,3959.5522793,N,11624.8746395,E,0.00,0.00,211020,0.0,E,A*3B\r\n$GPGGA,181355.00015800,3959.5522793,N,11624.8746395,E,1,10,1.5,65.808,M,-9.403,M,0.0,*69\r\n"}
current_End_Timestamp:2020_10_22_02_13_54.453	Interval:119(ms)
current_Start_Timestamp:2020_10_22_02_13_55.369
successful:{"high_accuracy_location":"$GPRMC,181356.00015800,A,3959.5556021,N,11624.8660488,E,0.00,0.00,211020,0.0,E,A*3B\r\n$GPGGA,181356.00015800,3959.5556021,N,11624.8660488,E,1,09,1.5,67.665,M,-9.403,M,0.0,*66\r\n"}
current_End_Timestamp:2020_10_22_02_13_55.477	Interval:108(ms)
current_Start_Timestamp:2020_10_22_02_13_56.364
successful:{"high_accuracy_location":"$GPRMC,181357.00015800,A,3959.5581089,N,11624.8561276,E,0.00,0.00,211020,0.0,E,A*37\r\n$GPGGA,181357.00015800,3959.5581089,N,11624.8561276,E,1,08,1.5,67.293,M,-9.403,M,0.0,*66\r\n"}
current_End_Timestamp:2020_10_22_02_13_57.051	Interval:687(ms)
current_Start_Timestamp:2020_10_22_02_13_57.339
successful:{"high_accuracy_location":"$GPRMC,181358.00015800,A,3959.5614643,N,11624.8489751,E,0.00,0.00,211020,0.0,E,A*30\r\n$GPGGA,181358.00015800,3959.5614643,N,11624.8489751,E,1,09,1.5,65.029,M,-9.403,M,0.0,*61\r\n"}
current_End_Timestamp:2020_10_22_02_13_58.038	Interval:699(ms)
current_Start_Timestamp:2020_10_22_02_13_58.340
successful:{"high_accuracy_location":"$GPRMC,181359.00015800,A,3959.5643764,N,11624.8398516,E,0.00,0.00,211020,0.0,E,A*31\r\n$GPGGA,181359.00015800,3959.5643764,N,11624.8398516,E,1,09,1.5,64.312,M,-9.403,M,0.0,*6A\r\n"}
current_End_Timestamp:2020_10_22_02_13_58.467	Interval:127(ms)
current_Start_Timestamp:2020_10_22_02_13_59.369
successful:{"high_accuracy_location":"$GPRMC,181400.00015800,A,3959.5678942,N,11624.8307686,E,0.00,0.00,211020,0.0,E,A*34\r\n$GPGGA,181400.00015800,3959.5678942,N,11624.8307686,E,1,08,1.5,64.863,M,-9.403,M,0.0,*63\r\n"}
current_End_Timestamp:2020_10_22_02_13_59.487	Interval:118(ms)
current_Start_Timestamp:2020_10_22_02_14_00.332
successful:{"high_accuracy_location":"$GPRMC,181401.00015800,A,3959.5659795,N,11624.8115532,E,0.00,0.00,211020,0.0,E,D*3A\r\n$GPGGA,181401.00015800,3959.5659795,N,11624.8115532,E,5,07,1.5,130.243,M,-9.404,M,1.0,*5D\r\n"}
current_End_Timestamp:2020_10_22_02_14_00.444	Interval:112(ms)
current_Start_Timestamp:2020_10_22_02_14_01.334
successful:{"high_accuracy_location":"$GPRMC,181402.00015800,A,3959.5737127,N,11624.8129382,E,0.00,0.00,211020,0.0,E,A*38\r\n$GPGGA,181402.00015800,3959.5737127,N,11624.8129382,E,1,10,1.5,65.372,M,-9.404,M,0.0,*6B\r\n"}
current_End_Timestamp:2020_10_22_02_14_02.140	Interval:806(ms)
current_Start_Timestamp:2020_10_22_02_14_02.369
successful:{"high_accuracy_location":"$GPRMC,181403.00015800,A,3959.5766045,N,11624.8034732,E,0.00,0.00,211020,0.0,E,A*3A\r\n$GPGGA,181403.00015800,3959.5766045,N,11624.8034732,E,1,08,1.5,65.942,M,-9.404,M,0.0,*69\r\n"}
current_End_Timestamp:2020_10_22_02_14_03.112	Interval:743(ms)
current_Start_Timestamp:2020_10_22_02_14_03.352
successful:{"high_accuracy_location":"$GPRMC,181404.00015800,A,3959.5802329,N,11624.7945751,E,0.00,0.00,211020,0.0,E,A*3C\r\n$GPGGA,181404.00015800,3959.5802329,N,11624.7945751,E,1,08,1.5,67.528,M,-9.404,M,0.0,*6D\r\n"}
current_End_Timestamp:2020_10_22_02_14_04.072	Interval:720(ms)
current_Start_Timestamp:2020_10_22_02_14_04.351
successful:{"high_accuracy_location":"$GPRMC,181405.00015800,A,3959.5833764,N,11624.7866098,E,0.00,0.00,211020,0.0,E,A*30\r\n$GPGGA,181405.00015800,3959.5833764,N,11624.7866098,E,1,10,1.5,63.058,M,-9.404,M,0.0,*6E\r\n"}
current_End_Timestamp:2020_10_22_02_14_04.472	Interval:121(ms)
current_Start_Timestamp:2020_10_22_02_14_05.382
successful:{"high_accuracy_location":"$GPRMC,181406.00015900,A,3959.5863224,N,11624.7788223,E,0.00,0.00,211020,0.0,E,A*3B\r\n$GPGGA,181406.00015900,3959.5863224,N,11624.7788223,E,1,10,1.5,59.025,M,-9.404,M,0.0,*66\r\n"}
current_End_Timestamp:2020_10_22_02_14_06.034	Interval:652(ms)
current_Start_Timestamp:2020_10_22_02_14_06.337
successful:{"high_accuracy_location":"$GPRMC,181407.00015900,A,3959.5887762,N,11624.7703567,E,0.00,0.00,211020,0.0,E,A*33\r\n$GPGGA,181407.00015900,3959.5887762,N,11624.7703567,E,1,09,1.5,60.004,M,-9.405,M,0.0,*6E\r\n"}
current_End_Timestamp:2020_10_22_02_14_06.452	Interval:115(ms)
current_Start_Timestamp:2020_10_22_02_14_07.348
successful:{"high_accuracy_location":"$GPRMC,181408.00015900,A,3959.5921205,N,11624.7626636,E,0.00,0.00,211020,0.0,E,A*34\r\n$GPGGA,181408.00015900,3959.5921205,N,11624.7626636,E,1,09,1.5,61.625,M,-9.405,M,0.0,*6D\r\n"}
current_End_Timestamp:2020_10_22_02_14_07.472	Interval:124(ms)
current_Start_Timestamp:2020_10_22_02_14_08.359
successful:{"high_accuracy_location":"$GPRMC,181409.00015900,A,3959.5952039,N,11624.7549319,E,0.00,0.00,211020,0.0,E,A*3E\r\n$GPGGA,181409.00015900,3959.5952039,N,11624.7549319,E,1,09,1.5,58.174,M,-9.405,M,0.0,*6E\r\n"}
current_End_Timestamp:2020_10_22_02_14_08.471	Interval:112(ms)
current_Start_Timestamp:2020_10_22_02_14_09.344
successful:{"high_accuracy_location":"$GPRMC,181410.00015900,A,3959.5987521,N,11624.7473782,E,0.00,0.00,211020,0.0,E,A*3C\r\n$GPGGA,181410.00015900,3959.5987521,N,11624.7473782,E,1,10,1.5,60.691,M,-9.405,M,0.0,*63\r\n"}
current_End_Timestamp:2020_10_22_02_14_09.472	Interval:128(ms)
current_Start_Timestamp:2020_10_22_02_14_10.363
successful:{"high_accuracy_location":"$GPRMC,181411.00015900,A,3959.6021416,N,11624.7409121,E,0.00,0.00,211020,0.0,E,A*3C\r\n$GPGGA,181411.00015900,3959.6021416,N,11624.7409121,E,1,10,1.5,59.644,M,-9.405,M,0.0,*61\r\n"}
current_End_Timestamp:2020_10_22_02_14_10.470	Interval:107(ms)
current_Start_Timestamp:2020_10_22_02_14_11.353
successful:{"high_accuracy_location":"$GPRMC,181412.00015900,A,3959.6036497,N,11624.7327005,E,0.00,0.00,211020,0.0,E,A*3C\r\n$GPGGA,181412.00015900,3959.6036497,N,11624.7327005,E,1,09,1.5,59.453,M,-9.405,M,0.0,*6D\r\n"}
current_End_Timestamp:2020_10_22_02_14_11.477	Interval:124(ms)
current_Start_Timestamp:2020_10_22_02_14_12.359
successful:{"high_accuracy_location":"$GPRMC,181413.00015900,A,3959.6057073,N,11624.7258881,E,0.00,0.00,211020,0.0,E,A*39\r\n$GPGGA,181413.00015900,3959.6057073,N,11624.7258881,E,1,08,1.5,57.406,M,-9.405,M,0.0,*67\r\n"}
current_End_Timestamp:2020_10_22_02_14_12.472	Interval:113(ms)
current_Start_Timestamp:2020_10_22_02_14_13.354
successful:{"high_accuracy_location":"$GPRMC,181414.00015900,A,3959.6087868,N,11624.7190094,E,0.00,0.00,211020,0.0,E,A*3A\r\n$GPGGA,181414.00015900,3959.6087868,N,11624.7190094,E,1,09,1.5,57.065,M,-9.405,M,0.0,*64\r\n"}
current_End_Timestamp:2020_10_22_02_14_13.492	Interval:138(ms)
current_Start_Timestamp:2020_10_22_02_14_14.351
successful:{"high_accuracy_location":"$GPRMC,181415.00015900,A,3959.6110526,N,11624.7126996,E,0.00,0.00,211020,0.0,E,A*35\r\n$GPGGA,181415.00015900,3959.6110526,N,11624.7126996,E,1,09,1.5,55.533,M,-9.405,M,0.0,*6F\r\n"}
current_End_Timestamp:2020_10_22_02_14_14.478	Interval:127(ms)
current_Start_Timestamp:2020_10_22_02_14_15.318
successful:{"high_accuracy_location":"$GPRMC,181416.00015900,A,3959.6137393,N,11624.7066862,E,0.00,0.00,211020,0.0,E,A*34\r\n$GPGGA,181416.00015900,3959.6137393,N,11624.7066862,E,1,09,1.5,57.370,M,-9.406,M,0.0,*6E\r\n"}
current_End_Timestamp:2020_10_22_02_14_15.432	Interval:114(ms)
current_Start_Timestamp:2020_10_22_02_14_16.358
successful:{"high_accuracy_location":"$GPRMC,181417.00015900,A,3959.6158972,N,11624.7002902,E,0.00,0.00,211020,0.0,E,A*3C\r\n$GPGGA,181417.00015900,3959.6158972,N,11624.7002902,E,1,09,1.5,53.411,M,-9.406,M,0.0,*62\r\n"}
current_End_Timestamp:2020_10_22_02_14_16.472	Interval:114(ms)
current_Start_Timestamp:2020_10_22_02_14_17.336
successful:{"high_accuracy_location":"$GPRMC,181418.00015900,A,3959.6173677,N,11624.6957534,E,0.00,0.00,211020,0.0,E,A*31\r\n$GPGGA,181418.00015900,3959.6173677,N,11624.6957534,E,1,09,1.5,53.930,M,-9.406,M,0.0,*61\r\n"}
current_End_Timestamp:2020_10_22_02_14_17.451	Interval:115(ms)
current_Start_Timestamp:2020_10_22_02_14_18.353
successful:{"high_accuracy_location":"$GPRMC,181419.00015900,A,3959.6165874,N,11624.6839613,E,0.00,0.00,211020,0.0,E,D*30\r\n$GPGGA,181419.00015900,3959.6165874,N,11624.6839613,E,5,08,1.5,63.794,M,-9.406,M,1.0,*62\r\n"}
current_End_Timestamp:2020_10_22_02_14_18.471	Interval:118(ms)
current_Start_Timestamp:2020_10_22_02_14_19.351
successful:{"high_accuracy_location":"$GPRMC,181420.00015900,A,3959.6179458,N,11624.6807137,E,0.00,0.00,211020,0.0,E,D*39\r\n$GPGGA,181420.00015900,3959.6179458,N,11624.6807137,E,5,08,1.5,72.326,M,-9.406,M,1.0,*66\r\n"}
current_End_Timestamp:2020_10_22_02_14_19.486	Interval:135(ms)
current_Start_Timestamp:2020_10_22_02_14_20.348
successful:{"high_accuracy_location":"$GPRMC,181421.00015900,A,3959.6185720,N,11624.6767820,E,0.00,0.00,211020,0.0,E,D*31\r\n$GPGGA,181421.00015900,3959.6185720,N,11624.6767820,E,5,07,1.5,79.957,M,-9.406,M,1.0,*66\r\n"}
current_End_Timestamp:2020_10_22_02_14_20.474	Interval:126(ms)
current_Start_Timestamp:2020_10_22_02_14_21.322
successful:{"high_accuracy_location":"$GPRMC,181422.00015900,A,3959.6196503,N,11624.6749770,E,0.00,0.00,211020,0.0,E,D*35\r\n$GPGGA,181422.00015900,3959.6196503,N,11624.6749770,E,5,07,1.5,80.897,M,-9.406,M,1.0,*69\r\n"}
current_End_Timestamp:2020_10_22_02_14_21.432	Interval:110(ms)
current_Start_Timestamp:2020_10_22_02_14_22.366
successful:{"high_accuracy_location":"$GPRMC,181423.00015900,A,3959.6217575,N,11624.6744726,E,0.00,0.00,211020,0.0,E,D*31\r\n$GPGGA,181423.00015900,3959.6217575,N,11624.6744726,E,5,07,1.5,64.586,M,-9.406,M,1.0,*6A\r\n"}
current_End_Timestamp:2020_10_22_02_14_22.474	Interval:108(ms)
current_Start_Timestamp:2020_10_22_02_14_23.356
successful:{"high_accuracy_location":"$GPRMC,181424.00015900,A,3959.6221215,N,11624.6732741,E,0.00,0.00,211020,0.0,E,D*32\r\n$GPGGA,181424.00015900,3959.6221215,N,11624.6732741,E,5,07,1.5,71.068,M,-9.406,M,1.0,*68\r\n"}
current_End_Timestamp:2020_10_22_02_14_23.494	Interval:138(ms)
current_Start_Timestamp:2020_10_22_02_14_24.389
successful:{"high_accuracy_location":"$GPRMC,181425.00015900,A,3959.6221843,N,11624.6724894,E,0.00,0.00,211020,0.0,E,D*3A\r\n$GPGGA,181425.00015900,3959.6221843,N,11624.6724894,E,5,07,1.5,76.313,M,-9.406,M,1.0,*68\r\n"}
current_End_Timestamp:2020_10_22_02_14_24.512	Interval:123(ms)
current_Start_Timestamp:2020_10_22_02_14_25.371
successful:{"high_accuracy_location":"$GPRMC,181426.00015900,A,3959.6224830,N,11624.6724143,E,0.00,0.00,211020,0.0,E,D*3B\r\n$GPGGA,181426.00015900,3959.6224830,N,11624.6724143,E,5,07,1.5,76.329,M,-9.406,M,1.0,*60\r\n"}
current_End_Timestamp:2020_10_22_02_14_25.480	Interval:109(ms)
current_Start_Timestamp:2020_10_22_02_14_26.368
successful:{"high_accuracy_location":"$GPRMC,181427.00015900,A,3959.6260783,N,11624.6790986,E,0.00,0.00,211020,0.0,E,A*36\r\n$GPGGA,181427.00015900,3959.6260783,N,11624.6790986,E,1,09,1.5,53.701,M,-9.406,M,0.0,*6A\r\n"}
current_End_Timestamp:2020_10_22_02_14_26.492	Interval:124(ms)
current_Start_Timestamp:2020_10_22_02_14_27.360
successful:{"high_accuracy_location":"$GPRMC,181428.00015900,A,3959.6256145,N,11624.6777507,E,0.00,0.00,211020,0.0,E,A*3C\r\n$GPGGA,181428.00015900,3959.6256145,N,11624.6777507,E,1,09,1.5,59.396,M,-9.406,M,0.0,*60\r\n"}
current_End_Timestamp:2020_10_22_02_14_27.492	Interval:132(ms)
current_Start_Timestamp:2020_10_22_02_14_28.375
successful:{"high_accuracy_location":"$GPRMC,181429.00015900,A,3959.6261973,N,11624.6764800,E,0.00,0.00,211020,0.0,E,A*3C\r\n$GPGGA,181429.00015900,3959.6261973,N,11624.6764800,E,1,09,1.5,60.119,M,-9.406,M,0.0,*6F\r\n"}
current_End_Timestamp:2020_10_22_02_14_28.932	Interval:557(ms)
current_Start_Timestamp:2020_10_22_02_14_29.383
successful:{"high_accuracy_location":"$GPRMC,181430.00015900,A,3959.6272348,N,11624.6774340,E,0.00,0.00,211020,0.0,E,A*3A\r\n$GPGGA,181430.00015900,3959.6272348,N,11624.6774340,E,1,09,1.5,57.782,M,-9.406,M,0.0,*69\r\n"}
current_End_Timestamp:2020_10_22_02_14_30.076	Interval:693(ms)
current_Start_Timestamp:2020_10_22_02_14_30.356
successful:{"high_accuracy_location":"$GPRMC,181431.00015900,A,3959.6264388,N,11624.6759446,E,0.00,0.00,211020,0.0,E,A*3E\r\n$GPGGA,181431.00015900,3959.6264388,N,11624.6759446,E,1,09,1.5,68.233,M,-9.406,M,0.0,*6E\r\n"}
current_End_Timestamp:2020_10_22_02_14_30.492	Interval:136(ms)
current_Start_Timestamp:2020_10_22_02_14_31.359
successful:{"high_accuracy_location":"$GPRMC,181432.00015900,A,3959.6192139,N,11624.6771879,E,0.00,0.00,211020,0.0,E,D*30\r\n$GPGGA,181432.00015900,3959.6192139,N,11624.6771879,E,5,07,1.5,74.435,M,-9.406,M,1.0,*63\r\n"}
current_End_Timestamp:2020_10_22_02_14_31.477	Interval:118(ms)
current_Start_Timestamp:2020_10_22_02_14_32.360
successful:{"high_accuracy_location":"$GPRMC,181433.00015900,A,3959.6190534,N,11624.6782665,E,0.00,0.00,211020,0.0,E,D*35\r\n$GPGGA,181433.00015900,3959.6190534,N,11624.6782665,E,5,08,1.5,70.981,M,-9.406,M,0.0,*6E\r\n"}
current_End_Timestamp:2020_10_22_02_14_32.933	Interval:573(ms)
current_Start_Timestamp:2020_10_22_02_14_33.371
successful:{"high_accuracy_location":"$GPRMC,181434.00015900,A,3959.6198747,N,11624.6787415,E,0.00,0.00,211020,0.0,E,D*3C\r\n$GPGGA,181434.00015900,3959.6198747,N,11624.6787415,E,5,07,1.5,58.574,M,-9.406,M,0.0,*64\r\n"}
current_End_Timestamp:2020_10_22_02_14_34.093	Interval:722(ms)
current_Start_Timestamp:2020_10_22_02_14_34.360
successful:{"high_accuracy_location":"$GPRMC,181435.00015900,A,3959.6209081,N,11624.6757431,E,0.00,0.00,211020,0.0,E,D*30\r\n$GPGGA,181435.00015900,3959.6209081,N,11624.6757431,E,5,07,1.5,70.501,M,-9.406,M,0.0,*60\r\n"}
current_End_Timestamp:2020_10_22_02_14_35.072	Interval:712(ms)
current_Start_Timestamp:2020_10_22_02_14_35.357
successful:{"high_accuracy_location":"$GPRMC,181436.00015900,A,3959.6242839,N,11624.6770809,E,0.00,0.00,211020,0.0,E,A*30\r\n$GPGGA,181436.00015900,3959.6242839,N,11624.6770809,E,1,09,1.5,68.028,M,-9.406,M,0.0,*68\r\n"}
current_End_Timestamp:2020_10_22_02_14_35.493	Interval:136(ms)
current_Start_Timestamp:2020_10_22_02_14_36.390
successful:{"high_accuracy_location":"$GPRMC,181437.00015900,A,3959.6220488,N,11624.6732636,E,0.00,0.00,211020,0.0,E,D*32\r\n$GPGGA,181437.00015900,3959.6220488,N,11624.6732636,E,5,07,1.5,79.904,M,-9.406,M,1.0,*63\r\n"}
current_End_Timestamp:2020_10_22_02_14_36.514	Interval:124(ms)
current_Start_Timestamp:2020_10_22_02_14_37.348
successful:{"high_accuracy_location":"$GPRMC,181438.00015900,A,3959.6229210,N,11624.6749102,E,0.00,0.00,211020,0.0,E,A*3A\r\n$GPGGA,181438.00015900,3959.6229210,N,11624.6749102,E,1,10,1.5,82.798,M,-9.406,M,0.0,*62\r\n"}
current_End_Timestamp:2020_10_22_02_14_38.152	Interval:804(ms)
current_Start_Timestamp:2020_10_22_02_14_38.365
successful:{"high_accuracy_location":"$GPRMC,181439.00015900,A,3959.6164767,N,11624.6668348,E,0.00,0.00,211020,0.0,E,D*3F\r\n$GPGGA,181439.00015900,3959.6164767,N,11624.6668348,E,5,07,1.5,190.818,M,-9.406,M,0.0,*55\r\n"}
current_End_Timestamp:2020_10_22_02_14_39.292	Interval:927(ms)
current_Start_Timestamp:2020_10_22_02_14_39.386
successful:{"high_accuracy_location":"$GPRMC,181440.00015900,A,3959.6213092,N,11624.6745729,E,0.00,0.00,211020,0.0,E,A*37\r\n$GPGGA,181440.00015900,3959.6213092,N,11624.6745729,E,1,09,1.5,86.100,M,-9.406,M,0.0,*64\r\n"}
current_End_Timestamp:2020_10_22_02_14_40.132	Interval:746(ms)
current_Start_Timestamp:2020_10_22_02_14_40.359
successful:{"high_accuracy_location":"$GPRMC,181441.00015900,A,3959.6205655,N,11624.6746559,E,0.00,0.00,211020,0.0,E,A*3A\r\n$GPGGA,181441.00015900,3959.6205655,N,11624.6746559,E,1,08,1.5,88.963,M,-9.406,M,0.0,*6B\r\n"}
current_End_Timestamp:2020_10_22_02_14_41.072	Interval:713(ms)
current_Start_Timestamp:2020_10_22_02_14_41.351
successful:{"high_accuracy_location":"$GPRMC,181442.00015900,A,3959.6208832,N,11624.6736158,E,0.00,0.00,211020,0.0,E,A*39\r\n$GPGGA,181442.00015900,3959.6208832,N,11624.6736158,E,1,10,1.5,101.371,M,-9.406,M,0.0,*58\r\n"}
current_End_Timestamp:2020_10_22_02_14_42.193	Interval:842(ms)
current_Start_Timestamp:2020_10_22_02_14_42.365
successful:{"high_accuracy_location":"$GPRMC,181443.00015900,A,3959.6187345,N,11624.6724539,E,0.00,0.00,211020,0.0,E,A*37\r\n$GPGGA,181443.00015900,3959.6187345,N,11624.6724539,E,1,10,1.5,105.607,M,-9.406,M,0.0,*56\r\n"}
current_End_Timestamp:2020_10_22_02_14_43.152	Interval:787(ms)
current_Start_Timestamp:2020_10_22_02_14_43.365
successful:{"high_accuracy_location":"$GPRMC,181444.00015900,A,3959.6187417,N,11624.6719879,E,0.00,0.00,211020,0.0,E,A*37\r\n$GPGGA,181444.00015900,3959.6187417,N,11624.6719879,E,1,09,1.5,108.109,M,-9.406,M,0.0,*5A\r\n"}
current_End_Timestamp:2020_10_22_02_14_44.080	Interval:715(ms)
current_Start_Timestamp:2020_10_22_02_14_44.371
successful:{"high_accuracy_location":"$GPRMC,181445.00015900,A,3959.6190170,N,11624.6724959,E,0.00,0.00,211020,0.0,E,A*39\r\n$GPGGA,181445.00015900,3959.6190170,N,11624.6724959,E,1,09,1.5,110.071,M,-9.406,M,0.0,*53\r\n"}
current_End_Timestamp:2020_10_22_02_14_45.034	Interval:663(ms)
current_Start_Timestamp:2020_10_22_02_14_45.338
successful:{"high_accuracy_location":"$GPRMC,181446.00015900,A,3959.6192217,N,11624.6708534,E,0.00,0.00,211020,0.0,E,A*33\r\n$GPGGA,181446.00015900,3959.6192217,N,11624.6708534,E,1,08,1.5,114.460,M,-9.406,M,0.0,*58\r\n"}
current_End_Timestamp:2020_10_22_02_14_45.471	Interval:133(ms)
current_Start_Timestamp:2020_10_22_02_14_46.347
successful:{"high_accuracy_location":"$GPRMC,181447.00015900,A,3959.6189155,N,11624.6709882,E,0.00,0.00,211020,0.0,E,A*3C\r\n$GPGGA,181447.00015900,3959.6189155,N,11624.6709882,E,1,08,1.5,110.977,M,-9.406,M,0.0,*58\r\n"}
current_End_Timestamp:2020_10_22_02_14_47.173	Interval:826(ms)
current_Start_Timestamp:2020_10_22_02_14_47.356
successful:{"high_accuracy_location":"$GPRMC,181448.00015900,A,3959.6198866,N,11624.6722581,E,0.00,0.00,211020,0.0,E,A*3D\r\n$GPGGA,181448.00015900,3959.6198866,N,11624.6722581,E,1,09,1.5,101.012,M,-9.406,M,0.0,*52\r\n"}
current_End_Timestamp:2020_10_22_02_14_48.072	Interval:716(ms)
current_Start_Timestamp:2020_10_22_02_14_48.348
successful:{"high_accuracy_location":"$GPRMC,181449.00015900,A,3959.6212266,N,11624.6727241,E,0.00,0.00,211020,0.0,E,A*39\r\n$GPGGA,181449.00015900,3959.6212266,N,11624.6727241,E,1,10,1.5,103.507,M,-9.406,M,0.0,*5D\r\n"}
current_End_Timestamp:2020_10_22_02_14_49.032	Interval:684(ms)
current_Start_Timestamp:2020_10_22_02_14_49.354
successful:{"high_accuracy_location":"$GPRMC,181450.00015900,A,3959.6206990,N,11624.6704757,E,0.00,0.00,211020,0.0,E,A*35\r\n$GPGGA,181450.00015900,3959.6206990,N,11624.6704757,E,1,10,1.5,113.504,M,-9.406,M,0.0,*53\r\n"}
current_End_Timestamp:2020_10_22_02_14_50.154	Interval:800(ms)
current_Start_Timestamp:2020_10_22_02_14_50.381
successful:{"high_accuracy_location":"$GPRMC,181451.00015900,A,3959.6221933,N,11624.6705095,E,0.00,0.00,211020,0.0,E,A*30\r\n$GPGGA,181451.00015900,3959.6221933,N,11624.6705095,E,1,10,1.5,114.093,M,-9.406,M,0.0,*5A\r\n"}
current_End_Timestamp:2020_10_22_02_14_51.114	Interval:733(ms)
current_Start_Timestamp:2020_10_22_02_14_51.358
successful:{"high_accuracy_location":"$GPRMC,181452.00015900,A,3959.6190995,N,11624.6690399,E,0.00,0.00,211020,0.0,E,D*31\r\n$GPGGA,181452.00015900,3959.6190995,N,11624.6690399,E,5,07,1.5,140.951,M,-9.406,M,1.0,*5B\r\n"}
current_End_Timestamp:2020_10_22_02_14_51.475	Interval:117(ms)
current_Start_Timestamp:2020_10_22_02_14_52.351
successful:{"high_accuracy_location":"$GPRMC,181453.00016000,A,3959.6257423,N,11624.6755896,E,0.00,0.00,211020,0.0,E,D*3E\r\n$GPGGA,181453.00016000,3959.6257423,N,11624.6755896,E,5,08,1.5,19.905,M,-9.406,M,1.0,*67\r\n"}
current_End_Timestamp:2020_10_22_02_14_52.472	Interval:121(ms)
current_Start_Timestamp:2020_10_22_02_14_53.331
successful:{"high_accuracy_location":"$GPRMC,181454.00016000,A,3959.6318439,N,11624.6761975,E,0.00,0.00,211020,0.0,E,D*33\r\n$GPGGA,181454.00016000,3959.6318439,N,11624.6761975,E,5,07,1.5,-56.198,M,-9.406,M,0.0,*4E\r\n"}
current_End_Timestamp:2020_10_22_02_14_53.962	Interval:631(ms)
current_Start_Timestamp:2020_10_22_02_14_54.339
successful:{"high_accuracy_location":"$GPRMC,181455.00016000,A,3959.6303964,N,11624.6794957,E,0.00,0.00,211020,0.0,E,D*37\r\n$GPGGA,181455.00016000,3959.6303964,N,11624.6794957,E,5,08,1.5,-64.018,M,-9.406,M,0.0,*4D\r\n"}
current_End_Timestamp:2020_10_22_02_14_55.073	Interval:734(ms)
current_Start_Timestamp:2020_10_22_02_14_55.348
successful:{"high_accuracy_location":"$GPRMC,181456.00016000,A,3959.6239086,N,11624.6697370,E,0.00,0.00,211020,0.0,E,A*31\r\n$GPGGA,181456.00016000,3959.6239086,N,11624.6697370,E,1,11,1.5,100.413,M,-9.406,M,0.0,*53\r\n"}
current_End_Timestamp:2020_10_22_02_14_56.034	Interval:686(ms)
current_Start_Timestamp:2020_10_22_02_14_56.338
successful:{"high_accuracy_location":"$GPRMC,181457.00016000,A,3959.6239790,N,11624.6695759,E,0.00,0.00,211020,0.0,E,A*3D\r\n$GPGGA,181457.00016000,3959.6239790,N,11624.6695759,E,1,12,1.5,104.617,M,-9.406,M,0.0,*5E\r\n"}
current_End_Timestamp:2020_10_22_02_14_56.452	Interval:114(ms)
current_Start_Timestamp:2020_10_22_02_14_57.369
successful:{"high_accuracy_location":"$GPRMC,181458.00016000,A,3959.6243202,N,11624.6697040,E,0.00,0.00,211020,0.0,E,A*3C\r\n$GPGGA,181458.00016000,3959.6243202,N,11624.6697040,E,1,12,1.5,98.035,M,-9.406,M,0.0,*6D\r\n"}
current_End_Timestamp:2020_10_22_02_14_58.001	Interval:632(ms)
current_Start_Timestamp:2020_10_22_02_14_58.365
successful:{"high_accuracy_location":"$GPRMC,181459.00016000,A,3959.6244931,N,11624.6699767,E,0.00,0.00,211020,0.0,E,A*3D\r\n$GPGGA,181459.00016000,3959.6244931,N,11624.6699767,E,1,10,1.5,97.955,M,-9.406,M,0.0,*6E\r\n"}
current_End_Timestamp:2020_10_22_02_14_58.492	Interval:127(ms)
current_Start_Timestamp:2020_10_22_02_14_59.355
successful:{"high_accuracy_location":"$GPRMC,181500.00016000,A,3959.6304644,N,11624.6792186,E,0.00,0.00,211020,0.0,E,D*3E\r\n$GPGGA,181500.00016000,3959.6304644,N,11624.6792186,E,5,06,1.5,-63.964,M,-9.406,M,0.0,*4F\r\n"}
current_End_Timestamp:2020_10_22_02_14_59.997	Interval:642(ms)
current_Start_Timestamp:2020_10_22_02_15_00.340
successful:{"high_accuracy_location":"$GPRMC,181501.00016000,A,3959.6309999,N,11624.6793524,E,0.00,0.00,211020,0.0,E,D*30\r\n$GPGGA,181501.00016000,3959.6309999,N,11624.6793524,E,5,07,1.5,-74.782,M,-9.406,M,1.0,*41\r\n"}
current_End_Timestamp:2020_10_22_02_15_00.452	Interval:112(ms)
current_Start_Timestamp:2020_10_22_02_15_01.355
successful:{"high_accuracy_location":"$GPRMC,181502.00016000,A,3959.6255130,N,11624.6707483,E,0.00,0.00,211020,0.0,E,A*34\r\n$GPGGA,181502.00016000,3959.6255130,N,11624.6707483,E,1,11,1.5,94.638,M,-9.406,M,0.0,*61\r\n"}
current_End_Timestamp:2020_10_22_02_15_01.475	Interval:120(ms)
current_Start_Timestamp:2020_10_22_02_15_02.296
successful:{"high_accuracy_location":"$GPRMC,181503.00016000,A,3959.6262099,N,11624.6708613,E,0.00,0.00,211020,0.0,E,A*37\r\n$GPGGA,181503.00016000,3959.6262099,N,11624.6708613,E,1,11,1.5,90.481,M,-9.406,M,0.0,*66\r\n"}
current_End_Timestamp:2020_10_22_02_15_02.431	Interval:135(ms)
current_Start_Timestamp:2020_10_22_02_15_03.357
successful:{"high_accuracy_location":"$GPRMC,181504.00016000,A,3959.6317800,N,11624.6781560,E,0.00,0.00,211020,0.0,E,D*38\r\n$GPGGA,181504.00016000,3959.6317800,N,11624.6781560,E,5,06,1.5,-77.838,M,-9.406,M,1.0,*45\r\n"}
current_End_Timestamp:2020_10_22_02_15_03.477	Interval:120(ms)
current_Start_Timestamp:2020_10_22_02_15_04.347
successful:{"high_accuracy_location":"$GPRMC,181505.00016000,A,3959.6313537,N,11624.6764846,E,0.00,0.00,211020,0.0,E,D*36\r\n$GPGGA,181505.00016000,3959.6313537,N,11624.6764846,E,5,09,1.5,-62.557,M,-9.406,M,1.0,*44\r\n"}
current_End_Timestamp:2020_10_22_02_15_04.458	Interval:111(ms)
current_Start_Timestamp:2020_10_22_02_15_05.334
successful:{"high_accuracy_location":"$GPRMC,181506.00016000,A,3959.6307499,N,11624.6755579,E,0.00,0.00,211020,0.0,E,D*36\r\n$GPGGA,181506.00016000,3959.6307499,N,11624.6755579,E,5,07,1.5,-49.484,M,-9.406,M,1.0,*4C\r\n"}
current_End_Timestamp:2020_10_22_02_15_05.440	Interval:106(ms)
current_Start_Timestamp:2020_10_22_02_15_06.363
successful:{"high_accuracy_location":"$GPRMC,181507.00016000,A,3959.6311262,N,11624.6748047,E,0.00,0.00,211020,0.0,E,D*36\r\n$GPGGA,181507.00016000,3959.6311262,N,11624.6748047,E,5,09,1.5,-45.346,M,-9.406,M,1.0,*47\r\n"}
current_End_Timestamp:2020_10_22_02_15_06.472	Interval:109(ms)
current_Start_Timestamp:2020_10_22_02_15_07.381
successful:{"high_accuracy_location":"$GPRMC,181508.00016000,A,3959.6307537,N,11624.6737483,E,0.00,0.00,211020,0.0,E,D*3D\r\n$GPGGA,181508.00016000,3959.6307537,N,11624.6737483,E,5,07,1.5,-31.758,M,-9.406,M,1.0,*4A\r\n"}
current_End_Timestamp:2020_10_22_02_15_07.492	Interval:111(ms)
current_Start_Timestamp:2020_10_22_02_15_08.370
successful:{"high_accuracy_location":"$GPRMC,181509.00016000,A,3959.6272170,N,11624.6678007,E,0.00,0.00,211020,0.0,E,A*3F\r\n$GPGGA,181509.00016000,3959.6272170,N,11624.6678007,E,1,11,1.5,80.251,M,-9.406,M,0.0,*64\r\n"}
current_End_Timestamp:2020_10_22_02_15_08.492	Interval:122(ms)
current_Start_Timestamp:2020_10_22_02_15_09.367
successful:{"high_accuracy_location":"$GPRMC,181510.00016000,A,3959.6267923,N,11624.6670303,E,0.00,0.00,211020,0.0,E,A*32\r\n$GPGGA,181510.00016000,3959.6267923,N,11624.6670303,E,1,11,1.5,82.040,M,-9.406,M,0.0,*69\r\n"}
current_End_Timestamp:2020_10_22_02_15_09.492	Interval:125(ms)
current_Start_Timestamp:2020_10_22_02_15_10.301
successful:{"high_accuracy_location":"$GPRMC,181511.00016000,A,3959.6282866,N,11624.6724211,E,0.00,0.00,211020,0.0,E,D*3F\r\n$GPGGA,181511.00016000,3959.6282866,N,11624.6724211,E,5,06,1.5,-10.487,M,-9.406,M,1.0,*4B\r\n"}
current_End_Timestamp:2020_10_22_02_15_10.434	Interval:133(ms)
current_Start_Timestamp:2020_10_22_02_15_11.353
successful:{"high_accuracy_location":"$GPRMC,181512.00016000,A,3959.6189278,N,11624.6664779,E,0.00,0.00,211020,0.0,E,D*3F\r\n$GPGGA,181512.00016000,3959.6189278,N,11624.6664779,E,5,09,1.5,72.160,M,-9.406,M,1.0,*61\r\n"}
current_End_Timestamp:2020_10_22_02_15_11.479	Interval:126(ms)
current_Start_Timestamp:2020_10_22_02_15_12.335
successful:{"high_accuracy_location":"$GPRMC,181513.00016000,A,3959.6220115,N,11624.6692439,E,0.00,0.00,211020,0.0,E,D*38\r\n$GPGGA,181513.00016000,3959.6220115,N,11624.6692439,E,5,08,1.5,41.208,M,-9.406,M,1.0,*6A\r\n"}
current_End_Timestamp:2020_10_22_02_15_12.452	Interval:117(ms)
current_Start_Timestamp:2020_10_22_02_15_13.360
successful:{"high_accuracy_location":"$GPRMC,181514.00016000,A,3959.6340552,N,11624.6784335,E,0.00,0.00,211020,0.0,E,D*32\r\n$GPGGA,181514.00016000,3959.6340552,N,11624.6784335,E,5,08,1.5,-71.831,M,-9.406,M,1.0,*4E\r\n"}
current_End_Timestamp:2020_10_22_02_15_13.476	Interval:116(ms)
current_Start_Timestamp:2020_10_22_02_15_14.346
successful:{"high_accuracy_location":"$GPRMC,181515.00016000,A,3959.6337319,N,11624.6783651,E,0.00,0.00,211020,0.0,E,D*3A\r\n$GPGGA,181515.00016000,3959.6337319,N,11624.6783651,E,5,08,1.5,-68.060,M,-9.406,M,1.0,*42\r\n"}
current_End_Timestamp:2020_10_22_02_15_14.453	Interval:107(ms)
current_Start_Timestamp:2020_10_22_02_15_15.347
successful:{"high_accuracy_location":"$GPRMC,181516.00016000,A,3959.6338326,N,11624.6786128,E,0.00,0.00,211020,0.0,E,D*36\r\n$GPGGA,181516.00016000,3959.6338326,N,11624.6786128,E,5,08,1.5,-63.730,M,-9.406,M,1.0,*47\r\n"}
current_End_Timestamp:2020_10_22_02_15_15.476	Interval:129(ms)
current_Start_Timestamp:2020_10_22_02_15_16.347
successful:{"high_accuracy_location":"$GPRMC,181517.00016000,A,3959.6351179,N,11624.6792766,E,0.00,0.00,211020,0.0,E,D*39\r\n$GPGGA,181517.00016000,3959.6351179,N,11624.6792766,E,5,06,1.5,-70.330,M,-9.406,M,1.0,*40\r\n"}
current_End_Timestamp:2020_10_22_02_15_16.472	Interval:125(ms)
current_Start_Timestamp:2020_10_22_02_15_17.352
successful:{"high_accuracy_location":"$GPRMC,181518.00016000,A,3959.6326389,N,11624.6775655,E,0.00,0.00,211020,0.0,E,D*33\r\n$GPGGA,181518.00016000,3959.6326389,N,11624.6775655,E,5,08,1.5,-46.845,M,-9.406,M,0.0,*49\r\n"}
current_End_Timestamp:2020_10_22_02_15_17.719	Interval:367(ms)
current_Start_Timestamp:2020_10_22_02_15_18.393
successful:{"high_accuracy_location":"$GPRMC,181519.00016000,A,3959.6320702,N,11624.6766512,E,0.00,0.00,211020,0.0,E,D*31\r\n$GPGGA,181519.00016000,3959.6320702,N,11624.6766512,E,5,06,1.5,-39.160,M,-9.406,M,0.0,*43\r\n"}
current_End_Timestamp:2020_10_22_02_15_19.037	Interval:644(ms)
current_Start_Timestamp:2020_10_22_02_15_19.346
successful:{"high_accuracy_location":"$GPRMC,181520.00016000,A,3959.6329086,N,11624.6772130,E,0.00,0.00,211020,0.0,E,D*38\r\n$GPGGA,181520.00016000,3959.6329086,N,11624.6772130,E,5,06,1.5,-42.689,M,-9.406,M,1.0,*47\r\n"}
current_End_Timestamp:2020_10_22_02_15_19.475	Interval:129(ms)
current_Start_Timestamp:2020_10_22_02_15_20.344
successful:{"high_accuracy_location":"$GPRMC,181521.00016000,A,3959.6329354,N,11624.6780783,E,0.00,0.00,211020,0.0,E,D*36\r\n$GPGGA,181521.00016000,3959.6329354,N,11624.6780783,E,5,08,1.5,-47.760,M,-9.406,M,1.0,*44\r\n"}
current_End_Timestamp:2020_10_22_02_15_20.458	Interval:114(ms)
current_Start_Timestamp:2020_10_22_02_15_21.343
successful:{"high_accuracy_location":"$GPRMC,181522.00016000,A,3959.6330314,N,11624.6786029,E,0.00,0.00,211020,0.0,E,D*38\r\n$GPGGA,181522.00016000,3959.6330314,N,11624.6786029,E,5,08,1.5,-50.599,M,-9.406,M,0.0,*49\r\n"}
current_End_Timestamp:2020_10_22_02_15_22.153	Interval:810(ms)
current_Start_Timestamp:2020_10_22_02_15_22.370
successful:{"high_accuracy_location":"$GPRMC,181523.00016000,A,3959.6336041,N,11624.6790567,E,0.00,0.00,211020,0.0,E,D*34\r\n$GPGGA,181523.00016000,3959.6336041,N,11624.6790567,E,5,08,1.5,-52.541,M,-9.406,M,1.0,*43\r\n"}
current_End_Timestamp:2020_10_22_02_15_22.492	Interval:122(ms)
current_Start_Timestamp:2020_10_22_02_15_23.347
successful:{"high_accuracy_location":"$GPRMC,181524.00016000,A,3959.6327931,N,11624.6783958,E,0.00,0.00,211020,0.0,E,D*3F\r\n$GPGGA,181524.00016000,3959.6327931,N,11624.6783958,E,5,08,1.5,-39.555,M,-9.406,M,0.0,*41\r\n"}
current_End_Timestamp:2020_10_22_02_15_24.032	Interval:685(ms)
current_Start_Timestamp:2020_10_22_02_15_24.344
successful:{"high_accuracy_location":"$GPRMC,181525.00016000,A,3959.6309489,N,11624.6769055,E,0.00,0.00,211020,0.0,E,D*3C\r\n$GPGGA,181525.00016000,3959.6309489,N,11624.6769055,E,5,09,1.5,-19.389,M,-9.406,M,1.0,*47\r\n"}
current_End_Timestamp:2020_10_22_02_15_24.459	Interval:115(ms)
current_Start_Timestamp:2020_10_22_02_15_25.355
successful:{"high_accuracy_location":"$GPRMC,181526.00016000,A,3959.6297044,N,11624.6755938,E,0.00,0.00,211020,0.0,E,D*31\r\n$GPGGA,181526.00016000,3959.6297044,N,11624.6755938,E,5,09,1.5,-4.423,M,-9.406,M,1.0,*71\r\n"}
current_End_Timestamp:2020_10_22_02_15_25.476	Interval:121(ms)
current_Start_Timestamp:2020_10_22_02_15_26.351
successful:{"high_accuracy_location":"$GPRMC,181527.00016000,A,3959.6294246,N,11624.6754416,E,0.00,0.00,211020,0.0,E,D*33\r\n$GPGGA,181527.00016000,3959.6294246,N,11624.6754416,E,5,07,1.5,-3.388,M,-9.406,M,0.0,*7D\r\n"}
current_End_Timestamp:2020_10_22_02_15_27.074	Interval:723(ms)
current_Start_Timestamp:2020_10_22_02_15_27.350
successful:{"high_accuracy_location":"$GPRMC,181528.00016000,A,3959.6247921,N,11624.6674511,E,0.00,0.00,211020,0.0,E,A*38\r\n$GPGGA,181528.00016000,3959.6247921,N,11624.6674511,E,1,11,1.5,122.842,M,-9.406,M,0.0,*52\r\n"}
current_End_Timestamp:2020_10_22_02_15_28.032	Interval:682(ms)
current_Start_Timestamp:2020_10_22_02_15_28.347
successful:{"high_accuracy_location":"$GPRMC,181529.00016000,A,3959.6355724,N,11624.6807467,E,0.00,0.00,211020,0.0,E,D*3F\r\n$GPGGA,181529.00016000,3959.6355724,N,11624.6807467,E,5,06,1.5,-65.052,M,-9.406,M,1.0,*45\r\n"}
current_End_Timestamp:2020_10_22_02_15_28.466	Interval:119(ms)
current_Start_Timestamp:2020_10_22_02_15_29.361
successful:{"high_accuracy_location":"$GPRMC,181530.00016000,A,3959.6318118,N,11624.6780504,E,0.00,0.00,211020,0.0,E,D*33\r\n$GPGGA,181530.00016000,3959.6318118,N,11624.6780504,E,5,10,1.5,-32.404,M,-9.406,M,0.0,*4A\r\n"}
current_End_Timestamp:2020_10_22_02_15_30.197	Interval:836(ms)
current_Start_Timestamp:2020_10_22_02_15_30.362
successful:{"high_accuracy_location":"$GPRMC,181531.00016000,A,3959.6238664,N,11624.6719853,E,0.00,0.00,211020,0.0,E,D*32\r\n$GPGGA,181531.00016000,3959.6238664,N,11624.6719853,E,5,07,1.5,44.019,M,-9.406,M,1.0,*68\r\n"}
current_End_Timestamp:2020_10_22_02_15_30.472	Interval:110(ms)
current_Start_Timestamp:2020_10_22_02_15_31.377
successful:{"high_accuracy_location":"$GPRMC,181532.00016000,A,3959.6315102,N,11624.6782023,E,0.00,0.00,211020,0.0,E,D*35\r\n$GPGGA,181532.00016000,3959.6315102,N,11624.6782023,E,5,09,1.5,-32.539,M,-9.406,M,1.0,*4A\r\n"}
current_End_Timestamp:2020_10_22_02_15_31.493	Interval:116(ms)
current_Start_Timestamp:2020_10_22_02_15_32.361
successful:{"high_accuracy_location":"$GPRMC,181533.00016000,A,3959.6065496,N,11624.6582869,E,0.00,0.00,211020,0.0,E,D*3C\r\n$GPGGA,181533.00016000,3959.6065496,N,11624.6582869,E,5,08,1.5,210.814,M,-9.407,M,0.0,*5F\r\n"}
current_End_Timestamp:2020_10_22_02_15_32.996	Interval:635(ms)
current_Start_Timestamp:2020_10_22_02_15_33.337
successful:{"high_accuracy_location":"$GPRMC,181534.00016000,A,3959.6282240,N,11624.6757882,E,0.00,0.00,211020,0.0,E,D*32\r\n$GPGGA,181534.00016000,3959.6282240,N,11624.6757882,E,5,08,1.5,-2.985,M,-9.406,M,0.0,*75\r\n"}
current_End_Timestamp:2020_10_22_02_15_34.192	Interval:855(ms)
current_Start_Timestamp:2020_10_22_02_15_34.375
successful:{"high_accuracy_location":"$GPRMC,181535.00016000,A,3959.6271122,N,11624.6750475,E,0.00,0.00,211020,0.0,E,D*3B\r\n$GPGGA,181535.00016000,3959.6271122,N,11624.6750475,E,5,08,1.5,7.168,M,-9.406,M,1.0,*5E\r\n"}
current_End_Timestamp:2020_10_22_02_15_34.512	Interval:137(ms)
current_Start_Timestamp:2020_10_22_02_15_35.359
successful:{"high_accuracy_location":"$GPRMC,181536.00016000,A,3959.6275387,N,11624.6756393,E,0.00,0.00,211020,0.0,E,D*38\r\n$GPGGA,181536.00016000,3959.6275387,N,11624.6756393,E,5,08,1.5,0.905,M,-9.406,M,0.0,*58\r\n"}
current_End_Timestamp:2020_10_22_02_15_36.259	Interval:900(ms)
current_Start_Timestamp:2020_10_22_02_15_36.390
successful:{"high_accuracy_location":"$GPRMC,181537.00016000,A,3959.6264690,N,11624.6748929,E,0.00,0.00,211020,0.0,E,D*3E\r\n$GPGGA,181537.00016000,3959.6264690,N,11624.6748929,E,5,08,1.5,10.835,M,-9.406,M,1.0,*6C\r\n"}
current_End_Timestamp:2020_10_22_02_15_36.514	Interval:124(ms)
current_Start_Timestamp:2020_10_22_02_15_37.335
successful:{"high_accuracy_location":"$GPRMC,181538.00016000,A,3959.6253768,N,11624.6741104,E,0.00,0.00,211020,0.0,E,D*3D\r\n$GPGGA,181538.00016000,3959.6253768,N,11624.6741104,E,5,08,1.5,18.700,M,-9.406,M,1.0,*6E\r\n"}
current_End_Timestamp:2020_10_22_02_15_37.447	Interval:112(ms)
current_Start_Timestamp:2020_10_22_02_15_38.339
successful:{"high_accuracy_location":"$GPRMC,181539.00016000,A,3959.6239568,N,11624.6728398,E,0.00,0.00,211020,0.0,E,D*3A\r\n$GPGGA,181539.00016000,3959.6239568,N,11624.6728398,E,5,08,1.5,32.333,M,-9.406,M,1.0,*65\r\n"}
current_End_Timestamp:2020_10_22_02_15_38.454	Interval:115(ms)
current_Start_Timestamp:2020_10_22_02_15_39.359
successful:{"high_accuracy_location":"$GPRMC,181540.00016000,A,3959.6235144,N,11624.6726341,E,0.00,0.00,211020,0.0,E,D*38\r\n$GPGGA,181540.00016000,3959.6235144,N,11624.6726341,E,5,07,1.5,34.364,M,-9.406,M,0.0,*6D\r\n"}
current_End_Timestamp:2020_10_22_02_15_40.073	Interval:714(ms)
current_Start_Timestamp:2020_10_22_02_15_40.349
successful:{"high_accuracy_location":"$GPRMC,181541.00016000,A,3959.6235888,N,11624.6727352,E,0.00,0.00,211020,0.0,E,D*33\r\n$GPGGA,181541.00016000,3959.6235888,N,11624.6727352,E,5,07,1.5,32.832,M,-9.406,M,1.0,*69\r\n"}
current_End_Timestamp:2020_10_22_02_15_40.459	Interval:110(ms)
current_Start_Timestamp:2020_10_22_02_15_41.336
successful:{"high_accuracy_location":"$GPRMC,181542.00016000,A,3959.6247874,N,11624.6736409,E,0.00,0.00,211020,0.0,E,D*3F\r\n$GPGGA,181542.00016000,3959.6247874,N,11624.6736409,E,5,07,1.5,21.549,M,-9.406,M,0.0,*67\r\n"}
current_End_Timestamp:2020_10_22_02_15_41.993	Interval:657(ms)
current_Start_Timestamp:2020_10_22_02_15_42.337
successful:{"high_accuracy_location":"$GPRMC,181543.00016000,A,3959.6249788,N,11624.6737177,E,0.00,0.00,211020,0.0,E,D*31\r\n$GPGGA,181543.00016000,3959.6249788,N,11624.6737177,E,5,08,1.5,19.101,M,-9.406,M,0.0,*65\r\n"}
current_End_Timestamp:2020_10_22_02_15_42.952	Interval:615(ms)
current_Start_Timestamp:2020_10_22_02_15_43.341
successful:{"high_accuracy_location":"$GPRMC,181544.00016000,A,3959.6257260,N,11624.6742485,E,0.00,0.00,211020,0.0,E,D*30\r\n$GPGGA,181544.00016000,3959.6257260,N,11624.6742485,E,5,08,1.5,9.858,M,-9.406,M,0.0,*50\r\n"}
current_End_Timestamp:2020_10_22_02_15_43.961	Interval:620(ms)
current_Start_Timestamp:2020_10_22_02_15_44.327
successful:{"high_accuracy_location":"$GPRMC,181545.00016000,A,3959.6257367,N,11624.6743704,E,0.00,0.00,211020,0.0,E,D*3C\r\n$GPGGA,181545.00016000,3959.6257367,N,11624.6743704,E,5,08,1.5,7.397,M,-9.406,M,0.0,*5A\r\n"}
current_End_Timestamp:2020_10_22_02_15_44.957	Interval:630(ms)
current_Start_Timestamp:2020_10_22_02_15_45.360
successful:{"high_accuracy_location":"$GPRMC,181546.00016000,A,3959.6255046,N,11624.6739705,E,0.00,0.00,211020,0.0,E,D*31\r\n$GPGGA,181546.00016000,3959.6255046,N,11624.6739705,E,5,08,1.5,10.158,M,-9.406,M,1.0,*61\r\n"}
current_End_Timestamp:2020_10_22_02_15_45.505	Interval:145(ms)
current_Start_Timestamp:2020_10_22_02_15_46.338
successful:{"high_accuracy_location":"$GPRMC,181547.00016100,A,3959.6256678,N,11624.6738292,E,0.00,0.00,211020,0.0,E,D*33\r\n$GPGGA,181547.00016100,3959.6256678,N,11624.6738292,E,5,08,1.5,9.557,M,-9.406,M,0.0,*51\r\n"}
current_End_Timestamp:2020_10_22_02_15_47.081	Interval:743(ms)
current_Start_Timestamp:2020_10_22_02_15_47.355
successful:{"high_accuracy_location":"$GPRMC,181548.00016100,A,3959.6253000,N,11624.6733700,E,0.00,0.00,211020,0.0,E,D*35\r\n$GPGGA,181548.00016100,3959.6253000,N,11624.6733700,E,5,08,1.5,14.540,M,-9.406,M,1.0,*6C\r\n"}
current_End_Timestamp:2020_10_22_02_15_47.475	Interval:120(ms)
current_Start_Timestamp:2020_10_22_02_15_48.351
successful:{"high_accuracy_location":"$GPRMC,181549.00016100,A,3959.6255172,N,11624.6734495,E,0.00,0.00,211020,0.0,E,D*3E\r\n$GPGGA,181549.00016100,3959.6255172,N,11624.6734495,E,5,06,1.5,14.089,M,-9.406,M,1.0,*69\r\n"}
current_End_Timestamp:2020_10_22_02_15_48.472	Interval:121(ms)
current_Start_Timestamp:2020_10_22_02_15_49.361
successful:{"high_accuracy_location":"$GPRMC,181550.00016100,A,3959.6255670,N,11624.6735357,E,0.00,0.00,211020,0.0,E,D*3B\r\n$GPGGA,181550.00016100,3959.6255670,N,11624.6735357,E,5,08,1.5,15.002,M,-9.406,M,0.0,*61\r\n"}
current_End_Timestamp:2020_10_22_02_15_50.152	Interval:791(ms)
current_Start_Timestamp:2020_10_22_02_15_50.347
successful:{"high_accuracy_location":"$GPRMC,181551.00016100,A,3959.6257734,N,11624.6735397,E,0.00,0.00,211020,0.0,E,D*35\r\n$GPGGA,181551.00016100,3959.6257734,N,11624.6735397,E,5,06,1.5,14.732,M,-9.406,M,1.0,*65\r\n"}
current_End_Timestamp:2020_10_22_02_15_50.468	Interval:121(ms)
current_Start_Timestamp:2020_10_22_02_15_51.344
successful:{"high_accuracy_location":"$GPRMC,181552.00016100,A,3959.6253602,N,11624.6730230,E,0.00,0.00,211020,0.0,E,D*3F\r\n$GPGGA,181552.00016100,3959.6253602,N,11624.6730230,E,5,08,1.5,17.998,M,-9.406,M,0.0,*6D\r\n"}
current_End_Timestamp:2020_10_22_02_15_52.040	Interval:696(ms)
current_Start_Timestamp:2020_10_22_02_15_52.342
successful:{"high_accuracy_location":"$GPRMC,181553.00016100,A,3959.6254268,N,11624.6724473,E,0.00,0.00,211020,0.0,E,D*35\r\n$GPGGA,181553.00016100,3959.6254268,N,11624.6724473,E,5,06,1.5,19.477,M,-9.406,M,1.0,*6A\r\n"}
current_End_Timestamp:2020_10_22_02_15_52.452	Interval:110(ms)
current_Start_Timestamp:2020_10_22_02_15_53.331
successful:{"high_accuracy_location":"$GPRMC,181554.00016100,A,3959.6253672,N,11624.6713528,E,0.00,0.00,211020,0.0,E,D*31\r\n$GPGGA,181554.00016100,3959.6253672,N,11624.6713528,E,5,06,1.5,23.090,M,-9.406,M,1.0,*6A\r\n"}
current_End_Timestamp:2020_10_22_02_15_53.452	Interval:121(ms)
current_Start_Timestamp:2020_10_22_02_15_54.366
successful:{"high_accuracy_location":"$GPRMC,181555.00016100,A,3959.6256088,N,11624.6707419,E,0.00,0.00,211020,0.0,E,D*30\r\n$GPGGA,181555.00016100,3959.6256088,N,11624.6707419,E,5,06,1.5,22.228,M,-9.406,M,1.0,*6B\r\n"}
current_End_Timestamp:2020_10_22_02_15_54.478	Interval:112(ms)
current_Start_Timestamp:2020_10_22_02_15_55.353
successful:{"high_accuracy_location":"$GPRMC,181556.00016100,A,3959.6208811,N,11624.6614056,E,0.00,0.00,211020,0.0,E,A*39\r\n$GPGGA,181556.00016100,3959.6208811,N,11624.6614056,E,1,10,1.5,125.219,M,-9.407,M,0.0,*50\r\n"}
current_End_Timestamp:2020_10_22_02_15_55.493	Interval:140(ms)
current_Start_Timestamp:2020_10_22_02_15_56.319
successful:{"high_accuracy_location":"$GPRMC,181557.00016100,A,3959.6215131,N,11624.6620194,E,0.00,0.00,211020,0.0,E,A*37\r\n$GPGGA,181557.00016100,3959.6215131,N,11624.6620194,E,1,11,1.5,125.131,M,-9.406,M,0.0,*57\r\n"}
current_End_Timestamp:2020_10_22_02_15_56.434	Interval:115(ms)
current_Start_Timestamp:2020_10_22_02_15_57.351
successful:{"high_accuracy_location":"$GPRMC,181558.00016100,A,3959.6217961,N,11624.6635217,E,0.00,0.00,211020,0.0,E,A*3B\r\n$GPGGA,181558.00016100,3959.6217961,N,11624.6635217,E,1,13,1.5,114.086,M,-9.406,M,0.0,*56\r\n"}
current_End_Timestamp:2020_10_22_02_15_57.477	Interval:126(ms)
current_Start_Timestamp:2020_10_22_02_15_58.348
successful:{"high_accuracy_location":"$GPRMC,181559.00016100,A,3959.6225873,N,11624.6650900,E,0.00,0.00,211020,0.0,E,A*37\r\n$GPGGA,181559.00016100,3959.6225873,N,11624.6650900,E,1,14,1.5,111.137,M,-9.406,M,0.0,*53\r\n"}
current_End_Timestamp:2020_10_22_02_15_58.472	Interval:124(ms)
current_Start_Timestamp:2020_10_22_02_15_59.368
successful:{"high_accuracy_location":"$GPRMC,181600.00016100,A,3959.6221145,N,11624.6658069,E,0.00,0.00,211020,0.0,E,A*3E\r\n$GPGGA,181600.00016100,3959.6221145,N,11624.6658069,E,1,13,1.5,111.577,M,-9.406,M,0.0,*5D\r\n"}
current_End_Timestamp:2020_10_22_02_15_59.481	Interval:113(ms)
current_Start_Timestamp:2020_10_22_02_16_00.346
successful:{"high_accuracy_location":"$GPRMC,181601.00016100,A,3959.6194743,N,11624.6653145,E,0.00,0.00,211020,0.0,E,A*36\r\n$GPGGA,181601.00016100,3959.6194743,N,11624.6653145,E,1,13,1.5,112.442,M,-9.406,M,0.0,*51\r\n"}
current_End_Timestamp:2020_10_22_02_16_00.458	Interval:112(ms)
current_Start_Timestamp:2020_10_22_02_16_01.391
successful:{"high_accuracy_location":"$GPRMC,181602.00016100,A,3959.6172902,N,11624.6664473,E,0.00,0.00,211020,0.0,E,A*32\r\n$GPGGA,181602.00016100,3959.6172902,N,11624.6664473,E,1,11,1.5,113.084,M,-9.406,M,0.0,*58\r\n"}
current_End_Timestamp:2020_10_22_02_16_01.519	Interval:128(ms)
current_Start_Timestamp:2020_10_22_02_16_02.333
successful:{"high_accuracy_location":"$GPRMC,181603.00016100,A,3959.6158366,N,11624.6680615,E,0.00,0.00,211020,0.0,E,A*3B\r\n$GPGGA,181603.00016100,3959.6158366,N,11624.6680615,E,1,09,1.5,112.882,M,-9.406,M,0.0,*57\r\n"}
current_End_Timestamp:2020_10_22_02_16_02.440	Interval:107(ms)
current_Start_Timestamp:2020_10_22_02_16_03.388
successful:{"high_accuracy_location":"$GPRMC,181604.00016100,A,3959.6155404,N,11624.6716300,E,0.00,0.00,211020,0.0,E,A*3D\r\n$GPGGA,181604.00016100,3959.6155404,N,11624.6716300,E,1,09,1.5,111.939,M,-9.406,M,0.0,*53\r\n"}
current_End_Timestamp:2020_10_22_02_16_03.500	Interval:112(ms)
current_Start_Timestamp:2020_10_22_02_16_04.354
successful:{"high_accuracy_location":"$GPRMC,181605.00016100,A,3959.6215841,N,11624.6782919,E,0.00,0.00,211020,0.0,E,D*3C\r\n$GPGGA,181605.00016100,3959.6215841,N,11624.6782919,E,5,07,1.5,-47.094,M,-9.406,M,1.0,*4D\r\n"}
current_End_Timestamp:2020_10_22_02_16_04.459	Interval:105(ms)
current_Start_Timestamp:2020_10_22_02_16_05.344
successful:{"high_accuracy_location":"$GPRMC,181606.00016100,A,3959.6136530,N,11624.6787238,E,0.00,0.00,211020,0.0,E,A*3E\r\n$GPGGA,181606.00016100,3959.6136530,N,11624.6787238,E,1,10,1.5,108.241,M,-9.406,M,0.0,*54\r\n"}
current_End_Timestamp:2020_10_22_02_16_05.471	Interval:127(ms)
current_Start_Timestamp:2020_10_22_02_16_06.325
successful:{"high_accuracy_location":"$GPRMC,181607.00016100,A,3959.6142361,N,11624.6820953,E,0.00,0.00,211020,0.0,E,D*3F\r\n$GPGGA,181607.00016100,3959.6142361,N,11624.6820953,E,5,07,1.5,36.858,M,-9.406,M,1.0,*6D\r\n"}
current_End_Timestamp:2020_10_22_02_16_06.443	Interval:118(ms)
current_Start_Timestamp:2020_10_22_02_16_07.356
successful:{"high_accuracy_location":"$GPRMC,181608.00016100,A,3959.6107341,N,11624.6834633,E,0.00,0.00,211020,0.0,E,D*3F\r\n$GPGGA,181608.00016100,3959.6107341,N,11624.6834633,E,5,08,1.5,169.144,M,-9.406,M,0.0,*5C\r\n"}
current_End_Timestamp:2020_10_22_02_16_07.976	Interval:620(ms)
current_Start_Timestamp:2020_10_22_02_16_08.334
successful:{"high_accuracy_location":"$GPRMC,181609.00016100,A,3959.6196447,N,11624.6986603,E,0.00,0.00,211020,0.0,E,D*3C\r\n$GPGGA,181609.00016100,3959.6196447,N,11624.6986603,E,5,07,1.5,-46.951,M,-9.406,M,0.0,*4D\r\n"}
current_End_Timestamp:2020_10_22_02_16_08.933	Interval:599(ms)
current_Start_Timestamp:2020_10_22_02_16_09.356
successful:{"high_accuracy_location":"$GPRMC,181610.00016100,A,3959.6143181,N,11624.7012467,E,0.00,0.00,211020,0.0,E,D*36\r\n$GPGGA,181610.00016100,3959.6143181,N,11624.7012467,E,5,06,1.5,6.616,M,-9.406,M,1.0,*52\r\n"}
current_End_Timestamp:2020_10_22_02_16_09.496	Interval:140(ms)
current_Start_Timestamp:2020_10_22_02_16_10.343
successful:{"high_accuracy_location":"$GPRMC,181611.00016100,A,3959.6104323,N,11624.7058929,E,0.00,0.00,211020,0.0,E,D*37\r\n$GPGGA,181611.00016100,3959.6104323,N,11624.7058929,E,5,07,1.5,26.592,M,-9.406,M,0.0,*6E\r\n"}
current_End_Timestamp:2020_10_22_02_16_11.007	Interval:664(ms)
current_Start_Timestamp:2020_10_22_02_16_11.332
successful:{"high_accuracy_location":"$GPRMC,181612.00016100,A,3959.6032513,N,11624.7074906,E,0.00,0.00,211020,0.0,E,D*36\r\n$GPGGA,181612.00016100,3959.6032513,N,11624.7074906,E,5,06,1.5,118.227,M,-9.406,M,1.0,*5A\r\n"}
current_End_Timestamp:2020_10_22_02_16_11.471	Interval:139(ms)
current_Start_Timestamp:2020_10_22_02_16_12.359
successful:{"high_accuracy_location":"$GPRMC,181613.00016100,A,3959.6050653,N,11624.7176387,E,0.00,0.00,211020,0.0,E,D*34\r\n$GPGGA,181613.00016100,3959.6050653,N,11624.7176387,E,5,07,1.5,41.329,M,-9.405,M,0.0,*69\r\n"}
current_End_Timestamp:2020_10_22_02_16_12.973	Interval:614(ms)
