current_Start_Timestamp:2020_10_22_00_52_24.860
fail:{"high_accuracy_location":""}
current_End_Timestamp:2020_10_22_00_52_25.102	Interval:242(ms)
current_Start_Timestamp:2020_10_22_00_52_25.891
fail:{"high_accuracy_location":""}
current_End_Timestamp:2020_10_22_00_52_26.041	Interval:150(ms)
current_Start_Timestamp:2020_10_22_00_52_26.847
fail:{"high_accuracy_location":""}
current_End_Timestamp:2020_10_22_00_52_26.985	Interval:138(ms)
current_Start_Timestamp:2020_10_22_00_52_27.848
fail:{"high_accuracy_location":""}
current_End_Timestamp:2020_10_22_00_52_27.995	Interval:147(ms)
current_Start_Timestamp:2020_10_22_00_52_28.864
fail:{"high_accuracy_location":""}
current_End_Timestamp:2020_10_22_00_52_29.005	Interval:141(ms)
current_Start_Timestamp:2020_10_22_00_52_29.851
fail:{"high_accuracy_location":""}
current_End_Timestamp:2020_10_22_00_52_29.980	Interval:129(ms)
current_Start_Timestamp:2020_10_22_00_52_30.860
successful:{"high_accuracy_location":"$GPRMC,165231.83900000,A,4003.2955831,N,11619.3047004,E,0.00,0.00,211020,0.0,E,D*3C\r\n$GPGGA,165231.83900000,4003.2955831,N,11619.3047004,E,5,07,1.3,35.339,M,-9.436,M,0.8,*6D\r\n"}
current_End_Timestamp:2020_10_22_00_52_31.005	Interval:145(ms)
current_Start_Timestamp:2020_10_22_00_52_31.879
successful:{"high_accuracy_location":"$GPRMC,165232.83900000,A,4003.2842605,N,11619.3078682,E,0.00,0.00,211020,0.0,E,D*35\r\n$GPGGA,165232.83900000,4003.2842605,N,11619.3078682,E,5,07,1.3,47.293,M,-9.437,M,0.8,*61\r\n"}
current_End_Timestamp:2020_10_22_00_52_32.010	Interval:131(ms)
current_Start_Timestamp:2020_10_22_00_52_32.877
successful:{"high_accuracy_location":"$GPRMC,165233.83900000,A,4003.2787629,N,11619.3132346,E,0.00,0.00,211020,0.0,E,D*3E\r\n$GPGGA,165233.83900000,4003.2787629,N,11619.3132346,E,5,07,1.3,47.890,M,-9.437,M,0.8,*63\r\n"}
current_End_Timestamp:2020_10_22_00_52_33.033	Interval:156(ms)
current_Start_Timestamp:2020_10_22_00_52_33.876
successful:{"high_accuracy_location":"$GPRMC,165234.83900000,A,4003.2730467,N,11619.3167043,E,0.00,0.00,211020,0.0,E,D*3B\r\n$GPGGA,165234.83900000,4003.2730467,N,11619.3167043,E,5,09,1.3,46.359,M,-9.437,M,0.8,*67\r\n"}
current_End_Timestamp:2020_10_22_00_52_34.023	Interval:147(ms)
current_Start_Timestamp:2020_10_22_00_52_34.865
successful:{"high_accuracy_location":"$GPRMC,165235.83900000,A,4003.2669296,N,11619.3198689,E,0.00,0.00,211020,0.0,E,D*3F\r\n$GPGGA,165235.83900000,4003.2669296,N,11619.3198689,E,5,09,1.3,47.778,M,-9.437,M,0.8,*65\r\n"}
current_End_Timestamp:2020_10_22_00_52_35.011	Interval:146(ms)
current_Start_Timestamp:2020_10_22_00_52_35.871
successful:{"high_accuracy_location":"$GPRMC,165236.83900000,A,4003.2615897,N,11619.3237548,E,0.00,0.00,211020,0.0,E,D*34\r\n$GPGGA,165236.83900000,4003.2615897,N,11619.3237548,E,5,09,1.3,47.506,M,-9.437,M,0.8,*65\r\n"}
current_End_Timestamp:2020_10_22_00_52_36.017	Interval:146(ms)
current_Start_Timestamp:2020_10_22_00_52_36.871
successful:{"high_accuracy_location":"$GPRMC,165237.83900000,A,4003.2564612,N,11619.3273204,E,0.00,0.00,211020,0.0,E,D*3C\r\n$GPGGA,165237.83900000,4003.2564612,N,11619.3273204,E,5,08,1.3,48.078,M,-9.437,M,0.8,*6F\r\n"}
current_End_Timestamp:2020_10_22_00_52_37.023	Interval:152(ms)
current_Start_Timestamp:2020_10_22_00_52_37.934
successful:{"high_accuracy_location":"$GPRMC,165238.55917900,A,4003.2518852,N,11619.3302511,E,0.00,0.00,211020,0.0,E,D*32\r\n$GPGGA,165238.55917900,4003.2518852,N,11619.3302511,E,5,08,1.3,47.087,M,-9.437,M,0.6,*60\r\n"}
current_End_Timestamp:2020_10_22_00_52_38.067	Interval:133(ms)
current_Start_Timestamp:2020_10_22_00_52_38.928
successful:{"high_accuracy_location":"$GPRMC,165239.55917900,A,4003.2479481,N,11619.3326733,E,0.00,0.00,211020,0.0,E,D*33\r\n$GPGGA,165239.55917900,4003.2479481,N,11619.3326733,E,5,09,1.3,48.700,M,-9.437,M,0.6,*67\r\n"}
current_End_Timestamp:2020_10_22_00_52_39.074	Interval:146(ms)
current_Start_Timestamp:2020_10_22_00_52_39.853
successful:{"high_accuracy_location":"$GPRMC,165240.55917800,A,4003.2451809,N,11619.3345248,E,0.00,0.00,211020,0.0,E,D*36\r\n$GPGGA,165240.55917800,4003.2451809,N,11619.3345248,E,5,08,1.3,49.608,M,-9.437,M,0.6,*6B\r\n"}
current_End_Timestamp:2020_10_22_00_52_39.997	Interval:144(ms)
current_Start_Timestamp:2020_10_22_00_52_40.883
successful:{"high_accuracy_location":"$GPRMC,165241.55917800,A,4003.2432205,N,11619.3362967,E,0.00,0.00,211020,0.0,E,D*37\r\n$GPGGA,165241.55917800,4003.2432205,N,11619.3362967,E,5,08,1.3,50.688,M,-9.437,M,0.6,*6A\r\n"}
current_End_Timestamp:2020_10_22_00_52_41.053	Interval:170(ms)
current_Start_Timestamp:2020_10_22_00_52_41.260
successful:{"high_accuracy_location":"$GPRMC,165242.00017800,A,4003.2525659,N,11619.3418709,E,0.00,0.00,211020,0.0,E,A*3E\r\n$GPGGA,165242.00017800,4003.2525659,N,11619.3418709,E,1,11,1.3,-24.017,M,-9.437,M,0.0,*42\r\n"}
current_End_Timestamp:2020_10_22_00_52_41.404	Interval:144(ms)
current_Start_Timestamp:2020_10_22_00_52_42.324
successful:{"high_accuracy_location":"$GPRMC,165243.00017800,A,4003.2510828,N,11619.3426672,E,0.00,0.00,211020,0.0,E,A*31\r\n$GPGGA,165243.00017800,4003.2510828,N,11619.3426672,E,1,11,1.3,-21.254,M,-9.437,M,0.0,*4D\r\n"}
current_End_Timestamp:2020_10_22_00_52_42.478	Interval:154(ms)
current_Start_Timestamp:2020_10_22_00_52_43.325
successful:{"high_accuracy_location":"$GPRMC,165244.00017800,A,4003.2505802,N,11619.3422576,E,0.00,0.00,211020,0.0,E,A*39\r\n$GPGGA,165244.00017800,4003.2505802,N,11619.3422576,E,1,11,1.3,-17.854,M,-9.437,M,0.0,*4A\r\n"}
current_End_Timestamp:2020_10_22_00_52_43.468	Interval:143(ms)
current_Start_Timestamp:2020_10_22_00_52_44.328
successful:{"high_accuracy_location":"$GPRMC,165245.00017800,A,4003.2495949,N,11619.3421967,E,0.00,0.00,211020,0.0,E,A*31\r\n$GPGGA,165245.00017800,4003.2495949,N,11619.3421967,E,1,11,1.3,-14.841,M,-9.437,M,0.0,*45\r\n"}
current_End_Timestamp:2020_10_22_00_52_44.474	Interval:146(ms)
current_Start_Timestamp:2020_10_22_00_52_45.341
successful:{"high_accuracy_location":"$GPRMC,165246.00017800,A,4003.2492358,N,11619.3423154,E,0.00,0.00,211020,0.0,E,A*35\r\n$GPGGA,165246.00017800,4003.2492358,N,11619.3423154,E,1,11,1.3,-12.154,M,-9.437,M,0.0,*4A\r\n"}
current_End_Timestamp:2020_10_22_00_52_45.496	Interval:155(ms)
current_Start_Timestamp:2020_10_22_00_52_46.338
successful:{"high_accuracy_location":"$GPRMC,165247.00017800,A,4003.2425192,N,11619.3338082,E,0.00,0.00,211020,0.0,E,D*3E\r\n$GPGGA,165247.00017800,4003.2425192,N,11619.3338082,E,5,10,1.3,39.775,M,-9.437,M,1.0,*61\r\n"}
current_End_Timestamp:2020_10_22_00_52_46.485	Interval:147(ms)
current_Start_Timestamp:2020_10_22_00_52_47.325
successful:{"high_accuracy_location":"$GPRMC,165248.00017800,A,4003.2405501,N,11619.3362760,E,0.00,0.00,211020,0.0,E,D*39\r\n$GPGGA,165248.00017800,4003.2405501,N,11619.3362760,E,5,10,1.3,46.990,M,-9.437,M,1.0,*6B\r\n"}
current_End_Timestamp:2020_10_22_00_52_47.475	Interval:150(ms)
current_Start_Timestamp:2020_10_22_00_52_48.344
successful:{"high_accuracy_location":"$GPRMC,165249.00017800,A,4003.2408419,N,11619.3353986,E,0.00,0.00,211020,0.0,E,D*39\r\n$GPGGA,165249.00017800,4003.2408419,N,11619.3353986,E,5,10,1.3,51.598,M,-9.437,M,1.0,*69\r\n"}
current_End_Timestamp:2020_10_22_00_52_48.480	Interval:136(ms)
current_Start_Timestamp:2020_10_22_00_52_49.330
successful:{"high_accuracy_location":"$GPRMC,165250.00017800,A,4003.2421494,N,11619.3378140,E,0.00,0.00,211020,0.0,E,D*34\r\n$GPGGA,165250.00017800,4003.2421494,N,11619.3378140,E,5,10,1.3,50.484,M,-9.437,M,1.0,*69\r\n"}
current_End_Timestamp:2020_10_22_00_52_49.487	Interval:157(ms)
current_Start_Timestamp:2020_10_22_00_52_50.319
successful:{"high_accuracy_location":"$GPRMC,165251.00017800,A,4003.2412534,N,11619.3379526,E,0.00,0.00,211020,0.0,E,D*3B\r\n$GPGGA,165251.00017800,4003.2412534,N,11619.3379526,E,5,11,1.3,51.686,M,-9.437,M,1.0,*66\r\n"}
current_End_Timestamp:2020_10_22_00_52_50.476	Interval:157(ms)
current_Start_Timestamp:2020_10_22_00_52_51.329
successful:{"high_accuracy_location":"$GPRMC,165252.00017800,A,4003.2403752,N,11619.3383197,E,0.00,0.00,211020,0.0,E,D*31\r\n$GPGGA,165252.00017800,4003.2403752,N,11619.3383197,E,5,09,1.3,51.548,M,-9.437,M,1.0,*64\r\n"}
current_End_Timestamp:2020_10_22_00_52_51.499	Interval:170(ms)
current_Start_Timestamp:2020_10_22_00_52_52.340
successful:{"high_accuracy_location":"$GPRMC,165253.00017800,A,4003.2392054,N,11619.3384376,E,0.00,0.00,211020,0.0,E,D*34\r\n$GPGGA,165253.00017800,4003.2392054,N,11619.3384376,E,5,10,1.3,51.243,M,-9.437,M,1.0,*65\r\n"}
current_End_Timestamp:2020_10_22_00_52_52.505	Interval:165(ms)
current_Start_Timestamp:2020_10_22_00_52_53.345
successful:{"high_accuracy_location":"$GPRMC,165254.00017800,A,4003.2386151,N,11619.3386484,E,0.00,0.00,211020,0.0,E,D*3A\r\n$GPGGA,165254.00017800,4003.2386151,N,11619.3386484,E,5,08,1.3,50.966,M,-9.437,M,1.0,*6F\r\n"}
current_End_Timestamp:2020_10_22_00_52_53.495	Interval:150(ms)
current_Start_Timestamp:2020_10_22_00_52_54.361
successful:{"high_accuracy_location":"$GPRMC,165255.00017700,A,4003.2377957,N,11619.3386028,E,0.00,0.00,211020,0.0,E,D*36\r\n$GPGGA,165255.00017700,4003.2377957,N,11619.3386028,E,5,07,1.3,50.762,M,-9.437,M,1.0,*66\r\n"}
current_End_Timestamp:2020_10_22_00_52_54.502	Interval:141(ms)
current_Start_Timestamp:2020_10_22_00_52_55.328
successful:{"high_accuracy_location":"$GPRMC,165256.00017700,A,4003.2365908,N,11619.3387573,E,0.00,0.00,211020,0.0,E,D*36\r\n$GPGGA,165256.00017700,4003.2365908,N,11619.3387573,E,5,05,1.3,50.318,M,-9.437,M,1.0,*6D\r\n"}
current_End_Timestamp:2020_10_22_00_52_55.491	Interval:163(ms)
current_Start_Timestamp:2020_10_22_00_52_56.331
successful:{"high_accuracy_location":"$GPRMC,165257.00017700,A,4003.2349719,N,11619.3391360,E,0.00,0.00,211020,0.0,E,D*34\r\n$GPGGA,165257.00017700,4003.2349719,N,11619.3391360,E,5,07,1.3,50.708,M,-9.437,M,1.0,*68\r\n"}
current_End_Timestamp:2020_10_22_00_52_56.497	Interval:166(ms)
current_Start_Timestamp:2020_10_22_00_52_57.332
successful:{"high_accuracy_location":"$GPRMC,165258.00017700,A,4003.2331668,N,11619.3398503,E,0.00,0.00,211020,0.0,E,D*39\r\n$GPGGA,165258.00017700,4003.2331668,N,11619.3398503,E,5,07,1.3,49.881,M,-9.437,M,1.0,*63\r\n"}
current_End_Timestamp:2020_10_22_00_52_57.470	Interval:138(ms)
current_Start_Timestamp:2020_10_22_00_52_58.338
successful:{"high_accuracy_location":"$GPRMC,165259.00017700,A,4003.2308267,N,11619.3401378,E,0.00,0.00,211020,0.0,E,D*34\r\n$GPGGA,165259.00017700,4003.2308267,N,11619.3401378,E,5,08,1.3,50.056,M,-9.437,M,1.0,*6B\r\n"}
current_End_Timestamp:2020_10_22_00_52_58.493	Interval:155(ms)
current_Start_Timestamp:2020_10_22_00_52_59.326
successful:{"high_accuracy_location":"$GPRMC,165300.00017700,A,4003.2280343,N,11619.3408276,E,0.00,0.00,211020,0.0,E,D*39\r\n$GPGGA,165300.00017700,4003.2280343,N,11619.3408276,E,5,07,1.3,49.230,M,-9.438,M,1.0,*6C\r\n"}
current_End_Timestamp:2020_10_22_00_52_59.482	Interval:156(ms)
current_Start_Timestamp:2020_10_22_00_53_00.332
successful:{"high_accuracy_location":"$GPRMC,165301.00017700,A,4003.2248836,N,11619.3414852,E,0.00,0.00,211020,0.0,E,D*34\r\n$GPGGA,165301.00017700,4003.2248836,N,11619.3414852,E,5,08,1.3,49.942,M,-9.438,M,0.0,*61\r\n"}
current_End_Timestamp:2020_10_22_00_53_00.606	Interval:274(ms)
current_Start_Timestamp:2020_10_22_00_53_01.360
successful:{"high_accuracy_location":"$GPRMC,165302.00017700,A,4003.2216855,N,11619.3418389,E,0.00,0.00,211020,0.0,E,D*38\r\n$GPGGA,165302.00017700,4003.2216855,N,11619.3418389,E,5,06,1.3,49.358,M,-9.438,M,1.0,*63\r\n"}
current_End_Timestamp:2020_10_22_00_53_01.511	Interval:151(ms)
current_Start_Timestamp:2020_10_22_00_53_02.319
successful:{"high_accuracy_location":"$GPRMC,165303.00017700,A,4003.2185175,N,11619.3419510,E,0.00,0.00,211020,0.0,E,D*3C\r\n$GPGGA,165303.00017700,4003.2185175,N,11619.3419510,E,5,10,1.3,48.269,M,-9.438,M,1.0,*62\r\n"}
current_End_Timestamp:2020_10_22_00_53_02.484	Interval:165(ms)
current_Start_Timestamp:2020_10_22_00_53_03.334
successful:{"high_accuracy_location":"$GPRMC,165304.00017700,A,4003.2154187,N,11619.3419538,E,0.00,0.00,211020,0.0,E,D*30\r\n$GPGGA,165304.00017700,4003.2154187,N,11619.3419538,E,5,08,1.3,49.023,M,-9.438,M,1.0,*6A\r\n"}
current_End_Timestamp:2020_10_22_00_53_03.492	Interval:158(ms)
current_Start_Timestamp:2020_10_22_00_53_04.330
successful:{"high_accuracy_location":"$GPRMC,165305.00017700,A,4003.2120634,N,11619.3416514,E,0.00,0.00,211020,0.0,E,D*3C\r\n$GPGGA,165305.00017700,4003.2120634,N,11619.3416514,E,5,07,1.3,49.115,M,-9.438,M,1.0,*6D\r\n"}
current_End_Timestamp:2020_10_22_00_53_04.496	Interval:166(ms)
current_Start_Timestamp:2020_10_22_00_53_05.312
successful:{"high_accuracy_location":"$GPRMC,165306.00017700,A,4003.2086259,N,11619.3407599,E,0.00,0.00,211020,0.0,E,D*38\r\n$GPGGA,165306.00017700,4003.2086259,N,11619.3407599,E,5,05,1.3,48.793,M,-9.438,M,1.0,*62\r\n"}
current_End_Timestamp:2020_10_22_00_53_05.468	Interval:156(ms)
current_Start_Timestamp:2020_10_22_00_53_06.338
successful:{"high_accuracy_location":"$GPRMC,165307.00017700,A,4003.2052187,N,11619.3391467,E,0.00,0.00,211020,0.0,E,D*38\r\n$GPGGA,165307.00017700,4003.2052187,N,11619.3391467,E,5,07,1.3,49.507,M,-9.438,M,1.0,*6E\r\n"}
current_End_Timestamp:2020_10_22_00_53_06.491	Interval:153(ms)
current_Start_Timestamp:2020_10_22_00_53_07.282
successful:{"high_accuracy_location":"$GPRMC,165308.00017700,A,4003.2018022,N,11619.3366403,E,0.00,0.00,211020,0.0,E,D*3D\r\n$GPGGA,165308.00017700,4003.2018022,N,11619.3366403,E,5,05,1.3,49.286,M,-9.438,M,1.0,*67\r\n"}
current_End_Timestamp:2020_10_22_00_53_07.414	Interval:132(ms)
current_Start_Timestamp:2020_10_22_00_53_08.344
successful:{"high_accuracy_location":"$GPRMC,165309.00017700,A,4003.1982914,N,11619.3332167,E,0.00,0.00,211020,0.0,E,D*3F\r\n$GPGGA,165309.00017700,4003.1982914,N,11619.3332167,E,5,08,1.3,48.932,M,-9.439,M,1.0,*6C\r\n"}
current_End_Timestamp:2020_10_22_00_53_08.504	Interval:160(ms)
current_Start_Timestamp:2020_10_22_00_53_09.367
successful:{"high_accuracy_location":"$GPRMC,165310.00017700,A,4003.1947561,N,11619.3290819,E,0.00,0.00,211020,0.0,E,D*39\r\n$GPGGA,165310.00017700,4003.1947561,N,11619.3290819,E,5,07,1.3,49.249,M,-9.439,M,1.0,*63\r\n"}
current_End_Timestamp:2020_10_22_00_53_09.526	Interval:159(ms)
current_Start_Timestamp:2020_10_22_00_53_10.319
successful:{"high_accuracy_location":"$GPRMC,165311.00017700,A,4003.1910986,N,11619.3244756,E,0.00,0.00,211020,0.0,E,D*32\r\n$GPGGA,165311.00017700,4003.1910986,N,11619.3244756,E,5,07,1.3,49.334,M,-9.439,M,1.0,*63\r\n"}
current_End_Timestamp:2020_10_22_00_53_10.469	Interval:150(ms)
current_Start_Timestamp:2020_10_22_00_53_11.289
successful:{"high_accuracy_location":"$GPRMC,165312.00017700,A,4003.1884439,N,11619.3201421,E,0.00,0.00,211020,0.0,E,A*33\r\n$GPGGA,165312.00017700,4003.1884439,N,11619.3201421,E,1,11,1.3,28.916,M,-9.439,M,0.0,*68\r\n"}
current_End_Timestamp:2020_10_22_00_53_11.432	Interval:143(ms)
current_Start_Timestamp:2020_10_22_00_53_12.349
successful:{"high_accuracy_location":"$GPRMC,165313.00017700,A,4003.1854597,N,11619.3197688,E,0.00,0.00,211020,0.0,E,D*32\r\n$GPGGA,165313.00017700,4003.1854597,N,11619.3197688,E,5,07,1.3,59.119,M,-9.439,M,1.0,*6F\r\n"}
current_End_Timestamp:2020_10_22_00_53_12.505	Interval:156(ms)
current_Start_Timestamp:2020_10_22_00_53_13.334
successful:{"high_accuracy_location":"$GPRMC,165314.00017700,A,4003.1805406,N,11619.3134803,E,0.00,0.00,211020,0.0,E,D*3C\r\n$GPGGA,165314.00017700,4003.1805406,N,11619.3134803,E,5,07,1.3,57.005,M,-9.440,M,1.0,*6D\r\n"}
current_End_Timestamp:2020_10_22_00_53_13.478	Interval:144(ms)
current_Start_Timestamp:2020_10_22_00_53_14.329
successful:{"high_accuracy_location":"$GPRMC,165315.00017600,A,4003.1764081,N,11619.3087579,E,0.00,0.00,211020,0.0,E,D*36\r\n$GPGGA,165315.00017600,4003.1764081,N,11619.3087579,E,5,06,1.3,54.537,M,-9.440,M,1.0,*61\r\n"}
current_End_Timestamp:2020_10_22_00_53_14.485	Interval:156(ms)
current_Start_Timestamp:2020_10_22_00_53_15.347
successful:{"high_accuracy_location":"$GPRMC,165316.00017600,A,4003.1736680,N,11619.3040758,E,0.00,0.00,211020,0.0,E,D*3F\r\n$GPGGA,165316.00017600,4003.1736680,N,11619.3040758,E,5,08,1.3,49.828,M,-9.440,M,1.0,*69\r\n"}
current_End_Timestamp:2020_10_22_00_53_15.474	Interval:127(ms)
current_Start_Timestamp:2020_10_22_00_53_16.354
successful:{"high_accuracy_location":"$GPRMC,165317.00017600,A,4003.1700620,N,11619.2983675,E,0.00,0.00,211020,0.0,E,D*38\r\n$GPGGA,165317.00017600,4003.1700620,N,11619.2983675,E,5,08,1.3,43.777,M,-9.440,M,1.0,*61\r\n"}
current_End_Timestamp:2020_10_22_00_53_16.496	Interval:142(ms)
current_Start_Timestamp:2020_10_22_00_53_17.344
successful:{"high_accuracy_location":"$GPRMC,165318.00017600,A,4003.1671354,N,11619.2949786,E,0.00,0.00,211020,0.0,E,D*3D\r\n$GPGGA,165318.00017600,4003.1671354,N,11619.2949786,E,5,06,1.3,43.675,M,-9.441,M,1.0,*68\r\n"}
current_End_Timestamp:2020_10_22_00_53_17.489	Interval:145(ms)
current_Start_Timestamp:2020_10_22_00_53_18.338
successful:{"high_accuracy_location":"$GPRMC,165319.00017600,A,4003.1647113,N,11619.2909484,E,0.00,0.00,211020,0.0,E,A*38\r\n$GPGGA,165319.00017600,4003.1647113,N,11619.2909484,E,1,13,1.3,26.990,M,-9.441,M,0.0,*6E\r\n"}
current_End_Timestamp:2020_10_22_00_53_18.478	Interval:140(ms)
current_Start_Timestamp:2020_10_22_00_53_19.341
successful:{"high_accuracy_location":"$GPRMC,165320.00017600,A,4003.1620961,N,11619.2875448,E,0.00,0.00,211020,0.0,E,A*34\r\n$GPGGA,165320.00017600,4003.1620961,N,11619.2875448,E,1,14,1.3,27.043,M,-9.441,M,0.0,*63\r\n"}
current_End_Timestamp:2020_10_22_00_53_19.501	Interval:160(ms)
current_Start_Timestamp:2020_10_22_00_53_20.349
successful:{"high_accuracy_location":"$GPRMC,165321.00017600,A,4003.1593340,N,11619.2834238,E,0.00,0.00,211020,0.0,E,A*33\r\n$GPGGA,165321.00017600,4003.1593340,N,11619.2834238,E,1,12,1.3,29.021,M,-9.441,M,0.0,*68\r\n"}
current_End_Timestamp:2020_10_22_00_53_20.475	Interval:126(ms)
current_Start_Timestamp:2020_10_22_00_53_21.337
successful:{"high_accuracy_location":"$GPRMC,165322.00017600,A,4003.1560897,N,11619.2791880,E,0.00,0.00,211020,0.0,E,A*34\r\n$GPGGA,165322.00017600,4003.1560897,N,11619.2791880,E,1,12,1.3,31.222,M,-9.441,M,0.0,*67\r\n"}
current_End_Timestamp:2020_10_22_00_53_21.481	Interval:144(ms)
current_Start_Timestamp:2020_10_22_00_53_22.341
successful:{"high_accuracy_location":"$GPRMC,165323.00017600,A,4003.1509691,N,11619.2747974,E,0.00,0.00,211020,0.0,E,D*36\r\n$GPGGA,165323.00017600,4003.1509691,N,11619.2747974,E,5,06,1.3,49.538,M,-9.442,M,1.0,*60\r\n"}
current_End_Timestamp:2020_10_22_00_53_22.504	Interval:163(ms)
current_Start_Timestamp:2020_10_22_00_53_23.349
successful:{"high_accuracy_location":"$GPRMC,165324.00017600,A,4003.1483179,N,11619.2705957,E,0.00,0.00,211020,0.0,E,D*34\r\n$GPGGA,165324.00017600,4003.1483179,N,11619.2705957,E,5,06,1.3,45.689,M,-9.442,M,1.0,*67\r\n"}
current_End_Timestamp:2020_10_22_00_53_23.494	Interval:145(ms)
current_Start_Timestamp:2020_10_22_00_53_24.327
successful:{"high_accuracy_location":"$GPRMC,165325.00017600,A,4003.1449395,N,11619.2667084,E,0.00,0.00,211020,0.0,E,D*31\r\n$GPGGA,165325.00017600,4003.1449395,N,11619.2667084,E,5,09,1.3,47.556,M,-9.442,M,1.0,*6E\r\n"}
current_End_Timestamp:2020_10_22_00_53_24.483	Interval:156(ms)
current_Start_Timestamp:2020_10_22_00_53_25.328
successful:{"high_accuracy_location":"$GPRMC,165326.00017600,A,4003.1426864,N,11619.2617801,E,0.00,0.00,211020,0.0,E,D*3C\r\n$GPGGA,165326.00017600,4003.1426864,N,11619.2617801,E,5,09,1.3,43.926,M,-9.442,M,1.0,*6C\r\n"}
current_End_Timestamp:2020_10_22_00_53_25.507	Interval:179(ms)
current_Start_Timestamp:2020_10_22_00_53_26.348
successful:{"high_accuracy_location":"$GPRMC,165327.00017600,A,4003.1398344,N,11619.2572196,E,0.00,0.00,211020,0.0,E,D*31\r\n$GPGGA,165327.00017600,4003.1398344,N,11619.2572196,E,5,09,1.3,44.007,M,-9.442,M,1.0,*6C\r\n"}
current_End_Timestamp:2020_10_22_00_53_26.495	Interval:147(ms)
current_Start_Timestamp:2020_10_22_00_53_27.371
successful:{"high_accuracy_location":"$GPRMC,165328.00017600,A,4003.1363140,N,11619.2527160,E,0.00,0.00,211020,0.0,E,D*35\r\n$GPGGA,165328.00017600,4003.1363140,N,11619.2527160,E,5,08,1.3,45.978,M,-9.443,M,1.0,*68\r\n"}
current_End_Timestamp:2020_10_22_00_53_27.502	Interval:131(ms)
current_Start_Timestamp:2020_10_22_00_53_28.335
successful:{"high_accuracy_location":"$GPRMC,165329.00017600,A,4003.1332399,N,11619.2485218,E,0.00,0.00,211020,0.0,E,D*33\r\n$GPGGA,165329.00017600,4003.1332399,N,11619.2485218,E,5,08,1.3,45.512,M,-9.443,M,1.0,*6E\r\n"}
current_End_Timestamp:2020_10_22_00_53_28.474	Interval:139(ms)
current_Start_Timestamp:2020_10_22_00_53_29.343
successful:{"high_accuracy_location":"$GPRMC,165330.00017600,A,4003.1300286,N,11619.2442224,E,0.00,0.00,211020,0.0,E,D*31\r\n$GPGGA,165330.00017600,4003.1300286,N,11619.2442224,E,5,08,1.3,44.598,M,-9.443,M,1.0,*6F\r\n"}
current_End_Timestamp:2020_10_22_00_53_29.496	Interval:153(ms)
current_Start_Timestamp:2020_10_22_00_53_30.348
successful:{"high_accuracy_location":"$GPRMC,165331.00017600,A,4003.1264923,N,11619.2397665,E,0.00,0.00,211020,0.0,E,D*39\r\n$GPGGA,165331.00017600,4003.1264923,N,11619.2397665,E,5,08,1.3,44.552,M,-9.443,M,1.0,*61\r\n"}
current_End_Timestamp:2020_10_22_00_53_30.487	Interval:139(ms)
current_Start_Timestamp:2020_10_22_00_53_31.320
successful:{"high_accuracy_location":"$GPRMC,165332.00017600,A,4003.1230161,N,11619.2351697,E,0.00,0.00,211020,0.0,E,D*32\r\n$GPGGA,165332.00017600,4003.1230161,N,11619.2351697,E,5,07,1.3,44.951,M,-9.444,M,1.0,*6D\r\n"}
current_End_Timestamp:2020_10_22_00_53_31.475	Interval:155(ms)
current_Start_Timestamp:2020_10_22_00_53_32.340
successful:{"high_accuracy_location":"$GPRMC,165333.00017600,A,4003.1192024,N,11619.2306917,E,0.00,0.00,211020,0.0,E,D*3D\r\n$GPGGA,165333.00017600,4003.1192024,N,11619.2306917,E,5,08,1.3,44.858,M,-9.444,M,1.0,*65\r\n"}
current_End_Timestamp:2020_10_22_00_53_32.481	Interval:141(ms)
current_Start_Timestamp:2020_10_22_00_53_33.337
successful:{"high_accuracy_location":"$GPRMC,165334.00017600,A,4003.1154762,N,11619.2262556,E,0.00,0.00,211020,0.0,E,D*3F\r\n$GPGGA,165334.00017600,4003.1154762,N,11619.2262556,E,5,08,1.3,44.150,M,-9.444,M,1.0,*66\r\n"}
current_End_Timestamp:2020_10_22_00_53_33.470	Interval:133(ms)
current_Start_Timestamp:2020_10_22_00_53_34.334
successful:{"high_accuracy_location":"$GPRMC,165335.00017600,A,4003.1117665,N,11619.2215142,E,0.00,0.00,211020,0.0,E,D*3E\r\n$GPGGA,165335.00017600,4003.1117665,N,11619.2215142,E,5,09,1.3,43.699,M,-9.444,M,1.0,*63\r\n"}
current_End_Timestamp:2020_10_22_00_53_34.476	Interval:142(ms)
current_Start_Timestamp:2020_10_22_00_53_35.341
successful:{"high_accuracy_location":"$GPRMC,165336.00017500,A,4003.1077981,N,11619.2166908,E,0.00,0.00,211020,0.0,E,D*3D\r\n$GPGGA,165336.00017500,4003.1077981,N,11619.2166908,E,5,08,1.3,43.806,M,-9.444,M,1.0,*69\r\n"}
current_End_Timestamp:2020_10_22_00_53_35.484	Interval:143(ms)
current_Start_Timestamp:2020_10_22_00_53_36.339
successful:{"high_accuracy_location":"$GPRMC,165337.00017500,A,4003.1040132,N,11619.2114178,E,0.00,0.00,211020,0.0,E,D*32\r\n$GPGGA,165337.00017500,4003.1040132,N,11619.2114178,E,5,09,1.3,43.851,M,-9.445,M,1.0,*64\r\n"}
current_End_Timestamp:2020_10_22_00_53_36.473	Interval:134(ms)
current_Start_Timestamp:2020_10_22_00_53_37.366
successful:{"high_accuracy_location":"$GPRMC,165338.00017500,A,4003.0998763,N,11619.2061335,E,0.00,0.00,211020,0.0,E,D*3A\r\n$GPGGA,165338.00017500,4003.0998763,N,11619.2061335,E,5,08,1.3,44.546,M,-9.445,M,1.0,*61\r\n"}
current_End_Timestamp:2020_10_22_00_53_37.496	Interval:130(ms)
current_Start_Timestamp:2020_10_22_00_53_38.356
successful:{"high_accuracy_location":"$GPRMC,165339.00017500,A,4003.0955582,N,11619.2008579,E,0.00,0.00,211020,0.0,E,D*36\r\n$GPGGA,165339.00017500,4003.0955582,N,11619.2008579,E,5,08,1.3,45.256,M,-9.445,M,1.0,*6A\r\n"}
current_End_Timestamp:2020_10_22_00_53_38.500	Interval:144(ms)
current_Start_Timestamp:2020_10_22_00_53_39.355
successful:{"high_accuracy_location":"$GPRMC,165340.00017500,A,4003.0912993,N,11619.1954225,E,0.00,0.00,211020,0.0,E,D*3A\r\n$GPGGA,165340.00017500,4003.0912993,N,11619.1954225,E,5,06,1.3,45.799,M,-9.446,M,1.0,*6D\r\n"}
current_End_Timestamp:2020_10_22_00_53_39.507	Interval:152(ms)
current_Start_Timestamp:2020_10_22_00_53_40.338
successful:{"high_accuracy_location":"$GPRMC,165341.00017500,A,4003.0869787,N,11619.1898759,E,0.00,0.00,211020,0.0,E,D*32\r\n$GPGGA,165341.00017500,4003.0869787,N,11619.1898759,E,5,07,1.3,46.231,M,-9.446,M,1.0,*60\r\n"}
current_End_Timestamp:2020_10_22_00_53_40.514	Interval:176(ms)
current_Start_Timestamp:2020_10_22_00_53_41.349
successful:{"high_accuracy_location":"$GPRMC,165342.00017500,A,4003.0826122,N,11619.1842194,E,0.00,0.00,211020,0.0,E,D*33\r\n$GPGGA,165342.00017500,4003.0826122,N,11619.1842194,E,5,05,1.3,46.157,M,-9.446,M,1.0,*60\r\n"}
current_End_Timestamp:2020_10_22_00_53_41.503	Interval:154(ms)
current_Start_Timestamp:2020_10_22_00_53_42.335
successful:{"high_accuracy_location":"$GPRMC,165343.00017500,A,4003.0780967,N,11619.1784356,E,0.00,0.00,211020,0.0,E,D*31\r\n$GPGGA,165343.00017500,4003.0780967,N,11619.1784356,E,5,07,1.3,46.655,M,-9.446,M,1.0,*65\r\n"}
current_End_Timestamp:2020_10_22_00_53_42.476	Interval:141(ms)
current_Start_Timestamp:2020_10_22_00_53_43.335
successful:{"high_accuracy_location":"$GPRMC,165344.00017500,A,4003.0736994,N,11619.1725611,E,0.00,0.00,211020,0.0,E,D*3A\r\n$GPGGA,165344.00017500,4003.0736994,N,11619.1725611,E,5,05,1.3,46.585,M,-9.447,M,1.0,*63\r\n"}
current_End_Timestamp:2020_10_22_00_53_43.481	Interval:146(ms)
current_Start_Timestamp:2020_10_22_00_53_44.340
successful:{"high_accuracy_location":"$GPRMC,165345.00017500,A,4003.0693427,N,11619.1668444,E,0.00,0.00,211020,0.0,E,D*3A\r\n$GPGGA,165345.00017500,4003.0693427,N,11619.1668444,E,5,07,1.3,46.352,M,-9.447,M,1.0,*6D\r\n"}
current_End_Timestamp:2020_10_22_00_53_44.471	Interval:131(ms)
current_Start_Timestamp:2020_10_22_00_53_45.326
successful:{"high_accuracy_location":"$GPRMC,165346.00017500,A,4003.0650122,N,11619.1610861,E,0.00,0.00,211020,0.0,E,D*32\r\n$GPGGA,165346.00017500,4003.0650122,N,11619.1610861,E,5,08,1.3,46.029,M,-9.447,M,1.0,*65\r\n"}
current_End_Timestamp:2020_10_22_00_53_45.460	Interval:134(ms)
current_Start_Timestamp:2020_10_22_00_53_46.341
successful:{"high_accuracy_location":"$GPRMC,165347.00017500,A,4003.0605726,N,11619.1553086,E,0.00,0.00,211020,0.0,E,D*34\r\n$GPGGA,165347.00017500,4003.0605726,N,11619.1553086,E,5,09,1.3,46.324,M,-9.448,M,1.0,*63\r\n"}
current_End_Timestamp:2020_10_22_00_53_46.483	Interval:142(ms)
current_Start_Timestamp:2020_10_22_00_53_47.329
successful:{"high_accuracy_location":"$GPRMC,165348.00017500,A,4003.0561229,N,11619.1495538,E,0.00,0.00,211020,0.0,E,D*3B\r\n$GPGGA,165348.00017500,4003.0561229,N,11619.1495538,E,5,09,1.3,46.561,M,-9.448,M,1.0,*6B\r\n"}
current_End_Timestamp:2020_10_22_00_53_47.472	Interval:143(ms)
current_Start_Timestamp:2020_10_22_00_53_48.369
successful:{"high_accuracy_location":"$GPRMC,165349.00017500,A,4003.0519107,N,11619.1438164,E,0.00,0.00,211020,0.0,E,D*30\r\n$GPGGA,165349.00017500,4003.0519107,N,11619.1438164,E,5,08,1.3,46.679,M,-9.448,M,1.0,*6B\r\n"}
current_End_Timestamp:2020_10_22_00_53_48.528	Interval:159(ms)
current_Start_Timestamp:2020_10_22_00_53_49.346
successful:{"high_accuracy_location":"$GPRMC,165350.00017500,A,4003.0475165,N,11619.1381607,E,0.00,0.00,211020,0.0,E,D*30\r\n$GPGGA,165350.00017500,4003.0475165,N,11619.1381607,E,5,10,1.3,47.540,M,-9.448,M,1.0,*6A\r\n"}
current_End_Timestamp:2020_10_22_00_53_49.484	Interval:138(ms)
current_Start_Timestamp:2020_10_22_00_53_50.308
successful:{"high_accuracy_location":"$GPRMC,165351.00017500,A,4003.0435648,N,11619.1325488,E,0.00,0.00,211020,0.0,E,D*36\r\n$GPGGA,165351.00017500,4003.0435648,N,11619.1325488,E,5,10,1.3,47.251,M,-9.449,M,1.0,*6A\r\n"}
current_End_Timestamp:2020_10_22_00_53_50.456	Interval:148(ms)
current_Start_Timestamp:2020_10_22_00_53_51.356
successful:{"high_accuracy_location":"$GPRMC,165352.00017500,A,4003.0396510,N,11619.1268437,E,0.00,0.00,211020,0.0,E,D*39\r\n$GPGGA,165352.00017500,4003.0396510,N,11619.1268437,E,5,10,1.3,47.617,M,-9.449,M,1.0,*63\r\n"}
current_End_Timestamp:2020_10_22_00_53_51.480	Interval:124(ms)
current_Start_Timestamp:2020_10_22_00_53_52.346
successful:{"high_accuracy_location":"$GPRMC,165353.00017500,A,4003.0357185,N,11619.1213500,E,0.00,0.00,211020,0.0,E,D*34\r\n$GPGGA,165353.00017500,4003.0357185,N,11619.1213500,E,5,05,1.3,47.716,M,-9.449,M,1.0,*6A\r\n"}
current_End_Timestamp:2020_10_22_00_53_52.485	Interval:139(ms)
current_Start_Timestamp:2020_10_22_00_53_53.338
successful:{"high_accuracy_location":"$GPRMC,165354.00017500,A,4003.0317522,N,11619.1159726,E,0.00,0.00,211020,0.0,E,D*35\r\n$GPGGA,165354.00017500,4003.0317522,N,11619.1159726,E,5,12,1.3,48.142,M,-9.449,M,1.0,*65\r\n"}
current_End_Timestamp:2020_10_22_00_53_53.492	Interval:154(ms)
current_Start_Timestamp:2020_10_22_00_53_54.320
successful:{"high_accuracy_location":"$GPRMC,165355.00017500,A,4003.0278866,N,11619.1105343,E,0.00,0.00,211020,0.0,E,D*3F\r\n$GPGGA,165355.00017500,4003.0278866,N,11619.1105343,E,5,10,1.3,48.242,M,-9.450,M,1.0,*66\r\n"}
current_End_Timestamp:2020_10_22_00_53_54.465	Interval:145(ms)
current_Start_Timestamp:2020_10_22_00_53_55.331
successful:{"high_accuracy_location":"$GPRMC,165356.00017500,A,4003.0240741,N,11619.1055793,E,0.00,0.00,211020,0.0,E,D*30\r\n$GPGGA,165356.00017500,4003.0240741,N,11619.1055793,E,5,08,1.3,47.564,M,-9.450,M,1.0,*6C\r\n"}
current_End_Timestamp:2020_10_22_00_53_55.487	Interval:156(ms)
current_Start_Timestamp:2020_10_22_00_53_56.334
successful:{"high_accuracy_location":"$GPRMC,165357.00017500,A,4003.0202116,N,11619.1004583,E,0.00,0.00,211020,0.0,E,D*34\r\n$GPGGA,165357.00017500,4003.0202116,N,11619.1004583,E,5,08,1.3,47.581,M,-9.450,M,1.0,*63\r\n"}
current_End_Timestamp:2020_10_22_00_53_56.478	Interval:144(ms)
current_Start_Timestamp:2020_10_22_00_53_57.347
successful:{"high_accuracy_location":"$GPRMC,165358.00017500,A,4003.0163002,N,11619.0953593,E,0.00,0.00,211020,0.0,E,D*30\r\n$GPGGA,165358.00017500,4003.0163002,N,11619.0953593,E,5,07,1.3,47.346,M,-9.450,M,1.0,*65\r\n"}
current_End_Timestamp:2020_10_22_00_53_57.484	Interval:137(ms)
current_Start_Timestamp:2020_10_22_00_53_58.345
successful:{"high_accuracy_location":"$GPRMC,165359.00017400,A,4003.0124568,N,11619.0902979,E,0.00,0.00,211020,0.0,E,D*36\r\n$GPGGA,165359.00017400,4003.0124568,N,11619.0902979,E,5,05,1.3,47.577,M,-9.451,M,1.0,*64\r\n"}
current_End_Timestamp:2020_10_22_00_53_58.489	Interval:144(ms)
current_Start_Timestamp:2020_10_22_00_53_59.344
successful:{"high_accuracy_location":"$GPRMC,165400.00017400,A,4003.0086250,N,11619.0852511,E,0.00,0.00,211020,0.0,E,D*3E\r\n$GPGGA,165400.00017400,4003.0086250,N,11619.0852511,E,5,07,1.3,47.357,M,-9.451,M,1.0,*6A\r\n"}
current_End_Timestamp:2020_10_22_00_53_59.496	Interval:152(ms)
current_Start_Timestamp:2020_10_22_00_54_00.356
successful:{"high_accuracy_location":"$GPRMC,165401.00017400,A,4003.0046597,N,11619.0801201,E,0.00,0.00,211020,0.0,E,D*3F\r\n$GPGGA,165401.00017400,4003.0046597,N,11619.0801201,E,5,08,1.3,47.153,M,-9.451,M,1.0,*62\r\n"}
current_End_Timestamp:2020_10_22_00_54_00.518	Interval:162(ms)
current_Start_Timestamp:2020_10_22_00_54_01.359
successful:{"high_accuracy_location":"$GPRMC,165402.00017400,A,4003.0005421,N,11619.0751565,E,0.00,0.00,211020,0.0,E,D*38\r\n$GPGGA,165402.00017400,4003.0005421,N,11619.0751565,E,5,10,1.3,47.323,M,-9.451,M,1.0,*69\r\n"}
current_End_Timestamp:2020_10_22_00_54_01.507	Interval:148(ms)
current_Start_Timestamp:2020_10_22_00_54_02.360
successful:{"high_accuracy_location":"$GPRMC,165403.00017400,A,4002.9964345,N,11619.0700796,E,0.00,0.00,211020,0.0,E,D*30\r\n$GPGGA,165403.00017400,4002.9964345,N,11619.0700796,E,5,10,1.3,46.813,M,-9.452,M,1.0,*6B\r\n"}
current_End_Timestamp:2020_10_22_00_54_02.514	Interval:154(ms)
current_Start_Timestamp:2020_10_22_00_54_03.367
successful:{"high_accuracy_location":"$GPRMC,165404.00017400,A,4002.9920613,N,11619.0648137,E,0.00,0.00,211020,0.0,E,D*31\r\n$GPGGA,165404.00017400,4002.9920613,N,11619.0648137,E,5,10,1.3,47.235,M,-9.452,M,1.0,*65\r\n"}
current_End_Timestamp:2020_10_22_00_54_03.502	Interval:135(ms)
current_Start_Timestamp:2020_10_22_00_54_04.368
successful:{"high_accuracy_location":"$GPRMC,165405.00017400,A,4002.9877254,N,11619.0594175,E,0.00,0.00,211020,0.0,E,D*30\r\n$GPGGA,165405.00017400,4002.9877254,N,11619.0594175,E,5,06,1.3,47.271,M,-9.452,M,1.0,*63\r\n"}
current_End_Timestamp:2020_10_22_00_54_04.525	Interval:157(ms)
current_Start_Timestamp:2020_10_22_00_54_05.346
successful:{"high_accuracy_location":"$GPRMC,165406.00017400,A,4002.9834406,N,11619.0538446,E,0.00,0.00,211020,0.0,E,D*36\r\n$GPGGA,165406.00017400,4002.9834406,N,11619.0538446,E,5,09,1.3,46.984,M,-9.453,M,1.0,*6B\r\n"}
current_End_Timestamp:2020_10_22_00_54_05.480	Interval:134(ms)
current_Start_Timestamp:2020_10_22_00_54_06.364
successful:{"high_accuracy_location":"$GPRMC,165407.00017400,A,4002.9789512,N,11619.0481390,E,0.00,0.00,211020,0.0,E,D*35\r\n$GPGGA,165407.00017400,4002.9789512,N,11619.0481390,E,5,08,1.3,46.923,M,-9.453,M,1.0,*64\r\n"}
current_End_Timestamp:2020_10_22_00_54_06.504	Interval:140(ms)
current_Start_Timestamp:2020_10_22_00_54_07.354
successful:{"high_accuracy_location":"$GPRMC,165408.00017400,A,4002.9744443,N,11619.0422753,E,0.00,0.00,211020,0.0,E,D*3C\r\n$GPGGA,165408.00017400,4002.9744443,N,11619.0422753,E,5,09,1.3,47.020,M,-9.453,M,1.0,*67\r\n"}
current_End_Timestamp:2020_10_22_00_54_07.494	Interval:140(ms)
current_Start_Timestamp:2020_10_22_00_54_08.379
successful:{"high_accuracy_location":"$GPRMC,165409.00017400,A,4002.9698098,N,11619.0361760,E,0.00,0.00,211020,0.0,E,D*3F\r\n$GPGGA,165409.00017400,4002.9698098,N,11619.0361760,E,5,09,1.3,46.895,M,-9.453,M,1.0,*63\r\n"}
current_End_Timestamp:2020_10_22_00_54_08.533	Interval:154(ms)
current_Start_Timestamp:2020_10_22_00_54_09.351
successful:{"high_accuracy_location":"$GPRMC,165410.00017400,A,4002.9648875,N,11619.0298390,E,0.00,0.00,211020,0.0,E,D*3D\r\n$GPGGA,165410.00017400,4002.9648875,N,11619.0298390,E,5,10,1.3,47.074,M,-9.454,M,1.0,*68\r\n"}
current_End_Timestamp:2020_10_22_00_54_09.488	Interval:137(ms)
current_Start_Timestamp:2020_10_22_00_54_10.369
successful:{"high_accuracy_location":"$GPRMC,165411.00017400,A,4002.9599462,N,11619.0232841,E,0.00,0.00,211020,0.0,E,D*3E\r\n$GPGGA,165411.00017400,4002.9599462,N,11619.0232841,E,5,10,1.3,47.171,M,-9.454,M,1.0,*6F\r\n"}
current_End_Timestamp:2020_10_22_00_54_10.511	Interval:142(ms)
current_Start_Timestamp:2020_10_22_00_54_11.370
successful:{"high_accuracy_location":"$GPRMC,165412.00017400,A,4002.9549052,N,11619.0166124,E,0.00,0.00,211020,0.0,E,D*3F\r\n$GPGGA,165412.00017400,4002.9549052,N,11619.0166124,E,5,09,1.3,46.929,M,-9.454,M,1.0,*62\r\n"}
current_End_Timestamp:2020_10_22_00_54_11.500	Interval:130(ms)
current_Start_Timestamp:2020_10_22_00_54_12.358
successful:{"high_accuracy_location":"$GPRMC,165413.00017400,A,4002.9496748,N,11619.0097743,E,0.00,0.00,211020,0.0,E,D*39\r\n$GPGGA,165413.00017400,4002.9496748,N,11619.0097743,E,5,08,1.3,46.731,M,-9.455,M,1.0,*63\r\n"}
current_End_Timestamp:2020_10_22_00_54_12.500	Interval:142(ms)
current_Start_Timestamp:2020_10_22_00_54_13.336
successful:{"high_accuracy_location":"$GPRMC,165414.00017400,A,4002.9443858,N,11619.0028199,E,0.00,0.00,211020,0.0,E,D*3D\r\n$GPGGA,165414.00017400,4002.9443858,N,11619.0028199,E,5,09,1.3,46.803,M,-9.455,M,1.0,*68\r\n"}
current_End_Timestamp:2020_10_22_00_54_13.469	Interval:133(ms)
current_Start_Timestamp:2020_10_22_00_54_14.358
successful:{"high_accuracy_location":"$GPRMC,165415.00017400,A,4002.9389419,N,11618.9957142,E,0.00,0.00,211020,0.0,E,D*3B\r\n$GPGGA,165415.00017400,4002.9389419,N,11618.9957142,E,5,08,1.3,46.564,M,-9.455,M,1.0,*63\r\n"}
current_End_Timestamp:2020_10_22_00_54_14.509	Interval:151(ms)
current_Start_Timestamp:2020_10_22_00_54_15.340
successful:{"high_accuracy_location":"$GPRMC,165416.00017400,A,4002.9334087,N,11618.9884038,E,0.00,0.00,211020,0.0,E,D*3E\r\n$GPGGA,165416.00017400,4002.9334087,N,11618.9884038,E,5,12,1.3,46.225,M,-9.456,M,1.0,*6C\r\n"}
current_End_Timestamp:2020_10_22_00_54_15.473	Interval:133(ms)
current_Start_Timestamp:2020_10_22_00_54_16.351
successful:{"high_accuracy_location":"$GPRMC,165417.00017400,A,4002.9278216,N,11618.9811400,E,0.00,0.00,211020,0.0,E,D*3F\r\n$GPGGA,165417.00017400,4002.9278216,N,11618.9811400,E,5,13,1.3,46.445,M,-9.456,M,1.0,*6C\r\n"}
current_End_Timestamp:2020_10_22_00_54_16.497	Interval:146(ms)
current_Start_Timestamp:2020_10_22_00_54_17.334
successful:{"high_accuracy_location":"$GPRMC,165418.00017400,A,4002.9223406,N,11618.9740235,E,0.00,0.00,211020,0.0,E,D*32\r\n$GPGGA,165418.00017400,4002.9223406,N,11618.9740235,E,5,13,1.3,46.396,M,-9.457,M,1.0,*69\r\n"}
current_End_Timestamp:2020_10_22_00_54_17.471	Interval:137(ms)
current_Start_Timestamp:2020_10_22_00_54_18.352
successful:{"high_accuracy_location":"$GPRMC,165419.00017400,A,4002.9169427,N,11618.9670145,E,0.00,0.00,211020,0.0,E,D*3B\r\n$GPGGA,165419.00017400,4002.9169427,N,11618.9670145,E,5,12,1.3,46.652,M,-9.457,M,1.0,*6C\r\n"}
current_End_Timestamp:2020_10_22_00_54_18.495	Interval:143(ms)
current_Start_Timestamp:2020_10_22_00_54_19.339
successful:{"high_accuracy_location":"$GPRMC,165420.00017400,A,4002.9115504,N,11618.9600453,E,0.00,0.00,211020,0.0,E,D*3F\r\n$GPGGA,165420.00017400,4002.9115504,N,11618.9600453,E,5,13,1.3,46.679,M,-9.457,M,1.0,*60\r\n"}
current_End_Timestamp:2020_10_22_00_54_19.469	Interval:130(ms)
current_Start_Timestamp:2020_10_22_00_54_20.363
successful:{"high_accuracy_location":"$GPRMC,165421.00017400,A,4002.9061872,N,11618.9530521,E,0.00,0.00,211020,0.0,E,D*34\r\n$GPGGA,165421.00017400,4002.9061872,N,11618.9530521,E,5,14,1.3,46.920,M,-9.458,M,1.0,*60\r\n"}
current_End_Timestamp:2020_10_22_00_54_20.519	Interval:156(ms)
current_Start_Timestamp:2020_10_22_00_54_21.285
successful:{"high_accuracy_location":"$GPRMC,165422.00017300,A,4002.9007461,N,11618.9460354,E,0.00,0.00,211020,0.0,E,D*3E\r\n$GPGGA,165422.00017300,4002.9007461,N,11618.9460354,E,5,15,1.3,46.941,M,-9.458,M,1.0,*6C\r\n"}
current_End_Timestamp:2020_10_22_00_54_21.409	Interval:124(ms)
current_Start_Timestamp:2020_10_22_00_54_22.357
successful:{"high_accuracy_location":"$GPRMC,165423.00017300,A,4002.8954413,N,11618.9390553,E,0.00,0.00,211020,0.0,E,D*3D\r\n$GPGGA,165423.00017300,4002.8954413,N,11618.9390553,E,5,14,1.3,46.978,M,-9.458,M,1.0,*64\r\n"}
current_End_Timestamp:2020_10_22_00_54_22.496	Interval:139(ms)
current_Start_Timestamp:2020_10_22_00_54_23.361
successful:{"high_accuracy_location":"$GPRMC,165424.00017300,A,4002.8901730,N,11618.9321899,E,0.00,0.00,211020,0.0,E,D*39\r\n$GPGGA,165424.00017300,4002.8901730,N,11618.9321899,E,5,15,1.3,47.063,M,-9.459,M,1.0,*62\r\n"}
current_End_Timestamp:2020_10_22_00_54_23.490	Interval:129(ms)
current_Start_Timestamp:2020_10_22_00_54_24.341
successful:{"high_accuracy_location":"$GPRMC,165425.00017300,A,4002.8849873,N,11618.9254729,E,0.00,0.00,211020,0.0,E,D*3A\r\n$GPGGA,165425.00017300,4002.8849873,N,11618.9254729,E,5,14,1.3,46.968,M,-9.459,M,1.0,*63\r\n"}
current_End_Timestamp:2020_10_22_00_54_24.471	Interval:130(ms)
current_Start_Timestamp:2020_10_22_00_54_25.330
successful:{"high_accuracy_location":"$GPRMC,165426.00017300,A,4002.8798502,N,11618.9187210,E,0.00,0.00,211020,0.0,E,D*33\r\n$GPGGA,165426.00017300,4002.8798502,N,11618.9187210,E,5,15,1.3,47.323,M,-9.459,M,1.0,*6F\r\n"}
current_End_Timestamp:2020_10_22_00_54_25.450	Interval:120(ms)
current_Start_Timestamp:2020_10_22_00_54_26.352
successful:{"high_accuracy_location":"$GPRMC,165427.00017300,A,4002.8749378,N,11618.9122419,E,0.00,0.00,211020,0.0,E,D*35\r\n$GPGGA,165427.00017300,4002.8749378,N,11618.9122419,E,5,14,1.3,46.916,M,-9.460,M,1.0,*6F\r\n"}
current_End_Timestamp:2020_10_22_00_54_26.481	Interval:129(ms)
current_Start_Timestamp:2020_10_22_00_54_27.360
successful:{"high_accuracy_location":"$GPRMC,165428.00017300,A,4002.8699518,N,11618.9058390,E,0.00,0.00,211020,0.0,E,D*3C\r\n$GPGGA,165428.00017300,4002.8699518,N,11618.9058390,E,5,14,1.3,47.027,M,-9.460,M,1.0,*6C\r\n"}
current_End_Timestamp:2020_10_22_00_54_27.496	Interval:136(ms)
current_Start_Timestamp:2020_10_22_00_54_28.358
successful:{"high_accuracy_location":"$GPRMC,165429.00017300,A,4002.8650862,N,11618.8994690,E,0.00,0.00,211020,0.0,E,D*35\r\n$GPGGA,165429.00017300,4002.8650862,N,11618.8994690,E,5,14,1.3,46.844,M,-9.460,M,1.0,*69\r\n"}
current_End_Timestamp:2020_10_22_00_54_28.516	Interval:158(ms)
current_Start_Timestamp:2020_10_22_00_54_29.358
successful:{"high_accuracy_location":"$GPRMC,165430.00017300,A,4002.8602694,N,11618.8931584,E,0.00,0.00,211020,0.0,E,D*34\r\n$GPGGA,165430.00017300,4002.8602694,N,11618.8931584,E,5,13,1.3,46.971,M,-9.461,M,1.0,*69\r\n"}
current_End_Timestamp:2020_10_22_00_54_29.496	Interval:138(ms)
current_Start_Timestamp:2020_10_22_00_54_30.334
successful:{"high_accuracy_location":"$GPRMC,165431.00017300,A,4002.8555456,N,11618.8868773,E,0.00,0.00,211020,0.0,E,D*3F\r\n$GPGGA,165431.00017300,4002.8555456,N,11618.8868773,E,5,14,1.3,47.160,M,-9.461,M,1.0,*6C\r\n"}
current_End_Timestamp:2020_10_22_00_54_30.459	Interval:125(ms)
current_Start_Timestamp:2020_10_22_00_54_31.344
successful:{"high_accuracy_location":"$GPRMC,165432.00017300,A,4002.8508582,N,11618.8807858,E,0.00,0.00,211020,0.0,E,D*33\r\n$GPGGA,165432.00017300,4002.8508582,N,11618.8807858,E,5,11,1.3,47.269,M,-9.461,M,1.0,*6F\r\n"}
current_End_Timestamp:2020_10_22_00_54_31.509	Interval:165(ms)
current_Start_Timestamp:2020_10_22_00_54_32.338
successful:{"high_accuracy_location":"$GPRMC,165433.00017300,A,4002.8462847,N,11618.8748454,E,0.00,0.00,211020,0.0,E,D*3F\r\n$GPGGA,165433.00017300,4002.8462847,N,11618.8748454,E,5,12,1.3,47.220,M,-9.461,M,1.0,*6D\r\n"}
current_End_Timestamp:2020_10_22_00_54_32.460	Interval:122(ms)
current_Start_Timestamp:2020_10_22_00_54_33.367
successful:{"high_accuracy_location":"$GPRMC,165434.00017300,A,4002.8417923,N,11618.8689744,E,0.00,0.00,211020,0.0,E,D*37\r\n$GPGGA,165434.00017300,4002.8417923,N,11618.8689744,E,5,10,1.3,47.221,M,-9.462,M,1.0,*65\r\n"}
current_End_Timestamp:2020_10_22_00_54_33.497	Interval:130(ms)
current_Start_Timestamp:2020_10_22_00_54_34.352
successful:{"high_accuracy_location":"$GPRMC,165435.00017300,A,4002.8373776,N,11618.8632587,E,0.00,0.00,211020,0.0,E,D*30\r\n$GPGGA,165435.00017300,4002.8373776,N,11618.8632587,E,5,12,1.3,47.389,M,-9.462,M,1.0,*63\r\n"}
current_End_Timestamp:2020_10_22_00_54_34.479	Interval:127(ms)
current_Start_Timestamp:2020_10_22_00_54_35.340
successful:{"high_accuracy_location":"$GPRMC,165436.00017300,A,4002.8330366,N,11618.8578925,E,0.00,0.00,211020,0.0,E,D*38\r\n$GPGGA,165436.00017300,4002.8330366,N,11618.8578925,E,5,11,1.3,47.315,M,-9.462,M,1.0,*6D\r\n"}
current_End_Timestamp:2020_10_22_00_54_35.458	Interval:118(ms)
current_Start_Timestamp:2020_10_22_00_54_36.329
successful:{"high_accuracy_location":"$GPRMC,165437.00017300,A,4002.8287076,N,11618.8529177,E,0.00,0.00,211020,0.0,E,D*3D\r\n$GPGGA,165437.00017300,4002.8287076,N,11618.8529177,E,5,12,1.3,47.378,M,-9.463,M,1.0,*61\r\n"}
current_End_Timestamp:2020_10_22_00_54_36.481	Interval:152(ms)
current_Start_Timestamp:2020_10_22_00_54_37.332
successful:{"high_accuracy_location":"$GPRMC,165438.00017300,A,4002.8244008,N,11618.8482105,E,0.00,0.00,211020,0.0,E,D*31\r\n$GPGGA,165438.00017300,4002.8244008,N,11618.8482105,E,5,12,1.3,47.620,M,-9.463,M,1.0,*65\r\n"}
current_End_Timestamp:2020_10_22_00_54_37.460	Interval:128(ms)
current_Start_Timestamp:2020_10_22_00_54_38.331
successful:{"high_accuracy_location":"$GPRMC,165439.00017300,A,4002.8203470,N,11618.8437057,E,0.00,0.00,211020,0.0,E,D*30\r\n$GPGGA,165439.00017300,4002.8203470,N,11618.8437057,E,5,10,1.3,47.489,M,-9.463,M,1.0,*67\r\n"}
current_End_Timestamp:2020_10_22_00_54_38.471	Interval:140(ms)
current_Start_Timestamp:2020_10_22_00_54_39.320
successful:{"high_accuracy_location":"$GPRMC,165440.00017300,A,4002.8166520,N,11618.8393501,E,0.00,0.00,211020,0.0,E,D*35\r\n$GPGGA,165440.00017300,4002.8166520,N,11618.8393501,E,5,10,1.3,47.293,M,-9.463,M,1.0,*6F\r\n"}
current_End_Timestamp:2020_10_22_00_54_39.466	Interval:146(ms)
current_Start_Timestamp:2020_10_22_00_54_40.347
successful:{"high_accuracy_location":"$GPRMC,165441.00017300,A,4002.8132729,N,11618.8352194,E,0.00,0.00,211020,0.0,E,D*3B\r\n$GPGGA,165441.00017300,4002.8132729,N,11618.8352194,E,5,10,1.3,47.383,M,-9.464,M,1.0,*66\r\n"}
current_End_Timestamp:2020_10_22_00_54_40.485	Interval:138(ms)
current_Start_Timestamp:2020_10_22_00_54_41.359
successful:{"high_accuracy_location":"$GPRMC,165442.00017300,A,4002.8103213,N,11618.8314977,E,0.00,0.00,211020,0.0,E,D*31\r\n$GPGGA,165442.00017300,4002.8103213,N,11618.8314977,E,5,11,1.3,47.527,M,-9.464,M,1.0,*65\r\n"}
current_End_Timestamp:2020_10_22_00_54_41.490	Interval:131(ms)
current_Start_Timestamp:2020_10_22_00_54_42.325
successful:{"high_accuracy_location":"$GPRMC,165443.00017300,A,4002.8077705,N,11618.8281327,E,0.00,0.00,211020,0.0,E,D*32\r\n$GPGGA,165443.00017300,4002.8077705,N,11618.8281327,E,5,11,1.3,47.426,M,-9.464,M,1.0,*66\r\n"}
current_End_Timestamp:2020_10_22_00_54_42.461	Interval:136(ms)
current_Start_Timestamp:2020_10_22_00_54_43.351
successful:{"high_accuracy_location":"$GPRMC,165444.00017300,A,4002.8055999,N,11618.8251838,E,0.00,0.00,211020,0.0,E,D*36\r\n$GPGGA,165444.00017300,4002.8055999,N,11618.8251838,E,5,10,1.3,47.118,M,-9.464,M,1.0,*6B\r\n"}
current_End_Timestamp:2020_10_22_00_54_43.500	Interval:149(ms)
current_Start_Timestamp:2020_10_22_00_54_44.354
successful:{"high_accuracy_location":"$GPRMC,165445.00017300,A,4002.8037592,N,11618.8227539,E,0.00,0.00,211020,0.0,E,D*39\r\n$GPGGA,165445.00017300,4002.8037592,N,11618.8227539,E,5,12,1.3,47.156,M,-9.464,M,1.0,*6C\r\n"}
current_End_Timestamp:2020_10_22_00_54_44.495	Interval:141(ms)
current_Start_Timestamp:2020_10_22_00_54_45.352
successful:{"high_accuracy_location":"$GPRMC,165446.00017300,A,4002.8022926,N,11618.8208432,E,0.00,0.00,211020,0.0,E,D*3A\r\n$GPGGA,165446.00017300,4002.8022926,N,11618.8208432,E,5,12,1.3,47.154,M,-9.464,M,1.0,*6D\r\n"}
current_End_Timestamp:2020_10_22_00_54_45.501	Interval:149(ms)
current_Start_Timestamp:2020_10_22_00_54_46.341
successful:{"high_accuracy_location":"$GPRMC,165447.00017300,A,4002.8012383,N,11618.8194531,E,0.00,0.00,211020,0.0,E,D*39\r\n$GPGGA,165447.00017300,4002.8012383,N,11618.8194531,E,5,12,1.3,47.120,M,-9.464,M,1.0,*6D\r\n"}
current_End_Timestamp:2020_10_22_00_54_46.486	Interval:145(ms)
current_Start_Timestamp:2020_10_22_00_54_47.337
successful:{"high_accuracy_location":"$GPRMC,165448.00017300,A,4002.8005923,N,11618.8186356,E,0.00,0.00,211020,0.0,E,D*34\r\n$GPGGA,165448.00017300,4002.8005923,N,11618.8186356,E,5,11,1.3,47.430,M,-9.464,M,1.0,*67\r\n"}
current_End_Timestamp:2020_10_22_00_54_47.480	Interval:143(ms)
current_Start_Timestamp:2020_10_22_00_54_48.356
successful:{"high_accuracy_location":"$GPRMC,165449.00017300,A,4002.8001951,N,11618.8181221,E,0.00,0.00,211020,0.0,E,D*32\r\n$GPGGA,165449.00017300,4002.8001951,N,11618.8181221,E,5,12,1.3,47.473,M,-9.464,M,1.0,*65\r\n"}
current_End_Timestamp:2020_10_22_00_54_48.485	Interval:129(ms)
current_Start_Timestamp:2020_10_22_00_54_49.351
successful:{"high_accuracy_location":"$GPRMC,165450.00017200,A,4002.7999860,N,11618.8178578,E,0.00,0.00,211020,0.0,E,D*32\r\n$GPGGA,165450.00017200,4002.7999860,N,11618.8178578,E,5,11,1.3,47.100,M,-9.464,M,1.0,*67\r\n"}
current_End_Timestamp:2020_10_22_00_54_49.501	Interval:150(ms)
current_Start_Timestamp:2020_10_22_00_54_50.356
successful:{"high_accuracy_location":"$GPRMC,165451.00017200,A,4002.7999417,N,11618.8178079,E,0.00,0.00,211020,0.0,E,D*3B\r\n$GPGGA,165451.00017200,4002.7999417,N,11618.8178079,E,5,12,1.3,47.214,M,-9.464,M,1.0,*6B\r\n"}
current_End_Timestamp:2020_10_22_00_54_50.500	Interval:144(ms)
current_Start_Timestamp:2020_10_22_00_54_51.348
successful:{"high_accuracy_location":"$GPRMC,165452.00017200,A,4002.7999433,N,11618.8177851,E,0.00,0.00,211020,0.0,E,D*33\r\n$GPGGA,165452.00017200,4002.7999433,N,11618.8177851,E,5,11,1.3,47.370,M,-9.464,M,1.0,*63\r\n"}
current_End_Timestamp:2020_10_22_00_54_51.480	Interval:132(ms)
current_Start_Timestamp:2020_10_22_00_54_52.345
successful:{"high_accuracy_location":"$GPRMC,165453.00017200,A,4002.7999032,N,11618.8177729,E,0.00,0.00,211020,0.0,E,D*37\r\n$GPGGA,165453.00017200,4002.7999032,N,11618.8177729,E,5,12,1.3,47.396,M,-9.464,M,1.0,*6C\r\n"}
current_End_Timestamp:2020_10_22_00_54_52.486	Interval:141(ms)
current_Start_Timestamp:2020_10_22_00_54_53.331
successful:{"high_accuracy_location":"$GPRMC,165454.00017200,A,4002.7999270,N,11618.8177512,E,0.00,0.00,211020,0.0,E,D*3E\r\n$GPGGA,165454.00017200,4002.7999270,N,11618.8177512,E,5,12,1.3,47.515,M,-9.464,M,1.0,*68\r\n"}
current_End_Timestamp:2020_10_22_00_54_53.485	Interval:154(ms)
current_Start_Timestamp:2020_10_22_00_54_54.384
successful:{"high_accuracy_location":"$GPRMC,165455.00017200,A,4002.7999520,N,11618.8177242,E,0.00,0.00,211020,0.0,E,D*3F\r\n$GPGGA,165455.00017200,4002.7999520,N,11618.8177242,E,5,15,1.3,47.571,M,-9.464,M,1.0,*6C\r\n"}
current_End_Timestamp:2020_10_22_00_54_54.519	Interval:135(ms)
current_Start_Timestamp:2020_10_22_00_54_55.369
successful:{"high_accuracy_location":"$GPRMC,165456.00017200,A,4002.7999273,N,11618.8176861,E,0.00,0.00,211020,0.0,E,D*37\r\n$GPGGA,165456.00017200,4002.7999273,N,11618.8176861,E,5,14,1.3,47.699,M,-9.464,M,1.0,*60\r\n"}
current_End_Timestamp:2020_10_22_00_54_55.490	Interval:121(ms)
current_Start_Timestamp:2020_10_22_00_54_56.326
successful:{"high_accuracy_location":"$GPRMC,165457.00017200,A,4002.7998854,N,11618.8176864,E,0.00,0.00,211020,0.0,E,D*3D\r\n$GPGGA,165457.00017200,4002.7998854,N,11618.8176864,E,5,16,1.3,47.819,M,-9.464,M,1.0,*6E\r\n"}
current_End_Timestamp:2020_10_22_00_54_56.460	Interval:134(ms)
current_Start_Timestamp:2020_10_22_00_54_57.379
successful:{"high_accuracy_location":"$GPRMC,165458.00017200,A,4002.7998112,N,11618.8176718,E,0.00,0.00,211020,0.0,E,D*3D\r\n$GPGGA,165458.00017200,4002.7998112,N,11618.8176718,E,5,16,1.3,48.011,M,-9.464,M,1.0,*61\r\n"}
current_End_Timestamp:2020_10_22_00_54_57.510	Interval:131(ms)
current_Start_Timestamp:2020_10_22_00_54_58.331
successful:{"high_accuracy_location":"$GPRMC,165459.00017200,A,4002.7997791,N,11618.8175836,E,0.00,0.00,211020,0.0,E,D*3E\r\n$GPGGA,165459.00017200,4002.7997791,N,11618.8175836,E,5,17,1.3,48.173,M,-9.464,M,1.0,*66\r\n"}
current_End_Timestamp:2020_10_22_00_54_58.460	Interval:129(ms)
current_Start_Timestamp:2020_10_22_00_54_59.328
successful:{"high_accuracy_location":"$GPRMC,165500.00017200,A,4002.7997194,N,11618.8174747,E,0.00,0.00,211020,0.0,E,D*38\r\n$GPGGA,165500.00017200,4002.7997194,N,11618.8174747,E,5,16,1.3,48.468,M,-9.464,M,1.0,*6E\r\n"}
current_End_Timestamp:2020_10_22_00_54_59.480	Interval:152(ms)
current_Start_Timestamp:2020_10_22_00_55_00.328
successful:{"high_accuracy_location":"$GPRMC,165501.00017200,A,4002.7996438,N,11618.8172811,E,0.00,0.00,211020,0.0,E,D*31\r\n$GPGGA,165501.00017200,4002.7996438,N,11618.8172811,E,5,17,1.3,49.133,M,-9.464,M,1.0,*6C\r\n"}
current_End_Timestamp:2020_10_22_00_55_00.451	Interval:123(ms)
current_Start_Timestamp:2020_10_22_00_55_01.331
successful:{"high_accuracy_location":"$GPRMC,165502.00017200,A,4002.7995898,N,11618.8170595,E,0.00,0.00,211020,0.0,E,D*34\r\n$GPGGA,165502.00017200,4002.7995898,N,11618.8170595,E,5,16,1.3,49.629,M,-9.464,M,1.0,*64\r\n"}
current_End_Timestamp:2020_10_22_00_55_01.465	Interval:134(ms)
current_Start_Timestamp:2020_10_22_00_55_02.353
successful:{"high_accuracy_location":"$GPRMC,165503.00017200,A,4002.7995449,N,11618.8168543,E,0.00,0.00,211020,0.0,E,D*37\r\n$GPGGA,165503.00017200,4002.7995449,N,11618.8168543,E,5,17,1.3,49.967,M,-9.464,M,1.0,*63\r\n"}
current_End_Timestamp:2020_10_22_00_55_02.496	Interval:143(ms)
current_Start_Timestamp:2020_10_22_00_55_03.348
successful:{"high_accuracy_location":"$GPRMC,165504.00017200,A,4002.7995759,N,11618.8168254,E,0.00,0.00,211020,0.0,E,D*33\r\n$GPGGA,165504.00017200,4002.7995759,N,11618.8168254,E,5,16,1.3,50.137,M,-9.464,M,1.0,*63\r\n"}
current_End_Timestamp:2020_10_22_00_55_03.484	Interval:136(ms)
current_Start_Timestamp:2020_10_22_00_55_04.365
successful:{"high_accuracy_location":"$GPRMC,165505.00017200,A,4002.7996384,N,11618.8167779,E,0.00,0.00,211020,0.0,E,D*30\r\n$GPGGA,165505.00017200,4002.7996384,N,11618.8167779,E,5,17,1.3,50.129,M,-9.464,M,1.0,*6E\r\n"}
current_End_Timestamp:2020_10_22_00_55_04.530	Interval:165(ms)
current_Start_Timestamp:2020_10_22_00_55_05.341
successful:{"high_accuracy_location":"$GPRMC,165506.00017200,A,4002.7996812,N,11618.8167957,E,0.00,0.00,211020,0.0,E,D*35\r\n$GPGGA,165506.00017200,4002.7996812,N,11618.8167957,E,5,16,1.3,50.080,M,-9.464,M,1.0,*68\r\n"}
current_End_Timestamp:2020_10_22_00_55_05.466	Interval:125(ms)
current_Start_Timestamp:2020_10_22_00_55_06.340
successful:{"high_accuracy_location":"$GPRMC,165507.00017200,A,4002.7996882,N,11618.8167516,E,0.00,0.00,211020,0.0,E,D*34\r\n$GPGGA,165507.00017200,4002.7996882,N,11618.8167516,E,5,16,1.3,49.962,M,-9.464,M,1.0,*64\r\n"}
current_End_Timestamp:2020_10_22_00_55_06.471	Interval:131(ms)
current_Start_Timestamp:2020_10_22_00_55_07.345
successful:{"high_accuracy_location":"$GPRMC,165508.00017200,A,4002.7996997,N,11618.8167232,E,0.00,0.00,211020,0.0,E,D*3F\r\n$GPGGA,165508.00017200,4002.7996997,N,11618.8167232,E,5,15,1.3,49.960,M,-9.464,M,1.0,*6E\r\n"}
current_End_Timestamp:2020_10_22_00_55_07.480	Interval:135(ms)
current_Start_Timestamp:2020_10_22_00_55_08.357
successful:{"high_accuracy_location":"$GPRMC,165509.00017200,A,4002.7996910,N,11618.8167061,E,0.00,0.00,211020,0.0,E,D*35\r\n$GPGGA,165509.00017200,4002.7996910,N,11618.8167061,E,5,16,1.3,49.794,M,-9.464,M,1.0,*62\r\n"}
current_End_Timestamp:2020_10_22_00_55_08.508	Interval:151(ms)
current_Start_Timestamp:2020_10_22_00_55_09.352
successful:{"high_accuracy_location":"$GPRMC,165510.00017200,A,4002.7997445,N,11618.8167089,E,0.00,0.00,211020,0.0,E,D*37\r\n$GPGGA,165510.00017200,4002.7997445,N,11618.8167089,E,5,13,1.3,49.433,M,-9.464,M,1.0,*6B\r\n"}
current_End_Timestamp:2020_10_22_00_55_09.480	Interval:128(ms)
current_Start_Timestamp:2020_10_22_00_55_10.339
successful:{"high_accuracy_location":"$GPRMC,165511.00017200,A,4002.7997417,N,11618.8167220,E,0.00,0.00,211020,0.0,E,D*30\r\n$GPGGA,165511.00017200,4002.7997417,N,11618.8167220,E,5,15,1.3,49.322,M,-9.464,M,1.0,*6D\r\n"}
current_End_Timestamp:2020_10_22_00_55_10.486	Interval:147(ms)
current_Start_Timestamp:2020_10_22_00_55_11.354
successful:{"high_accuracy_location":"$GPRMC,165512.00017200,A,4002.7997993,N,11618.8167031,E,0.00,0.00,211020,0.0,E,D*30\r\n$GPGGA,165512.00017200,4002.7997993,N,11618.8167031,E,5,14,1.3,49.323,M,-9.464,M,1.0,*6D\r\n"}
current_End_Timestamp:2020_10_22_00_55_11.480	Interval:126(ms)
current_Start_Timestamp:2020_10_22_00_55_12.349
successful:{"high_accuracy_location":"$GPRMC,165513.00017200,A,4002.7998346,N,11618.8166874,E,0.00,0.00,211020,0.0,E,D*34\r\n$GPGGA,165513.00017200,4002.7998346,N,11618.8166874,E,5,16,1.3,49.326,M,-9.464,M,1.0,*6E\r\n"}
current_End_Timestamp:2020_10_22_00_55_12.485	Interval:136(ms)
current_Start_Timestamp:2020_10_22_00_55_13.356
successful:{"high_accuracy_location":"$GPRMC,165514.00017200,A,4002.7998613,N,11618.8165725,E,0.00,0.00,211020,0.0,E,D*3E\r\n$GPGGA,165514.00017200,4002.7998613,N,11618.8165725,E,5,16,1.3,49.565,M,-9.464,M,1.0,*65\r\n"}
current_End_Timestamp:2020_10_22_00_55_13.491	Interval:135(ms)
current_Start_Timestamp:2020_10_22_00_55_14.364
successful:{"high_accuracy_location":"$GPRMC,165515.00017200,A,4002.7998788,N,11618.8165627,E,0.00,0.00,211020,0.0,E,D*3F\r\n$GPGGA,165515.00017200,4002.7998788,N,11618.8165627,E,5,15,1.3,49.715,M,-9.464,M,1.0,*62\r\n"}
current_End_Timestamp:2020_10_22_00_55_14.495	Interval:131(ms)
current_Start_Timestamp:2020_10_22_00_55_15.352
successful:{"high_accuracy_location":"$GPRMC,165516.00017100,A,4002.7998811,N,11618.8165319,E,0.00,0.00,211020,0.0,E,D*38\r\n$GPGGA,165516.00017100,4002.7998811,N,11618.8165319,E,5,10,1.3,50.023,M,-9.464,M,1.0,*6A\r\n"}
current_End_Timestamp:2020_10_22_00_55_15.480	Interval:128(ms)
current_Start_Timestamp:2020_10_22_00_55_16.364
successful:{"high_accuracy_location":"$GPRMC,165517.00017100,A,4002.7998950,N,11618.8164964,E,0.00,0.00,211020,0.0,E,D*3C\r\n$GPGGA,165517.00017100,4002.7998950,N,11618.8164964,E,5,14,1.3,50.240,M,-9.464,M,1.0,*6D\r\n"}
current_End_Timestamp:2020_10_22_00_55_16.496	Interval:132(ms)
current_Start_Timestamp:2020_10_22_00_55_17.336
successful:{"high_accuracy_location":"$GPRMC,165518.00017100,A,4002.7998712,N,11618.8164916,E,0.00,0.00,211020,0.0,E,D*3E\r\n$GPGGA,165518.00017100,4002.7998712,N,11618.8164916,E,5,13,1.3,50.403,M,-9.464,M,1.0,*69\r\n"}
current_End_Timestamp:2020_10_22_00_55_17.466	Interval:130(ms)
current_Start_Timestamp:2020_10_22_00_55_18.371
successful:{"high_accuracy_location":"$GPRMC,165519.00017100,A,4002.7998710,N,11618.8164614,E,0.00,0.00,211020,0.0,E,D*30\r\n$GPGGA,165519.00017100,4002.7998710,N,11618.8164614,E,5,14,1.3,50.653,M,-9.464,M,1.0,*67\r\n"}
current_End_Timestamp:2020_10_22_00_55_18.493	Interval:122(ms)
current_Start_Timestamp:2020_10_22_00_55_19.358
successful:{"high_accuracy_location":"$GPRMC,165520.00017100,A,4002.7998555,N,11618.8164552,E,0.00,0.00,211020,0.0,E,D*38\r\n$GPGGA,165520.00017100,4002.7998555,N,11618.8164552,E,5,13,1.3,50.820,M,-9.464,M,1.0,*62\r\n"}
current_End_Timestamp:2020_10_22_00_55_19.490	Interval:132(ms)
current_Start_Timestamp:2020_10_22_00_55_20.329
successful:{"high_accuracy_location":"$GPRMC,165521.00017100,A,4002.7998226,N,11618.8164402,E,0.00,0.00,211020,0.0,E,D*3E\r\n$GPGGA,165521.00017100,4002.7998226,N,11618.8164402,E,5,14,1.3,51.030,M,-9.464,M,1.0,*6B\r\n"}
current_End_Timestamp:2020_10_22_00_55_20.465	Interval:136(ms)
current_Start_Timestamp:2020_10_22_00_55_21.364
successful:{"high_accuracy_location":"$GPRMC,165522.00017100,A,4002.7997991,N,11618.8164432,E,0.00,0.00,211020,0.0,E,D*36\r\n$GPGGA,165522.00017100,4002.7997991,N,11618.8164432,E,5,14,1.3,51.178,M,-9.464,M,1.0,*6E\r\n"}
current_End_Timestamp:2020_10_22_00_55_21.500	Interval:136(ms)
current_Start_Timestamp:2020_10_22_00_55_22.360
successful:{"high_accuracy_location":"$GPRMC,165523.00017100,A,4002.7998288,N,11618.8164341,E,0.00,0.00,211020,0.0,E,D*38\r\n$GPGGA,165523.00017100,4002.7998288,N,11618.8164341,E,5,15,1.3,51.077,M,-9.464,M,1.0,*6F\r\n"}
current_End_Timestamp:2020_10_22_00_55_22.486	Interval:126(ms)
current_Start_Timestamp:2020_10_22_00_55_23.355
successful:{"high_accuracy_location":"$GPRMC,165524.00017100,A,4002.7998302,N,11618.8164569,E,0.00,0.00,211020,0.0,E,D*30\r\n$GPGGA,165524.00017100,4002.7998302,N,11618.8164569,E,5,14,1.3,51.049,M,-9.464,M,1.0,*6B\r\n"}
current_End_Timestamp:2020_10_22_00_55_23.481	Interval:126(ms)
current_Start_Timestamp:2020_10_22_00_55_24.362
successful:{"high_accuracy_location":"$GPRMC,165525.00017100,A,4002.7998464,N,11618.8164274,E,0.00,0.00,211020,0.0,E,D*3D\r\n$GPGGA,165525.00017100,4002.7998464,N,11618.8164274,E,5,15,1.3,50.989,M,-9.464,M,1.0,*63\r\n"}
current_End_Timestamp:2020_10_22_00_55_24.493	Interval:131(ms)
current_Start_Timestamp:2020_10_22_00_55_25.347
successful:{"high_accuracy_location":"$GPRMC,165526.00017100,A,4002.7997312,N,11618.8162642,E,0.00,0.00,211020,0.0,E,D*30\r\n$GPGGA,165526.00017100,4002.7997312,N,11618.8162642,E,5,13,1.3,51.144,M,-9.464,M,1.0,*60\r\n"}
current_End_Timestamp:2020_10_22_00_55_25.473	Interval:126(ms)
current_Start_Timestamp:2020_10_22_00_55_26.347
successful:{"high_accuracy_location":"$GPRMC,165527.00017100,A,4002.7993804,N,11618.8158727,E,0.00,0.00,211020,0.0,E,D*32\r\n$GPGGA,165527.00017100,4002.7993804,N,11618.8158727,E,5,13,1.3,51.141,M,-9.464,M,1.0,*67\r\n"}
current_End_Timestamp:2020_10_22_00_55_26.478	Interval:131(ms)
current_Start_Timestamp:2020_10_22_00_55_27.364
successful:{"high_accuracy_location":"$GPRMC,165528.00017100,A,4002.7989161,N,11618.8153070,E,0.00,0.00,211020,0.0,E,D*32\r\n$GPGGA,165528.00017100,4002.7989161,N,11618.8153070,E,5,12,1.3,51.227,M,-9.464,M,1.0,*65\r\n"}
current_End_Timestamp:2020_10_22_00_55_27.502	Interval:138(ms)
current_Start_Timestamp:2020_10_22_00_55_28.351
