$GPGGA,063127.00,3029.2815578,N,11433.8476373,E,4,32,0.5,43.072,M,-13.60,M,02,1002*44
$GPGGA,063128.00,3029.2815563,N,11433.8476387,E,4,32,0.5,43.073,M,-13.60,M,02,1002*4B
$GPGGA,063129.00,3029.2815629,N,11433.8476380,E,4,32,0.5,43.067,M,-13.60,M,02,1002*45
$GPGGA,063130.00,3029.2815638,N,11433.8476369,E,4,32,0.5,43.068,M,-13.60,M,02,1002*45
$GPGGA,063131.00,3029.2815562,N,11433.8476354,E,4,32,0.5,43.077,M,-13.60,M,02,1002*48
$GPGGA,063132.00,3029.2815535,N,11433.8476364,E,4,32,0.5,43.079,M,-13.60,M,02,1002*44
$GPGGA,063133.00,3029.2815595,N,11433.8476368,E,4,32,0.5,43.071,M,-13.60,M,02,1002*4B
$GPGGA,063134.00,3029.2815595,N,11433.8476333,E,4,32,0.5,43.077,M,-13.60,M,03,1002*45
$GPGGA,063135.00,3029.2815611,N,11433.8476358,E,4,32,0.5,43.075,M,-13.60,M,02,1002*45
$GPGGA,063136.00,3029.2815567,N,11433.8476372,E,4,32,0.5,43.073,M,-13.60,M,02,1002*4A
$GPGGA,063137.00,3029.2815550,N,11433.8476404,E,4,32,0.5,43.074,M,-13.60,M,02,1002*4E
$GPGGA,063138.00,3029.2815627,N,11433.8476361,E,4,32,0.5,43.065,M,-13.60,M,02,1002*46
$GPGGA,063139.00,3029.2815553,N,11433.8476355,E,4,32,0.5,43.078,M,-13.60,M,02,1002*4C
$GPGGA,063140.00,3029.2815506,N,11433.8476397,E,4,32,0.5,43.083,M,-13.60,M,02,1002*48
$GPGGA,063141.00,3029.2815587,N,11433.8476402,E,4,32,0.5,43.068,M,-13.60,M,02,1002*4E
$GPGGA,063142.00,3029.2815593,N,11433.8476383,E,4,32,0.5,43.069,M,-13.60,M,01,1002*44
$GPGGA,063143.00,3029.2815626,N,11433.8476357,E,4,32,0.5,43.064,M,-13.60,M,02,1002*4F
$GPGGA,063144.00,3029.2815520,N,11433.8476362,E,4,32,0.5,43.074,M,-13.60,M,03,1002*4B
$GPGGA,063145.00,3029.2815510,N,11433.8476356,E,4,32,0.5,43.076,M,-13.60,M,02,1002*4D
$GPGGA,063146.00,3029.2815543,N,11433.8476394,E,4,32,0.5,43.074,M,-13.60,M,02,1002*44
$GPGGA,063147.00,3029.2815617,N,11433.8476305,E,4,32,0.5,43.069,M,-13.60,M,01,1002*40
$GPGGA,063148.00,3029.2815534,N,11433.8476339,E,4,32,0.5,43.078,M,-13.60,M,02,1002*41
$GPGGA,063149.00,3029.2815502,N,11433.8476372,E,4,32,0.5,43.072,M,-13.60,M,02,1002*40
$GPGGA,063150.00,3029.2815510,N,11433.8476382,E,4,32,0.5,43.076,M,-13.60,M,02,1002*40
$GPGGA,063151.00,3029.2815613,N,11433.8476361,E,4,32,0.6,43.068,M,-13.60,M,02,1002*40
$GPGGA,063152.00,3029.2815533,N,11433.8476363,E,4,32,0.6,43.074,M,-13.60,M,02,1002*4D
$GPGGA,063153.00,3029.2815518,N,11433.8476391,E,4,32,0.6,43.076,M,-13.60,M,02,1002*4A
$GPGGA,063154.00,3029.2815578,N,11433.8476408,E,4,32,0.6,43.072,M,-13.60,M,02,1002*48
$GPGGA,063155.00,3029.2815637,N,11433.8476369,E,4,32,0.6,43.070,M,-13.60,M,03,1002*42
$GPGGA,063156.00,3029.2815587,N,11433.8476363,E,4,32,0.6,43.075,M,-13.60,M,02,1002*47
$GPGGA,063157.00,3029.2815547,N,11433.8476352,E,4,32,0.6,43.077,M,-13.60,M,02,1002*4A
$GPGGA,063158.00,3029.2815565,N,11433.8476372,E,4,32,0.6,43.075,M,-13.60,M,02,1002*45
$GPGGA,063159.00,3029.2815608,N,11433.8476360,E,4,32,0.6,43.070,M,-13.60,M,02,1002*4A
$GPGGA,063200.00,3029.2815626,N,11433.8476324,E,4,32,0.6,43.070,M,-13.60,M,02,1002*49
$GPGGA,063201.00,3029.2815600,N,11433.8476335,E,4,32,0.6,43.075,M,-13.60,M,02,1002*49
$GPGGA,063202.00,3029.2815550,N,11433.8476361,E,4,32,0.6,43.073,M,-13.60,M,02,1002*4B
$GPGGA,063203.00,3029.2815565,N,11433.8476377,E,4,32,0.6,43.069,M,-13.60,M,02,1002*40
$GPGGA,063204.00,3029.2815365,N,11433.8476288,E,4,32,0.6,43.069,M,-13.60,M,02,1002*40
$GPGGA,063205.00,3029.2812858,N,11433.8475506,E,4,32,0.6,43.063,M,-13.60,M,02,1002*4B
$GPGGA,063206.00,3029.2806897,N,11433.8473840,E,4,32,0.6,43.035,M,-13.60,M,03,1002*45
$GPGGA,063207.00,3029.2798065,N,11433.8471829,E,4,32,0.6,42.990,M,-13.60,M,02,1002*42
$GPGGA,063208.00,3029.2786449,N,11433.8470006,E,4,31,0.6,42.919,M,-13.60,M,02,1002*4E
$GPGGA,063209.00,3029.2769143,N,11433.8467924,E,4,31,0.6,42.829,M,-13.60,M,02,1002*4C
$GPGGA,063210.00,3029.2745562,N,11433.8464973,E,4,31,0.6,42.720,M,-13.60,M,02,1002*4A
$GPGGA,063211.00,3029.2718205,N,11433.8460077,E,4,32,0.6,42.588,M,-13.60,M,02,1002*4F
$GPGGA,063212.00,3029.2688073,N,11433.8452187,E,4,32,0.6,42.451,M,-13.60,M,02,1002*4D
$GPGGA,063213.00,3029.2655343,N,11433.8440425,E,4,30,0.6,42.292,M,-13.60,M,02,1002*49
$GPGGA,063214.00,3029.2620260,N,11433.8425892,E,4,30,0.6,42.135,M,-13.60,M,02,1002*41
$GPGGA,063215.00,3029.2584204,N,11433.8410127,E,4,31,0.6,41.973,M,-13.60,M,02,1002*46
$GPGGA,063216.00,3029.2547788,N,11433.8393938,E,4,31,0.6,41.815,M,-13.60,M,02,1002*40
$GPGGA,063217.00,3029.2511954,N,11433.8378350,E,4,32,0.6,41.688,M,-13.60,M,02,1002*45
$GPGGA,063218.00,3029.2477520,N,11433.8363836,E,4,32,0.6,41.568,M,-13.60,M,02,1002*48
$GPGGA,063219.00,3029.2444698,N,11433.8350500,E,4,32,0.6,41.489,M,-13.60,M,02,1002*4F
$GPGGA,063220.00,3029.2413830,N,11433.8337820,E,4,32,0.6,41.350,M,-13.60,M,02,1002*46
$GPGGA,063221.00,3029.2385018,N,11433.8325746,E,4,31,0.6,41.251,M,-13.60,M,02,1002*42
$GPGGA,063222.00,3029.2358466,N,11433.8314479,E,4,31,0.5,41.036,M,-13.60,M,01,1002*42
$GPGGA,063223.00,3029.2334363,N,11433.8304158,E,4,32,0.5,40.948,M,-13.60,M,02,1002*4D
$GPGGA,063224.00,3029.2310362,N,11433.8293721,E,4,32,0.5,40.867,M,-13.60,M,02,1002*46
$GPGGA,063225.00,3029.2281910,N,11433.8280999,E,4,31,0.5,40.789,M,-13.60,M,02,1002*42
$GPGGA,063226.00,3029.2248739,N,11433.8265870,E,4,31,0.5,40.694,M,-13.60,M,02,1002*41
$GPGGA,063227.00,3029.2211721,N,11433.8248570,E,4,30,0.5,40.563,M,-13.60,M,02,1002*4D
$GPGGA,063228.00,3029.2171717,N,11433.8229428,E,4,31,0.5,40.458,M,-13.60,M,02,1002*41
$GPGGA,063229.00,3029.2132374,N,11433.8209989,E,4,32,0.5,40.320,M,-13.60,M,02,1002*49
$GPGGA,063230.00,3029.2094740,N,11433.8191368,E,4,30,0.5,40.182,M,-13.60,M,02,1002*40
$GPGGA,063231.00,3029.2058517,N,11433.8174695,E,4,29,0.5,40.088,M,-13.60,M,02,1002*4E
$GPGGA,063232.00,3029.2024093,N,11433.8160183,E,4,32,0.5,39.999,M,-13.60,M,02,1002*47
$GPGGA,063233.00,3029.1992079,N,11433.8147804,E,4,30,0.5,39.908,M,-13.60,M,03,1002*4D
$GPGGA,063234.00,3029.1963924,N,11433.8137109,E,4,30,0.5,39.811,M,-13.60,M,02,1002*4E
$GPGGA,063235.00,3029.1941628,N,11433.8128589,E,4,30,0.5,39.747,M,-13.60,M,02,1002*42
$GPGGA,063236.00,3029.1927173,N,11433.8123074,E,4,31,0.5,39.713,M,-13.60,M,02,1002*44
$GPGGA,063237.00,3029.1916319,N,11433.8118843,E,4,31,0.5,39.665,M,-13.60,M,01,1002*4E
$GPGGA,063238.00,3029.1907811,N,11433.8115557,E,4,31,0.5,39.634,M,-13.60,M,02,1002*40
$GPGGA,063239.00,3029.1901718,N,11433.8113250,E,4,31,0.5,39.622,M,-13.60,M,02,1002*40
$GPGGA,063240.00,3029.1898124,N,11433.8111864,E,4,31,0.5,39.608,M,-13.60,M,03,1002*40
$GPGGA,063241.00,3029.1897447,N,11433.8111591,E,4,31,0.5,39.565,M,-13.60,M,02,1002*40
$GPGGA,063242.00,3029.1897445,N,11433.8111601,E,4,31,0.5,39.567,M,-13.60,M,02,1002*49
$GPGGA,063243.00,3029.1897445,N,11433.8111636,E,4,31,0.5,39.576,M,-13.60,M,02,1002*4C
$GPGGA,063244.00,3029.1897458,N,11433.8111644,E,4,31,0.5,39.584,M,-13.60,M,02,1002*4F
$GPGGA,063245.00,3029.1897463,N,11433.8111646,E,4,31,0.5,39.578,M,-13.60,M,02,1002*47
$GPGGA,063246.00,3029.1897453,N,11433.8111646,E,4,31,0.5,39.587,M,-13.60,M,02,1002*47
$GPGGA,063247.00,3029.1897443,N,11433.8111643,E,4,31,0.5,39.590,M,-13.60,M,02,1002*44
$GPGGA,063248.00,3029.1897438,N,11433.8111640,E,4,31,0.5,39.591,M,-13.60,M,02,1002*45
$GPGGA,063249.00,3029.1897438,N,11433.8111639,E,4,31,0.5,39.589,M,-13.60,M,02,1002*43
$GPGGA,063250.00,3029.1897441,N,11433.8111639,E,4,31,0.5,39.587,M,-13.60,M,02,1002*4B
$GPGGA,063251.00,3029.1897428,N,11433.8111630,E,4,31,0.5,39.588,M,-13.60,M,02,1002*43
$GPGGA,063252.00,3029.1897438,N,11433.8111628,E,4,31,0.5,39.590,M,-13.60,M,02,1002*41
$GPGGA,063253.00,3029.1897429,N,11433.8111629,E,4,31,0.5,39.592,M,-13.60,M,02,1002*43
$GPGGA,063254.00,3029.1897428,N,11433.8111617,E,4,31,0.5,39.593,M,-13.60,M,02,1002*49
$GPGGA,063255.00,3029.1897440,N,11433.8111627,E,4,31,0.5,39.595,M,-13.60,M,02,1002*43
$GPGGA,063256.00,3029.1897433,N,11433.8111613,E,4,31,0.5,39.594,M,-13.60,M,02,1002*42
$GPGGA,063257.00,3029.1897423,N,11433.8111616,E,4,31,0.5,39.595,M,-13.60,M,02,1002*46
$GPGGA,063258.00,3029.1897321,N,11433.8111578,E,4,31,0.5,39.602,M,-13.60,M,02,1002*4A
$GPGGA,063259.00,3029.1897060,N,11433.8111487,E,4,31,0.5,39.603,M,-13.60,M,02,1002*4D
$GPGGA,063300.00,3029.1896780,N,11433.8111377,E,4,31,0.5,39.600,M,-13.60,M,01,1002*40
$GPGGA,063301.00,3029.1896404,N,11433.8111239,E,4,31,0.5,39.596,M,-13.60,M,02,1002*4A
$GPGGA,063302.00,3029.1895966,N,11433.8111078,E,4,31,0.5,39.594,M,-13.60,M,03,1002*47
$GPGGA,063303.00,3029.1895446,N,11433.8110864,E,4,32,0.5,39.597,M,-13.60,M,02,1002*4C
$GPGGA,063304.00,3029.1894778,N,11433.8110610,E,4,32,0.5,39.596,M,-13.60,M,02,1002*48
$GPGGA,063305.00,3029.1893893,N,11433.8110298,E,4,32,0.5,39.590,M,-13.60,M,02,1002*46
$GPGGA,063306.00,3029.1892829,N,11433.8109911,E,4,32,0.5,39.590,M,-13.60,M,02,1002*47
$GPGGA,063307.00,3029.1891520,N,11433.8109415,E,4,32,0.5,39.595,M,-13.60,M,02,1002*4D
$GPGGA,063308.00,3029.1890019,N,11433.8108877,E,4,32,0.5,39.586,M,-13.60,M,02,1002*47
$GPGGA,063309.00,3029.1888302,N,11433.8108222,E,4,32,0.5,39.578,M,-13.60,M,02,1002*4D
$GPGGA,063310.00,3029.1886419,N,11433.8107553,E,4,31,0.5,39.569,M,-13.60,M,02,1002*4B
$GPGGA,063311.00,3029.1884127,N,11433.8106667,E,4,31,0.5,39.573,M,-13.60,M,02,1002*4E
$GPGGA,063312.00,3029.1881598,N,11433.8105815,E,4,31,0.5,39.560,M,-13.60,M,03,1002*43
$GPGGA,063313.00,3029.1878945,N,11433.8105018,E,4,31,0.5,39.550,M,-13.60,M,02,1002*4F
$GPGGA,063314.00,3029.1876059,N,11433.8104272,E,4,31,0.5,39.539,M,-13.60,M,02,1002*42
$GPGGA,063315.00,3029.1873069,N,11433.8103649,E,4,31,0.5,39.537,M,-13.60,M,02,1002*40
$GPGGA,063316.00,3029.1869921,N,11433.8103020,E,4,31,0.5,39.530,M,-13.60,M,02,1002*43
$GPGGA,063317.00,3029.1866560,N,11433.8102393,E,4,31,0.5,39.525,M,-13.60,M,02,1002*4A
$GPGGA,063318.00,3029.1863147,N,11433.8101773,E,4,30,0.5,39.515,M,-13.60,M,02,1002*4A
$GPGGA,063319.00,3029.1859549,N,11433.8101161,E,4,30,0.5,39.505,M,-13.60,M,02,1002*4C
$GPGGA,063320.00,3029.1855915,N,11433.8100590,E,4,30,0.5,39.498,M,-13.60,M,02,1002*41
$GPGGA,063321.00,3029.1852639,N,11433.8100120,E,4,31,0.5,39.492,M,-13.60,M,02,1002*42
$GPGGA,063322.00,3029.1850163,N,11433.8099739,E,4,31,0.5,39.497,M,-13.60,M,02,1002*41
$GPGGA,063323.00,3029.1848591,N,11433.8099496,E,4,31,0.5,39.492,M,-13.60,M,03,1002*42
$GPGGA,063324.00,3029.1848542,N,11433.8099503,E,4,31,0.5,39.483,M,-13.60,M,02,1002*47
$GPGGA,063325.00,3029.1848555,N,11433.8099528,E,4,32,0.5,39.480,M,-13.60,M,02,1002*49
$GPGGA,063326.00,3029.1848556,N,11433.8099527,E,4,31,0.5,39.479,M,-13.60,M,02,1002*43
$GPGGA,063327.00,3029.1848556,N,11433.8099515,E,4,32,0.5,39.480,M,-13.60,M,02,1002*46
$GPGGA,063328.00,3029.1848565,N,11433.8099527,E,4,31,0.5,39.478,M,-13.60,M,02,1002*4C
$GPGGA,063329.00,3029.1848556,N,11433.8099522,E,4,31,0.5,39.475,M,-13.60,M,02,1002*45
$GPGGA,063330.00,3029.1848559,N,11433.8099516,E,4,31,0.5,39.485,M,-13.60,M,02,1002*4A
$GPGGA,063331.00,3029.1848557,N,11433.8099520,E,4,30,0.5,39.485,M,-13.60,M,02,1002*41
$GPGGA,063332.00,3029.1848555,N,11433.8099530,E,4,30,0.5,39.480,M,-13.60,M,02,1002*44
$GPGGA,063333.00,3029.1848563,N,11433.8099516,E,4,30,0.5,39.479,M,-13.60,M,02,1002*42
$GPGGA,063334.00,3029.1848508,N,11433.8099555,E,4,31,0.5,39.483,M,-13.60,M,02,1002*4B
$GPGGA,063335.00,3029.1848535,N,11433.8099531,E,4,31,0.5,39.483,M,-13.60,M,02,1002*46
$GPGGA,063336.00,3029.1848519,N,11433.8099529,E,4,31,0.5,39.482,M,-13.60,M,02,1002*43
$GPGGA,063337.00,3029.1848578,N,11433.8099542,E,4,31,0.5,39.481,M,-13.60,M,02,1002*4B
$GPGGA,063338.00,3029.1848519,N,11433.8099522,E,4,31,0.5,39.488,M,-13.60,M,02,1002*4C
$GPGGA,063339.00,3029.1848547,N,11433.8099541,E,4,31,0.5,39.490,M,-13.60,M,02,1002*4A
$GPGGA,063340.00,3029.1848509,N,11433.8099498,E,4,31,0.5,39.492,M,-13.60,M,02,1002*49
$GPGGA,063341.00,3029.1848573,N,11433.8099545,E,4,31,0.5,39.487,M,-13.60,M,02,1002*40
$GPGGA,063342.00,3029.1848548,N,11433.8099491,E,4,31,0.5,39.489,M,-13.60,M,02,1002*4D
$GPGGA,063343.00,3029.1848545,N,11433.8099518,E,4,31,0.5,39.491,M,-13.60,M,02,1002*48
$GPGGA,063344.00,3029.1848478,N,11433.8099543,E,4,31,0.5,39.495,M,-13.60,M,02,1002*4A
$GPGGA,063345.00,3029.1848544,N,11433.8099532,E,4,31,0.5,39.494,M,-13.60,M,03,1002*43
$GPGGA,063346.00,3029.1848531,N,11433.8099503,E,4,31,0.5,39.496,M,-13.60,M,02,1002*43
$GPGGA,063347.00,3029.1848566,N,11433.8099524,E,4,31,0.5,39.493,M,-13.60,M,02,1002*40
$GPGGA,063348.00,3029.1848545,N,11433.8099507,E,4,31,0.5,39.496,M,-13.60,M,02,1002*4A
$GPGGA,063349.00,3029.1848534,N,11433.8099510,E,4,31,0.5,39.497,M,-13.60,M,02,1002*4A
$GPGGA,063350.00,3029.1848543,N,11433.8099506,E,4,31,0.5,39.496,M,-13.60,M,02,1002*44
$GPGGA,063351.00,3029.1848536,N,11433.8099506,E,4,31,0.5,39.497,M,-13.60,M,02,1002*46
$GPGGA,063352.00,3029.1848576,N,11433.8099514,E,4,31,0.5,39.494,M,-13.60,M,02,1002*41
$GPGGA,063353.00,3029.1848527,N,11433.8099510,E,4,31,0.5,39.497,M,-13.60,M,02,1002*43
$GPGGA,063354.00,3029.1848517,N,11433.8099520,E,4,31,0.5,39.501,M,-13.60,M,02,1002*4A
$GPGGA,063355.00,3029.1848575,N,11433.8099496,E,4,31,0.5,39.498,M,-13.60,M,03,1002*43
$GPGGA,063356.00,3029.1848538,N,11433.8099496,E,4,31,0.5,39.500,M,-13.60,M,02,1002*48
$GPGGA,063357.00,3029.1848553,N,11433.8099490,E,4,31,0.5,39.500,M,-13.60,M,02,1002*42
$GPGGA,063358.00,3029.1848511,N,11433.8099485,E,4,31,0.5,39.503,M,-13.60,M,02,1002*4C
$GPGGA,063359.00,3029.1848532,N,11433.8099517,E,4,31,0.5,39.504,M,-13.60,M,02,1002*41
$GPGGA,063400.00,3029.1848540,N,11433.8099505,E,4,31,0.5,39.501,M,-13.60,M,02,1002*49
$GPGGA,063401.00,3029.1848544,N,11433.8099491,E,4,31,0.5,39.497,M,-13.60,M,02,1002*4E
$GPGGA,063402.00,3029.1848552,N,11433.8099481,E,4,31,0.5,39.503,M,-13.60,M,02,1002*47
$GPGGA,063403.00,3029.1848509,N,11433.8099490,E,4,31,0.5,39.507,M,-13.60,M,02,1002*4C
$GPGGA,063404.00,3029.1848540,N,11433.8099524,E,4,31,0.5,39.506,M,-13.60,M,02,1002*49
$GPGGA,063405.00,3029.1848529,N,11433.8099511,E,4,31,0.5,39.506,M,-13.60,M,02,1002*41
$GPGGA,063406.00,3029.1848531,N,11433.8099510,E,4,31,0.5,39.499,M,-13.60,M,03,1002*4C
$GPGGA,063407.00,3029.1848490,N,11433.8099532,E,4,31,0.5,39.511,M,-13.60,M,02,1002*47
$GPGGA,063408.00,3029.1848483,N,11433.8099517,E,4,31,0.5,39.514,M,-13.60,M,02,1002*48
$GPGGA,063409.00,3029.1848507,N,11433.8099501,E,4,31,0.5,39.517,M,-13.60,M,02,1002*40
$GPGGA,063410.00,3029.1848520,N,11433.8099530,E,4,31,0.5,39.518,M,-13.60,M,02,1002*40
$GPGGA,063411.00,3029.1847657,N,11433.8099395,E,4,31,0.5,39.510,M,-13.60,M,02,1002*4C
$GPGGA,063412.00,3029.1842555,N,11433.8099062,E,4,32,0.5,39.496,M,-13.60,M,02,1002*4C
$GPGGA,063413.00,3029.1829759,N,11433.8099438,E,4,30,0.5,39.464,M,-13.60,M,02,1002*4A
$GPGGA,063414.00,3029.1810848,N,11433.8100860,E,4,29,0.5,39.421,M,-13.60,M,02,1002*41
$GPGGA,063415.00,3029.1787904,N,11433.8102234,E,4,31,0.5,39.363,M,-13.60,M,03,1002*48
$GPGGA,063416.00,3029.1763429,N,11433.8102661,E,4,31,0.5,39.304,M,-13.60,M,02,1002*47
$GPGGA,063417.00,3029.1738174,N,11433.8102078,E,4,31,0.5,39.235,M,-13.60,M,02,1002*48
$GPGGA,063418.00,3029.1712210,N,11433.8100721,E,4,31,0.5,39.153,M,-13.60,M,02,1002*44
$GPGGA,063419.00,3029.1685732,N,11433.8099393,E,4,31,0.5,39.078,M,-13.60,M,02,1002*4B
$GPGGA,063420.00,3029.1659054,N,11433.8098885,E,4,31,0.5,38.991,M,-13.60,M,02,1002*45
$GPGGA,063421.00,3029.1632368,N,11433.8099031,E,4,31,0.5,38.935,M,-13.60,M,02,1002*4D
$GPGGA,063422.00,3029.1608218,N,11433.8099015,E,4,31,0.5,38.886,M,-13.60,M,02,1002*4E
$GPGGA,063423.00,3029.1588068,N,11433.8098982,E,4,31,0.5,38.815,M,-13.60,M,02,1002*4D
$GPGGA,063424.00,3029.1572047,N,11433.8098652,E,4,30,0.5,38.766,M,-13.60,M,02,1002*4A
$GPGGA,063425.00,3029.1557526,N,11433.8097602,E,4,31,0.5,38.731,M,-13.60,M,02,1002*47
$GPGGA,063426.00,3029.1544004,N,11433.8096172,E,4,32,0.5,38.681,M,-13.60,M,03,1002*4A
$GPGGA,063427.00,3029.1531403,N,11433.8095024,E,4,32,0.5,38.641,M,-13.60,M,02,1002*46
$GPGGA,063428.00,3029.1519793,N,11433.8094265,E,4,32,0.5,38.614,M,-13.60,M,02,1002*4F
$GPGGA,063429.00,3029.1508524,N,11433.8093727,E,4,32,0.5,38.558,M,-13.60,M,02,1002*4F
$GPGGA,063430.00,3029.1496970,N,11433.8093421,E,4,32,0.5,38.539,M,-13.60,M,02,1002*4E
$GPGGA,063431.00,3029.1485513,N,11433.8093347,E,4,31,0.5,38.493,M,-13.60,M,02,1002*41
$GPGGA,063432.00,3029.1474037,N,11433.8093419,E,4,32,0.5,38.449,M,-13.60,M,02,1002*47
$GPGGA,063433.00,3029.1461515,N,11433.8093801,E,4,31,0.5,38.421,M,-13.60,M,02,1002*4F
$GPGGA,063434.00,3029.1447020,N,11433.8094737,E,4,30,0.5,38.370,M,-13.60,M,02,1002*40
$GPGGA,063435.00,3029.1432224,N,11433.8096050,E,4,30,0.5,38.322,M,-13.60,M,02,1002*46
$GPGGA,063436.00,3029.1418332,N,11433.8097287,E,4,28,0.5,38.285,M,-13.60,M,03,1002*46
$GPGGA,063437.00,3029.1405372,N,11433.8098409,E,4,30,0.5,38.253,M,-13.60,M,02,1002*43
$GPGGA,063438.00,3029.1393482,N,11433.8099366,E,4,31,0.5,38.232,M,-13.60,M,02,1002*45
$GPGGA,063439.00,3029.1382345,N,11433.8100233,E,4,31,0.5,38.208,M,-13.60,M,02,1002*41
$GPGGA,063440.00,3029.1370877,N,11433.8101300,E,4,32,0.5,38.172,M,-13.60,M,02,1002*45
$GPGGA,063441.00,3029.1359393,N,11433.8102397,E,4,32,0.5,38.145,M,-13.60,M,03,1002*46
$GPGGA,063442.00,3029.1348056,N,11433.8103508,E,4,32,0.5,38.125,M,-13.60,M,03,1002*48
$GPGGA,063443.00,3029.1336740,N,11433.8104713,E,4,32,0.5,38.083,M,-13.60,M,03,1002*42
$GPGGA,063444.00,3029.1325403,N,11433.8105978,E,4,30,0.6,38.050,M,-13.60,M,04,1002*49
$GPGGA,063445.00,3029.1312188,N,11433.8107510,E,4,30,0.5,38.019,M,-13.60,M,05,1002*45
$GPGGA,063446.00,3029.1294149,N,11433.8109720,E,4,31,0.5,37.841,M,-13.60,M,03,1002*46
$GPGGA,063447.00,3029.1272396,N,11433.8112340,E,4,30,0.5,37.796,M,-13.60,M,02,1002*42
$GPGGA,063448.00,3029.1253101,N,11433.8114659,E,4,30,0.5,37.737,M,-13.60,M,03,1002*43
$GPGGA,063449.00,3029.1237107,N,11433.8116379,E,4,29,0.5,37.713,M,-13.60,M,04,1002*4A
$GPGGA,063450.00,3029.1222704,N,11433.8117727,E,4,29,0.5,37.703,M,-13.60,M,02,1002*4A
$GPGGA,063451.00,3029.1210234,N,11433.8118683,E,4,30,0.5,37.697,M,-13.60,M,03,1002*49
$GPGGA,063452.00,3029.1200768,N,11433.8119565,E,4,30,0.5,37.683,M,-13.60,M,03,1002*48
$GPGGA,063453.00,3029.1194548,N,11433.8120109,E,4,30,0.5,37.675,M,-13.60,M,03,1002*4A
$GPGGA,063454.00,3029.1192301,N,11433.8120321,E,4,32,0.5,37.666,M,-13.60,M,04,1002*4F
$GPGGA,063455.00,3029.1192333,N,11433.8120329,E,4,32,0.5,37.666,M,-13.60,M,02,1002*41
$GPGGA,063456.00,3029.1192276,N,11433.8120330,E,4,32,0.5,37.664,M,-13.60,M,02,1002*48
$GPGGA,063457.00,3029.1192162,N,11433.8120342,E,4,32,0.5,37.665,M,-13.60,M,03,1002*4A
$GPGGA,063458.00,3029.1192057,N,11433.8120343,E,4,32,0.5,37.673,M,-13.60,M,03,1002*44
$GPGGA,063459.00,3029.1191956,N,11433.8120355,E,4,32,0.5,37.676,M,-13.60,M,03,1002*4C
$GPGGA,063500.00,3029.1191829,N,11433.8120347,E,4,32,0.5,37.678,M,-13.60,M,03,1002*45
$GPGGA,063501.00,3029.1191643,N,11433.8120364,E,4,32,0.5,37.676,M,-13.60,M,02,1002*48
$GPGGA,063502.00,3029.1191363,N,11433.8120381,E,4,32,0.5,37.670,M,-13.60,M,03,1002*40
$GPGGA,063503.00,3029.1191005,N,11433.8120393,E,4,32,0.5,37.675,M,-13.60,M,03,1002*44
$GPGGA,063504.00,3029.1190532,N,11433.8120418,E,4,32,0.5,37.667,M,-13.60,M,04,1002*43
$GPGGA,063505.00,3029.1189947,N,11433.8120429,E,4,32,0.5,37.671,M,-13.60,M,03,1002*46
$GPGGA,063506.00,3029.1189431,N,11433.8120492,E,4,32,0.5,37.670,M,-13.60,M,03,1002*48
$GPGGA,063507.00,3029.1188991,N,11433.8120529,E,4,32,0.5,37.671,M,-13.60,M,03,1002*4F
$GPGGA,063508.00,3029.1188682,N,11433.8120556,E,4,32,0.5,37.668,M,-13.60,M,03,1002*4D
$GPGGA,063509.00,3029.1188530,N,11433.8120567,E,4,32,0.5,37.676,M,-13.60,M,02,1002*4A
$GPGGA,063510.00,3029.1188480,N,11433.8120568,E,4,31,0.5,37.682,M,-13.60,M,02,1002*4F
$GPGGA,063511.00,3029.1188452,N,11433.8120570,E,4,31,0.5,37.681,M,-13.60,M,03,1002*4A
$GPGGA,063512.00,3029.1188430,N,11433.8120582,E,4,31,0.5,37.674,M,-13.60,M,02,1002*4B
$GPGGA,063513.00,3029.1188423,N,11433.8120570,E,4,31,0.5,37.680,M,-13.60,M,02,1002*4E
$GPGGA,063514.00,3029.1188407,N,11433.8120568,E,4,31,0.5,37.676,M,-13.60,M,03,1002*4E
$GPGGA,063515.00,3029.1188376,N,11433.8120576,E,4,31,0.5,37.677,M,-13.60,M,02,1002*41
$GPGGA,063516.00,3029.1188363,N,11433.8120570,E,4,31,0.5,37.684,M,-13.60,M,02,1002*4C
$GPGGA,063517.00,3029.1188353,N,11433.8120573,E,4,31,0.5,37.685,M,-13.60,M,02,1002*4C
$GPGGA,063518.00,3029.1188348,N,11433.8120585,E,4,31,0.5,37.687,M,-13.60,M,02,1002*42
$GPGGA,063519.00,3029.1188341,N,11433.8120587,E,4,31,0.5,37.686,M,-13.60,M,03,1002*48
$GPGGA,063520.00,3029.1188316,N,11433.8120579,E,4,31,0.5,37.690,M,-13.60,M,03,1002*46
$GPGGA,063521.00,3029.1188301,N,11433.8120574,E,4,31,0.5,37.692,M,-13.60,M,03,1002*4E
$GPGGA,063522.00,3029.1188284,N,11433.8120585,E,4,31,0.5,37.693,M,-13.60,M,03,1002*4E
$GPGGA,063523.00,3029.1188260,N,11433.8120587,E,4,31,0.5,37.688,M,-13.60,M,02,1002*4C
$GPGGA,063524.00,3029.1188255,N,11433.8120582,E,4,31,0.5,37.689,M,-13.60,M,03,1002*48
$GPGGA,063525.00,3029.1188245,N,11433.8120590,E,4,31,0.5,37.692,M,-13.60,M,02,1002*40
$GPGGA,063526.00,3029.1188316,N,11433.8120582,E,4,31,0.5,37.683,M,-13.60,M,02,1002*47
$GPGGA,063527.00,3029.1188333,N,11433.8120639,E,4,31,0.5,37.683,M,-13.60,M,02,1002*42
$GPGGA,063528.00,3029.1188299,N,11433.8120555,E,4,31,0.5,37.688,M,-13.60,M,03,1002*4F
$GPGGA,063529.00,3029.1188299,N,11433.8120602,E,4,31,0.5,37.687,M,-13.60,M,03,1002*40
$GPGGA,063530.00,3029.1188209,N,11433.8120619,E,4,31,0.5,37.697,M,-13.60,M,02,1002*4B
$GPGGA,063531.00,3029.1188243,N,11433.8120618,E,4,31,0.5,37.692,M,-13.60,M,03,1002*41
$GPGGA,063532.00,3029.1188209,N,11433.8120583,E,4,31,0.5,37.694,M,-13.60,M,02,1002*4A
$GPGGA,063533.00,3029.1188208,N,11433.8120578,E,4,30,0.5,37.696,M,-13.60,M,02,1002*4D
$GPGGA,063534.00,3029.1188193,N,11433.8120580,E,4,30,0.5,37.699,M,-13.60,M,03,1002*42
$GPGGA,063535.00,3029.1188207,N,11433.8120591,E,4,30,0.5,37.700,M,-13.60,M,03,1002*4C
$GPGGA,063536.00,3029.1188204,N,11433.8120607,E,4,30,0.5,37.699,M,-13.60,M,03,1002*41
$GPGGA,063537.00,3029.1188180,N,11433.8120578,E,4,30,0.5,37.700,M,-13.60,M,04,1002*42
$GPGGA,063538.00,3029.1188232,N,11433.8120604,E,4,30,0.5,37.698,M,-13.60,M,02,1002*49
$GPGGA,063539.00,3029.1188187,N,11433.8120558,E,4,30,0.5,37.703,M,-13.60,M,02,1002*4C
$GPGGA,063540.00,3029.1188174,N,11433.8120576,E,4,30,0.5,37.702,M,-13.60,M,02,1002*43
$GPGGA,063541.00,3029.1188131,N,11433.8120552,E,4,30,0.5,37.705,M,-13.60,M,02,1002*42
$GPGGA,063542.00,3029.1188150,N,11433.8120584,E,4,31,0.5,37.705,M,-13.60,M,02,1002*4C
$GPGGA,063543.00,3029.1188147,N,11433.8120574,E,4,30,0.5,37.704,M,-13.60,M,02,1002*44
$GPGGA,063544.00,3029.1188158,N,11433.8120589,E,4,30,0.5,37.703,M,-13.60,M,02,1002*48
$GPGGA,063545.00,3029.1188097,N,11433.8120584,E,4,30,0.5,37.711,M,-13.60,M,02,1002*45
$GPGGA,063546.00,3029.1188093,N,11433.8120578,E,4,30,0.5,37.712,M,-13.60,M,02,1002*42
$GPGGA,063547.00,3029.1188088,N,11433.8120584,E,4,30,0.5,37.707,M,-13.60,M,03,1002*4F
$GPGGA,063548.00,3029.1188028,N,11433.8120598,E,4,30,0.5,37.716,M,-13.60,M,02,1002*46
$GPGGA,063549.00,3029.1188078,N,11433.8120613,E,4,30,0.5,37.713,M,-13.60,M,02,1002*47
$GPGGA,063550.00,3029.1188094,N,11433.8120600,E,4,30,0.5,37.709,M,-13.60,M,01,1002*47
$GPGGA,063551.00,3029.1188046,N,11433.8120575,E,4,30,0.5,37.716,M,-13.60,M,02,1002*45
$GPGGA,063552.00,3029.1188035,N,11433.8120628,E,4,31,0.5,37.715,M,-13.60,M,02,1002*4B
$GPGGA,063553.00,3029.1188029,N,11433.8120585,E,4,31,0.5,37.715,M,-13.60,M,02,1002*43
$GPGGA,063554.00,3029.1188068,N,11433.8120591,E,4,31,0.5,37.710,M,-13.60,M,02,1002*41
$GPGGA,063555.00,3029.1187983,N,11433.8120582,E,4,31,0.5,37.720,M,-13.60,M,02,1002*42
$GPGGA,063556.00,3029.1188032,N,11433.8120630,E,4,31,0.5,37.717,M,-13.60,M,02,1002*43
$GPGGA,063557.00,3029.1188006,N,11433.8120613,E,4,31,0.5,37.717,M,-13.60,M,02,1002*44
$GPGGA,063558.00,3029.1188019,N,11433.8120588,E,4,31,0.5,37.717,M,-13.60,M,03,1002*45
$GPGGA,063559.00,3029.1187948,N,11433.8120615,E,4,31,0.5,37.722,M,-13.60,M,02,1002*46
$GPGGA,063600.00,3029.1187950,N,11433.8120582,E,4,31,0.5,37.724,M,-13.60,M,02,1002*4B
$GPGGA,063601.00,3029.1188026,N,11433.8120602,E,4,31,0.5,37.711,M,-13.60,M,02,1002*40
$GPGGA,063602.00,3029.1187929,N,11433.8120555,E,4,31,0.5,37.723,M,-13.60,M,02,1002*4A
$GPGGA,063603.00,3029.1187971,N,11433.8120605,E,4,31,0.5,37.718,M,-13.60,M,02,1002*48
$GPGGA,063604.00,3029.1187908,N,11433.8120574,E,4,31,0.5,37.725,M,-13.60,M,02,1002*4A
$GPGGA,063605.00,3029.1187962,N,11433.8120617,E,4,31,0.5,37.720,M,-13.60,M,02,1002*44
$GPGGA,063606.00,3029.1187875,N,11433.8120558,E,4,31,0.5,37.729,M,-13.60,M,02,1002*41
$GPGGA,063607.00,3029.1187881,N,11433.8120623,E,4,31,0.5,37.724,M,-13.60,M,02,1002*49
$GPGGA,063608.00,3029.1187882,N,11433.8120585,E,4,31,0.5,37.723,M,-13.60,M,02,1002*4D
$GPGGA,063609.00,3029.1187894,N,11433.8120626,E,4,31,0.5,37.720,M,-13.60,M,03,1002*43
$GPGGA,063610.00,3029.1187799,N,11433.8120627,E,4,31,0.5,37.732,M,-13.60,M,02,1002*4A
$GPGGA,063611.00,3029.1187875,N,11433.8120628,E,4,31,0.5,37.725,M,-13.60,M,02,1002*4F
$GPGGA,063612.00,3029.1187834,N,11433.8120627,E,4,31,0.5,37.727,M,-13.60,M,02,1002*44
$GPGGA,063613.00,3029.1187794,N,11433.8120588,E,4,31,0.5,37.732,M,-13.60,M,02,1002*42
$GPGGA,063614.00,3029.1187830,N,11433.8120655,E,4,31,0.5,37.726,M,-13.60,M,02,1002*42
$GPGGA,063615.00,3029.1187778,N,11433.8120614,E,4,31,0.5,37.730,M,-13.60,M,02,1002*42
$GPGGA,063616.00,3029.1187793,N,11433.8120605,E,4,31,0.5,37.729,M,-13.60,M,02,1002*4C
$GPGGA,063617.00,3029.1187748,N,11433.8120642,E,4,31,0.5,37.732,M,-13.60,M,02,1002*42
$GPGGA,063618.00,3029.1187758,N,11433.8120620,E,4,31,0.5,37.732,M,-13.60,M,02,1002*48
$GPGGA,063619.00,3029.1187792,N,11433.8120622,E,4,31,0.5,37.725,M,-13.60,M,02,1002*4B
$GPGGA,063620.00,3029.1187705,N,11433.8120612,E,4,31,0.5,37.736,M,-13.60,M,03,1002*4F
$GPGGA,063621.00,3029.1187769,N,11433.8120650,E,4,31,0.5,37.726,M,-13.60,M,02,1002*42
$GPGGA,063622.00,3029.1187710,N,11433.8120594,E,4,31,0.5,37.732,M,-13.60,M,02,1002*41
$GPGGA,063623.00,3029.1187722,N,11433.8120615,E,4,31,0.5,37.729,M,-13.60,M,02,1002*41
$GPGGA,063624.00,3029.1187668,N,11433.8120596,E,4,31,0.5,37.735,M,-13.60,M,02,1002*4C
$GPGGA,063625.00,3029.1187719,N,11433.8120631,E,4,31,0.5,37.731,M,-13.60,M,02,1002*40
$GPGGA,063626.00,3029.1187679,N,11433.8120593,E,4,31,0.5,37.734,M,-13.60,M,02,1002*4A
$GPGGA,063627.00,3029.1187678,N,11433.8120629,E,4,31,0.5,37.734,M,-13.60,M,02,1002*48
$GPGGA,063628.00,3029.1187698,N,11433.8120619,E,4,31,0.5,37.733,M,-13.60,M,02,1002*4D
$GPGGA,063629.00,3029.1187727,N,11433.8120624,E,4,31,0.5,37.731,M,-13.60,M,02,1002*45
$GPGGA,063630.00,3029.1187789,N,11433.8120639,E,4,31,0.5,37.731,M,-13.60,M,02,1002*45
$GPGGA,063631.00,3029.1187730,N,11433.8120616,E,4,31,0.5,37.734,M,-13.60,M,02,1002*4E
$GPGGA,063632.00,3029.1187695,N,11433.8120633,E,4,31,0.5,37.731,M,-13.60,M,02,1002*41
$GPGGA,063633.00,3029.1187638,N,11433.8120613,E,4,30,0.5,37.739,M,-13.60,M,02,1002*4C
$GPGGA,063634.00,3029.1187673,N,11433.8120658,E,4,30,0.5,37.733,M,-13.60,M,02,1002*41
$GPGGA,063635.00,3029.1187631,N,11433.8120623,E,4,30,0.5,37.742,M,-13.60,M,02,1002*4C
$GPGGA,063636.00,3029.1187658,N,11433.8120636,E,4,30,0.5,37.737,M,-13.60,M,02,1002*46
$GPGGA,063637.00,3029.1187608,N,11433.8120664,E,4,30,0.5,37.740,M,-13.60,M,02,1002*45
$GPGGA,063638.00,3029.1187656,N,11433.8120658,E,4,30,0.5,37.737,M,-13.60,M,02,1002*4E
$GPGGA,063639.00,3029.1187629,N,11433.8120650,E,4,30,0.5,37.739,M,-13.60,M,02,1002*41
$GPGGA,063640.00,3029.1187597,N,11433.8120639,E,4,30,0.5,37.740,M,-13.60,M,02,1002*48
$GPGGA,063641.00,3029.1187637,N,11433.8120659,E,4,31,0.5,37.734,M,-13.60,M,02,1002*44
$GPGGA,063642.00,3029.1187591,N,11433.8120611,E,4,31,0.5,37.739,M,-13.60,M,03,1002*48
$GPGGA,063643.00,3029.1187578,N,11433.8120635,E,4,31,0.5,37.743,M,-13.60,M,02,1002*44
$GPGGA,063644.00,3029.1187553,N,11433.8120630,E,4,31,0.5,37.745,M,-13.60,M,02,1002*49
$GPGGA,063645.00,3029.1187605,N,11433.8120641,E,4,31,0.5,37.739,M,-13.60,M,02,1002*45
$GPGGA,063646.00,3029.1187570,N,11433.8120633,E,4,31,0.6,37.743,M,-13.60,M,02,1002*4C
$GPGGA,063647.00,3029.1187544,N,11433.8120625,E,4,31,0.6,37.744,M,-13.60,M,02,1002*4A
$GPGGA,063648.00,3029.1187562,N,11433.8120650,E,4,31,0.6,37.741,M,-13.60,M,02,1002*46
$GPGGA,063649.00,3029.1187568,N,11433.8120582,E,4,31,0.6,37.742,M,-13.60,M,02,1002*42
$GPGGA,063650.00,3029.1187556,N,11433.8120601,E,4,31,0.6,37.741,M,-13.60,M,02,1002*4C
$GPGGA,063651.00,3029.1187502,N,11433.8120597,E,4,31,0.6,37.750,M,-13.60,M,02,1002*40
$GPGGA,063652.00,3029.1187558,N,11433.8120624,E,4,31,0.6,37.743,M,-13.60,M,02,1002*45
$GPGGA,063653.00,3029.1187506,N,11433.8120611,E,4,31,0.6,37.750,M,-13.60,M,03,1002*4A
$GPGGA,063654.00,3029.1187506,N,11433.8120621,E,4,31,0.6,37.747,M,-13.60,M,02,1002*49
$GPGGA,063655.00,3029.1187492,N,11433.8120617,E,4,31,0.6,37.748,M,-13.60,M,02,1002*4E
$GPGGA,063656.00,3029.1187542,N,11433.8120644,E,4,31,0.6,37.743,M,-13.60,M,02,1002*4C
$GPGGA,063657.00,3029.1187513,N,11433.8120620,E,4,31,0.6,37.744,M,-13.60,M,02,1002*4C
$GPGGA,063658.00,3029.1187451,N,11433.8120590,E,4,31,0.6,37.753,M,-13.60,M,02,1002*4A
$GPGGA,063659.00,3029.1187519,N,11433.8120665,E,4,31,0.6,37.744,M,-13.60,M,02,1002*49
$GPGGA,063700.00,3029.1187477,N,11433.8120650,E,4,31,0.6,37.750,M,-13.60,M,02,1002*4E
$GPGGA,063701.00,3029.1187443,N,11433.8120604,E,4,31,0.6,37.752,M,-13.60,M,02,1002*4B
$GPGGA,063702.00,3029.1187444,N,11433.8120633,E,4,31,0.6,37.751,M,-13.60,M,02,1002*48
$GPGGA,063703.00,3029.1187468,N,11433.8120647,E,4,31,0.6,37.750,M,-13.60,M,02,1002*45
$GPGGA,063704.00,3029.1187436,N,11433.8120657,E,4,31,0.6,37.749,M,-13.60,M,03,1002*41
$GPGGA,063705.00,3029.1187395,N,11433.8120652,E,4,31,0.6,37.752,M,-13.60,M,02,1002*40
$GPGGA,063706.00,3029.1187312,N,11433.8120663,E,4,31,0.6,37.754,M,-13.60,M,02,1002*48
$GPGGA,063707.00,3029.1187424,N,11433.8120646,E,4,31,0.6,37.748,M,-13.60,M,02,1002*41
$GPGGA,063708.00,3029.1187428,N,11433.8120640,E,4,31,0.6,37.749,M,-13.60,M,02,1002*45
$GPGGA,063709.00,3029.1187394,N,11433.8120667,E,4,31,0.6,37.749,M,-13.60,M,03,1002*40
$GPGGA,063710.00,3029.1187396,N,11433.8120633,E,4,31,0.6,37.753,M,-13.60,M,04,1002*47
$GPGGA,063711.00,3029.1187421,N,11433.8120652,E,4,31,0.6,37.750,M,-13.60,M,02,1002*4F
$GPGGA,063712.00,3029.1187356,N,11433.8120624,E,4,31,0.6,37.752,M,-13.60,M,01,1002*4B
$GPGGA,063713.00,3029.1187382,N,11433.8120638,E,4,30,0.6,37.749,M,-13.60,M,02,1002*46
$GPGGA,063714.00,3029.1187442,N,11433.8120676,E,4,30,0.6,37.744,M,-13.60,M,02,1002*4D
$GPGGA,063715.00,3029.1187348,N,11433.8120636,E,4,30,0.6,37.754,M,-13.60,M,02,1002*44
$GPGGA,063716.00,3029.1187386,N,11433.8120696,E,4,30,0.6,37.750,M,-13.60,M,02,1002*4B
$GPGGA,063717.00,3029.1187353,N,11433.8120641,E,4,30,0.6,37.753,M,-13.60,M,02,1002*4B
$GPGGA,063718.00,3029.1187386,N,11433.8120670,E,4,30,0.6,37.750,M,-13.60,M,02,1002*4D
$GPGGA,063719.00,3029.1187382,N,11433.8120659,E,4,30,0.6,37.747,M,-13.60,M,02,1002*45
$GPGGA,063720.00,3029.1187323,N,11433.8120650,E,4,30,0.6,37.755,M,-13.60,M,02,1002*4E
$GPGGA,063721.00,3029.1187397,N,11433.8120688,E,4,30,0.6,37.746,M,-13.60,M,02,1002*47
$GPGGA,063722.00,3029.1187354,N,11433.8120631,E,4,30,0.6,37.749,M,-13.60,M,02,1002*46
$GPGGA,063723.00,3029.1187350,N,11433.8120641,E,4,30,0.6,37.748,M,-13.60,M,02,1002*45
$GPGGA,063724.00,3029.1187339,N,11433.8120649,E,4,30,0.6,37.754,M,-13.60,M,02,1002*48
$GPGGA,063725.00,3029.1187369,N,11433.8120655,E,4,30,0.6,37.748,M,-13.60,M,02,1002*4C
$GPGGA,063726.00,3029.1187350,N,11433.8120654,E,4,30,0.6,37.748,M,-13.60,M,02,1002*44
$GPGGA,063727.00,3029.1187314,N,11433.8120640,E,4,31,0.6,37.755,M,-13.60,M,02,1002*4D
$GPGGA,063728.00,3029.1187311,N,11433.8120662,E,4,31,0.6,37.753,M,-13.60,M,02,1002*41
$GPGGA,063729.00,3029.1187284,N,11433.8120639,E,4,31,0.6,37.755,M,-13.60,M,02,1002*45
$GPGGA,063730.00,3029.1187208,N,11433.8120596,E,4,31,0.6,37.758,M,-13.60,M,02,1002*42
$GPGGA,063731.00,3029.1187249,N,11433.8120632,E,4,31,0.6,37.760,M,-13.60,M,02,1002*40
$GPGGA,063732.00,3029.1187281,N,11433.8120661,E,4,31,0.6,37.755,M,-13.60,M,02,1002*47
$GPGGA,063733.00,3029.1187282,N,11433.8120668,E,4,31,0.6,37.752,M,-13.60,M,02,1002*4B
$GPGGA,063734.00,3029.1187311,N,11433.8120668,E,4,31,0.6,37.751,M,-13.60,M,02,1002*44
$GPGGA,063735.00,3029.1187280,N,11433.8120694,E,4,31,0.6,37.753,M,-13.60,M,02,1002*4D
$GPGGA,063736.00,3029.1187240,N,11433.8120664,E,4,31,0.6,37.755,M,-13.60,M,03,1002*4A
$GPGGA,063737.00,3029.1187310,N,11433.8120691,E,4,31,0.6,37.750,M,-13.60,M,02,1002*41
$GPGGA,063738.00,3029.1187258,N,11433.8120627,E,4,31,0.6,37.756,M,-13.60,M,02,1002*48
$GPGGA,063739.00,3029.1187243,N,11433.8120653,E,4,31,0.6,37.753,M,-13.60,M,02,1002*45
$GPGGA,063740.00,3029.1187256,N,11433.8120676,E,4,31,0.6,37.752,M,-13.60,M,02,1002*49
$GPGGA,063741.00,3029.1187278,N,11433.8120637,E,4,31,0.6,37.751,M,-13.60,M,02,1002*42
$GPGGA,063742.00,3029.1187285,N,11433.8120643,E,4,31,0.6,37.749,M,-13.60,M,02,1002*49
$GPGGA,063743.00,3029.1187206,N,11433.8120616,E,4,31,0.6,37.759,M,-13.60,M,02,1002*42
$GPGGA,063744.00,3029.1187257,N,11433.8120673,E,4,31,0.6,37.754,M,-13.60,M,02,1002*4F
$GPGGA,063745.00,3029.1187295,N,11433.8120662,E,4,31,0.6,37.753,M,-13.60,M,02,1002*47
$GPGGA,063746.00,3029.1187270,N,11433.8120640,E,4,31,0.6,37.754,M,-13.60,M,02,1002*48
$GPGGA,063747.00,3029.1187249,N,11433.8120672,E,4,31,0.6,37.754,M,-13.60,M,03,1002*43
$GPGGA,063748.00,3029.1187242,N,11433.8120653,E,4,31,0.6,37.758,M,-13.60,M,02,1002*49
$GPGGA,063749.00,3029.1187287,N,11433.8120692,E,4,31,0.6,37.752,M,-13.60,M,02,1002*46
$GPGGA,063750.00,3029.1187241,N,11433.8120643,E,4,31,0.6,37.756,M,-13.60,M,02,1002*4C
$GPGGA,063751.00,3029.1187240,N,11433.8120683,E,4,31,0.6,37.758,M,-13.60,M,02,1002*4E
$GPGGA,063752.00,3029.1187203,N,11433.8120688,E,4,31,0.6,37.764,M,-13.60,M,02,1002*4E
$GPGGA,063753.00,3029.1187263,N,11433.8120678,E,4,31,0.6,37.761,M,-13.60,M,02,1002*43
$GPGGA,063754.00,3029.1187273,N,11433.8120683,E,4,31,0.6,37.756,M,-13.60,M,02,1002*45
$GPGGA,063755.00,3029.1187224,N,11433.8120663,E,4,31,0.6,37.763,M,-13.60,M,02,1002*4E
$GPGGA,063756.00,3029.1187230,N,11433.8120705,E,4,31,0.6,37.760,M,-13.60,M,02,1002*4A
$GPGGA,063757.00,3029.1187209,N,11433.8120670,E,4,31,0.6,37.760,M,-13.60,M,02,1002*42
$GPGGA,063758.00,3029.1187256,N,11433.8120693,E,4,31,0.6,37.757,M,-13.60,M,03,1002*4F
$GPGGA,063759.00,3029.1187207,N,11433.8120629,E,4,31,0.6,37.762,M,-13.60,M,02,1002*4C
$GPGGA,063800.00,3029.1187215,N,11433.8120692,E,4,31,0.6,37.763,M,-13.60,M,02,1002*4D
$GPGGA,063801.00,3029.1187222,N,11433.8120686,E,4,31,0.6,37.759,M,-13.60,M,02,1002*44
$GPGGA,063802.00,3029.1187250,N,11433.8120660,E,4,31,0.6,37.758,M,-13.60,M,02,1002*4B
$GPGGA,063803.00,3029.1187214,N,11433.8120665,E,4,31,0.6,37.762,M,-13.60,M,02,1002*46
$GPGGA,063804.00,3029.1187213,N,11433.8120709,E,4,31,0.6,37.763,M,-13.60,M,02,1002*4C
$GPGGA,063805.00,3029.1187252,N,11433.8120678,E,4,31,0.6,37.753,M,-13.60,M,02,1002*4C
$GPGGA,063806.00,3029.1187264,N,11433.8120702,E,4,31,0.6,37.759,M,-13.60,M,02,1002*4C
$GPGGA,063807.00,3029.1187203,N,11433.8120693,E,4,31,0.6,37.764,M,-13.60,M,02,1002*4B
$GPGGA,063808.00,3029.1187218,N,11433.8120704,E,4,31,0.6,37.763,M,-13.60,M,02,1002*46
$GPGGA,063809.00,3029.1187216,N,11433.8120716,E,4,31,0.6,37.765,M,-13.60,M,03,1002*4D
$GPGGA,063810.00,3029.1187223,N,11433.8120683,E,4,31,0.6,37.763,M,-13.60,M,02,1002*49
$GPGGA,063811.00,3029.1187187,N,11433.8120702,E,4,31,0.6,37.765,M,-13.60,M,02,1002*4B
$GPGGA,063812.00,3029.1187203,N,11433.8120682,E,4,31,0.6,37.761,M,-13.60,M,02,1002*4A
$GPGGA,063813.00,3029.1187211,N,11433.8120639,E,4,31,0.6,37.754,M,-13.60,M,02,1002*4E
$GPGGA,063814.00,3029.1187200,N,11433.8120637,E,4,31,0.6,37.761,M,-13.60,M,02,1002*41
$GPGGA,063815.00,3029.1187231,N,11433.8120690,E,4,31,0.6,37.760,M,-13.60,M,02,1002*4E
$GPGGA,063816.00,3029.1187206,N,11433.8120685,E,4,31,0.6,37.761,M,-13.60,M,02,1002*4C
$GPGGA,063817.00,3029.1187242,N,11433.8120651,E,4,31,0.6,37.760,M,-13.60,M,02,1002*45
$GPGGA,063818.00,3029.1187183,N,11433.8120692,E,4,31,0.6,37.762,M,-13.60,M,02,1002*49
$GPGGA,063819.00,3029.1187234,N,11433.8120700,E,4,31,0.6,37.759,M,-13.60,M,03,1002*44
$GPGGA,063820.00,3029.1186798,N,11433.8120762,E,4,31,0.6,37.758,M,-13.60,M,02,1002*48
$GPGGA,063821.00,3029.1183328,N,11433.8121229,E,4,31,0.6,37.756,M,-13.60,M,02,1002*46
$GPGGA,063822.00,3029.1173272,N,11433.8122857,E,4,31,0.6,37.745,M,-13.60,M,02,1002*46
$GPGGA,063823.00,3029.1157627,N,11433.8126657,E,4,31,0.6,37.721,M,-13.60,M,02,1002*4D
$GPGGA,063824.00,3029.1139653,N,11433.8132143,E,4,31,0.6,37.693,M,-13.60,M,02,1002*4E
$GPGGA,063825.00,3029.1120414,N,11433.8138790,E,4,31,0.6,37.660,M,-13.60,M,02,1002*48
$GPGGA,063826.00,3029.1099128,N,11433.8145385,E,4,31,0.6,37.634,M,-13.60,M,02,1002*49
$GPGGA,063827.00,3029.1076467,N,11433.8151178,E,4,31,0.6,37.598,M,-13.60,M,02,1002*47
$GPGGA,063828.00,3029.1053868,N,11433.8155738,E,4,31,0.6,37.588,M,-13.60,M,02,1002*4B
$GPGGA,063829.00,3029.1031951,N,11433.8159557,E,4,30,0.6,37.556,M,-13.60,M,03,1002*41
$GPGGA,063830.00,3029.1012873,N,11433.8162624,E,4,29,0.6,37.534,M,-13.60,M,02,1002*4B
$GPGGA,063831.00,3029.0994570,N,11433.8165285,E,4,28,0.6,37.531,M,-13.60,M,02,1002*4E
$GPGGA,063832.00,3029.0975982,N,11433.8167698,E,4,28,0.6,37.518,M,-13.60,M,02,1002*42
$GPGGA,063833.00,3029.0957268,N,11433.8170005,E,4,28,0.6,37.493,M,-13.60,M,02,1002*4A
$GPGGA,063834.00,3029.0938511,N,11433.8172174,E,4,29,0.6,37.487,M,-13.60,M,02,1002*4C
$GPGGA,063835.00,3029.0919621,N,11433.8174258,E,4,29,0.6,37.470,M,-13.60,M,01,1002*4E
$GPGGA,063836.00,3029.0900617,N,11433.8176295,E,4,29,0.6,37.467,M,-13.60,M,02,1002*46
$GPGGA,063837.00,3029.0881569,N,11433.8178384,E,4,28,0.6,37.451,M,-13.60,M,02,1002*4E
$GPGGA,063838.00,3029.0862505,N,11433.8180475,E,4,29,0.6,37.447,M,-13.60,M,02,1002*4E
$GPGGA,063839.00,3029.0843304,N,11433.8182622,E,4,30,0.6,37.446,M,-13.60,M,03,1002*41
$GPGGA,063840.00,3029.0823299,N,11433.8184903,E,4,29,0.6,37.428,M,-13.60,M,02,1002*47
$GPGGA,063841.00,3029.0801398,N,11433.8187449,E,4,29,0.6,37.417,M,-13.60,M,02,1002*4A
$GPGGA,063842.00,3029.0778858,N,11433.8190190,E,4,29,0.5,37.391,M,-13.60,M,02,1002*42
$GPGGA,063843.00,3029.0756563,N,11433.8192973,E,4,28,0.6,37.296,M,-13.60,M,02,1002*49
$GPGGA,063844.00,3029.0734224,N,11433.8195784,E,4,30,0.5,37.280,M,-13.60,M,02,1002*42
$GPGGA,063845.00,3029.0711093,N,11433.8198834,E,4,30,0.5,37.267,M,-13.60,M,02,1002*4A
$GPGGA,063846.00,3029.0686632,N,11433.8202125,E,4,30,0.5,37.246,M,-13.60,M,02,1002*41
$GPGGA,063847.00,3029.0660995,N,11433.8205688,E,4,30,0.5,37.248,M,-13.60,M,02,1002*43
$GPGGA,063848.00,3029.0635367,N,11433.8209348,E,4,30,0.5,37.247,M,-13.60,M,02,1002*41
$GPGGA,063849.00,3029.0609803,N,11433.8213051,E,4,30,0.5,37.235,M,-13.60,M,02,1002*43
$GPGGA,063850.00,3029.0583199,N,11433.8216853,E,4,30,0.5,37.227,M,-13.60,M,02,1002*4C
$GPGGA,063851.00,3029.0555174,N,11433.8220901,E,4,30,0.5,37.236,M,-13.60,M,02,1002*46
$GPGGA,063852.00,3029.0525724,N,11433.8225132,E,4,31,0.5,37.216,M,-13.60,M,02,1002*4F
$GPGGA,063853.00,3029.0495462,N,11433.8229461,E,4,31,0.5,37.187,M,-13.60,M,03,1002*40
$GPGGA,063854.00,3029.0465529,N,11433.8233682,E,4,31,0.5,37.178,M,-13.60,M,02,1002*43
$GPGGA,063855.00,3029.0436189,N,11433.8237793,E,4,31,0.5,37.175,M,-13.60,M,03,1002*43
$GPGGA,063856.00,3029.0407405,N,11433.8241589,E,4,31,0.5,37.188,M,-13.60,M,03,1002*49
$GPGGA,063857.00,3029.0378613,N,11433.8245267,E,4,30,0.5,37.160,M,-13.60,M,03,1002*46
$GPGGA,063858.00,3029.0349627,N,11433.8248800,E,4,31,0.5,37.151,M,-13.60,M,03,1002*49
$GPGGA,063859.00,3029.0322306,N,11433.8251849,E,4,31,0.5,37.147,M,-13.60,M,03,1002*41
$GPGGA,063900.00,3029.0296552,N,11433.8254599,E,4,31,0.5,37.139,M,-13.60,M,04,1002*4E
$GPGGA,063901.00,3029.0271299,N,11433.8257070,E,4,30,0.5,37.143,M,-13.60,M,02,1002*4D
$GPGGA,063902.00,3029.0246291,N,11433.8259464,E,4,29,0.5,37.153,M,-13.60,M,02,1002*44
$GPGGA,063903.00,3029.0222583,N,11433.8261724,E,4,30,0.5,37.143,M,-13.60,M,02,1002*46
$GPGGA,063904.00,3029.0201710,N,11433.8263813,E,4,30,0.5,37.152,M,-13.60,M,03,1002*40
$GPGGA,063905.00,3029.0182080,N,11433.8265808,E,4,31,0.5,37.110,M,-13.60,M,02,1002*4D
$GPGGA,063906.00,3029.0161896,N,11433.8267825,E,4,31,0.5,37.123,M,-13.60,M,02,1002*41
$GPGGA,063907.00,3029.0140208,N,11433.8270043,E,4,30,0.5,37.136,M,-13.60,M,02,1002*45
$GPGGA,063908.00,3029.0118754,N,11433.8272055,E,4,30,0.5,37.158,M,-13.60,M,02,1002*46
$GPGGA,063909.00,3029.0098450,N,11433.8273959,E,4,30,0.5,37.161,M,-13.60,M,02,1002*47
$GPGGA,063910.00,3029.0079163,N,11433.8275766,E,4,30,0.5,37.166,M,-13.60,M,02,1002*46
$GPGGA,063911.00,3029.0060835,N,11433.8277398,E,4,30,0.5,37.171,M,-13.60,M,02,1002*44
$GPGGA,063912.00,3029.0043095,N,11433.8278982,E,4,30,0.5,37.161,M,-13.60,M,02,1002*4B
$GPGGA,063913.00,3029.0023851,N,11433.8280639,E,4,30,0.5,37.181,M,-13.60,M,02,1002*4A
$GPGGA,063914.00,3029.0002052,N,11433.8282502,E,4,30,0.5,37.195,M,-13.60,M,02,1002*49
$GPGGA,063915.00,3028.9979365,N,11433.8284215,E,4,30,0.5,37.206,M,-13.60,M,03,1002*4D
$GPGGA,063916.00,3028.9959334,N,11433.8285658,E,4,30,0.5,37.202,M,-13.60,M,02,1002*41
$GPGGA,063917.00,3028.9941759,N,11433.8286479,E,4,31,0.5,37.201,M,-13.60,M,02,1002*46
$GPGGA,063918.00,3028.9925284,N,11433.8284918,E,4,31,0.5,37.197,M,-13.60,M,02,1002*4A
$GPGGA,063919.00,3028.9908509,N,11433.8280199,E,4,31,0.5,37.186,M,-13.60,M,02,1002*43
$GPGGA,063920.00,3028.9891568,N,11433.8272335,E,4,31,0.5,37.174,M,-13.60,M,02,1002*4B
$GPGGA,063921.00,3028.9877351,N,11433.8263315,E,4,31,0.5,37.146,M,-13.60,M,02,1002*4D
$GPGGA,063922.00,3028.9865512,N,11433.8253511,E,4,31,0.5,37.114,M,-13.60,M,02,1002*4A
$GPGGA,063923.00,3028.9855026,N,11433.8242182,E,4,31,0.5,37.078,M,-13.60,M,02,1002*4F
$GPGGA,063924.00,3028.9843936,N,11433.8227211,E,4,31,0.5,37.030,M,-13.60,M,02,1002*41
$GPGGA,063925.00,3028.9830019,N,11433.8206483,E,4,31,0.5,36.991,M,-13.60,M,03,1002*4C
$GPGGA,063926.00,3028.9816259,N,11433.8181227,E,4,31,0.5,36.964,M,-13.60,M,02,1002*42
$GPGGA,063927.00,3028.9805394,N,11433.8150687,E,4,31,0.5,36.925,M,-13.60,M,02,1002*46
$GPGGA,063928.00,3028.9799045,N,11433.8115465,E,4,30,0.5,36.877,M,-13.60,M,02,1002*44
$GPGGA,063929.00,3028.9796252,N,11433.8077363,E,4,29,0.5,36.818,M,-13.60,M,01,1002*48
$GPGGA,063930.00,3028.9795329,N,11433.8036919,E,4,30,0.5,36.747,M,-13.60,M,02,1002*42
$GPGGA,063931.00,3028.9795648,N,11433.7994347,E,4,31,0.5,36.672,M,-13.60,M,02,1002*48
$GPGGA,063932.00,3028.9796452,N,11433.7949741,E,4,31,0.5,36.588,M,-13.60,M,02,1002*45
$GPGGA,063933.00,3028.9797645,N,11433.7903170,E,4,30,0.5,36.492,M,-13.60,M,02,1002*40
$GPGGA,063934.00,3028.9799155,N,11433.7854830,E,4,31,0.5,36.401,M,-13.60,M,02,1002*4A
$GPGGA,063935.00,3028.9800922,N,11433.7805649,E,4,30,0.5,36.298,M,-13.60,M,03,1002*4E
$GPGGA,063936.00,3028.9802801,N,11433.7755899,E,4,29,0.5,36.169,M,-13.60,M,02,1002*42
$GPGGA,063937.00,3028.9804359,N,11433.7705241,E,4,30,0.5,36.071,M,-13.60,M,02,1002*49
$GPGGA,063938.00,3028.9805390,N,11433.7653557,E,4,29,0.5,35.956,M,-13.60,M,02,1002*47
$GPGGA,063939.00,3028.9805797,N,11433.7600921,E,4,30,0.5,35.851,M,-13.60,M,02,1002*40
$GPGGA,063940.00,3028.9805609,N,11433.7547672,E,4,27,0.6,35.735,M,-13.60,M,02,1002*49
$GPGGA,063941.00,3028.9805441,N,11433.7494442,E,4,26,0.6,35.634,M,-13.60,M,02,1002*49
$GPGGA,063942.00,3028.9805429,N,11433.7441383,E,4,27,0.5,35.527,M,-13.60,M,01,1002*46
$GPGGA,063943.00,3028.9805635,N,11433.7388521,E,4,26,0.6,35.430,M,-13.60,M,02,1002*42
$GPGGA,063944.00,3028.9806139,N,11433.7335870,E,4,27,0.6,35.319,M,-13.60,M,02,1002*4F
$GPGGA,063945.00,3028.9806935,N,11433.7283394,E,4,28,0.5,35.224,M,-13.60,M,02,1002*44
$GPGGA,063946.00,3028.9807877,N,11433.7231183,E,4,28,0.6,35.118,M,-13.60,M,03,1002*42
$GPGGA,063947.00,3028.9808842,N,11433.7177907,E,4,27,0.6,35.012,M,-13.60,M,02,1002*4A
$GPGGA,063948.00,3028.9809602,N,11433.7121992,E,4,28,0.5,34.917,M,-13.60,M,03,1002*41
$GPGGA,063949.00,3028.9810153,N,11433.7063493,E,4,29,0.5,34.795,M,-13.60,M,02,1002*44
$GPGGA,063950.00,3028.9810530,N,11433.7003479,E,4,29,0.5,34.697,M,-13.60,M,02,1002*4C
$GPGGA,063951.00,3028.9810784,N,11433.6942927,E,4,30,0.5,34.603,M,-13.60,M,02,1002*4E
$GPGGA,063952.00,3028.9810834,N,11433.6881218,E,4,29,0.5,34.519,M,-13.60,M,02,1002*40
$GPGGA,063953.00,3028.9810775,N,11433.6817716,E,4,29,0.5,34.450,M,-13.60,M,02,1002*43
$GPGGA,063954.00,3028.9810773,N,11433.6752344,E,4,30,0.5,34.376,M,-13.60,M,02,1002*44
$GPGGA,063955.00,3028.9811493,N,11433.6686254,E,4,30,0.5,34.338,M,-13.60,M,02,1002*4B
$GPGGA,063956.00,3028.9812800,N,11433.6620799,E,4,29,0.5,34.327,M,-13.60,M,02,1002*43
$GPGGA,063957.00,3028.9813209,N,11433.6554835,E,4,30,0.5,34.282,M,-13.60,M,02,1002*4F
$GPGGA,063958.00,3028.9813261,N,11433.6489628,E,4,31,0.5,34.249,M,-13.60,M,03,1002*4A
$GPGGA,063959.00,3028.9813523,N,11433.6426055,E,4,31,0.5,34.180,M,-13.60,M,02,1002*44
$GPGGA,064000.00,3028.9814030,N,11433.6363411,E,4,31,0.5,34.156,M,-13.60,M,02,1002*4F
$GPGGA,064001.00,3028.9814549,N,11433.6301457,E,4,30,0.5,34.140,M,-13.60,M,02,1002*45
$GPGGA,064002.00,3028.9815097,N,11433.6240155,E,4,31,0.5,34.121,M,-13.60,M,02,1002*44
$GPGGA,064003.00,3028.9815512,N,11433.6179440,E,4,30,0.5,34.100,M,-13.60,M,02,1002*47
$GPGGA,064004.00,3028.9815830,N,11433.6119088,E,4,29,0.5,34.049,M,-13.60,M,02,1002*4F
$GPGGA,064005.00,3028.9816020,N,11433.6059186,E,4,29,0.5,34.009,M,-13.60,M,01,1002*49
$GPGGA,064006.00,3028.9816264,N,11433.5999908,E,4,28,0.5,33.971,M,-13.60,M,02,1002*43
$GPGGA,064007.00,3028.9816759,N,11433.5941459,E,4,29,0.5,33.920,M,-13.60,M,02,1002*40
$GPGGA,064008.00,3028.9819040,N,11433.5883792,E,4,29,0.5,33.907,M,-13.60,M,02,1002*41
$GPGGA,064009.00,3028.9822444,N,11433.5826710,E,4,30,0.5,33.859,M,-13.60,M,03,1002*4E
$GPGGA,064010.00,3028.9825910,N,11433.5771206,E,4,30,0.5,33.772,M,-13.60,M,02,1002*45
$GPGGA,064011.00,3028.9827929,N,11433.5717949,E,4,30,0.5,33.769,M,-13.60,M,02,1002*46
$GPGGA,064012.00,3028.9828217,N,11433.5666196,E,4,31,0.5,33.769,M,-13.60,M,02,1002*40
$GPGGA,064013.00,3028.9827936,N,11433.5614582,E,4,31,0.5,33.748,M,-13.60,M,02,1002*41
$GPGGA,064014.00,3028.9827606,N,11433.5562835,E,4,31,0.5,33.706,M,-13.60,M,02,1002*43
$GPGGA,064015.00,3028.9827019,N,11433.5509633,E,4,31,0.5,33.687,M,-13.60,M,02,1002*47
$GPGGA,064016.00,3028.9826297,N,11433.5454724,E,4,31,0.5,33.673,M,-13.60,M,02,1002*44
$GPGGA,064017.00,3028.9825575,N,11433.5398524,E,4,31,0.5,33.652,M,-13.60,M,02,1002*4B
$GPGGA,064018.00,3028.9824781,N,11433.5340849,E,4,31,0.5,33.643,M,-13.60,M,02,1002*4F
$GPGGA,064019.00,3028.9823841,N,11433.5280477,E,4,30,0.5,33.551,M,-13.60,M,02,1002*47
$GPGGA,064020.00,3028.9822681,N,11433.5217359,E,4,30,0.5,33.517,M,-13.60,M,02,1002*49
$GPGGA,064021.00,3028.9821526,N,11433.5151951,E,4,30,0.5,33.556,M,-13.60,M,03,1002*42
$GPGGA,064022.00,3028.9820786,N,11433.5084952,E,4,31,0.5,33.607,M,-13.60,M,04,1002*43
$GPGGA,064023.00,3028.9820794,N,11433.5016394,E,4,31,0.5,33.668,M,-13.60,M,02,1002*45
$GPGGA,064024.00,3028.9821687,N,11433.4945890,E,4,31,0.5,33.814,M,-13.60,M,02,1002*44
$GPGGA,064025.00,3028.9823327,N,11433.4873218,E,4,31,0.5,34.053,M,-13.60,M,02,1002*4A
$GPGGA,064026.00,3028.9825403,N,11433.4799344,E,4,31,0.5,34.270,M,-13.60,M,01,1002*4D
$GPGGA,064027.00,3028.9826802,N,11433.4724882,E,4,31,0.5,34.527,M,-13.60,M,02,1002*43
$GPGGA,064028.00,3028.9827240,N,11433.4649936,E,4,31,0.5,34.827,M,-13.60,M,02,1002*48
$GPGGA,064029.00,3028.9826967,N,11433.4574601,E,4,31,0.5,35.111,M,-13.60,M,02,1002*4D
$GPGGA,064030.00,3028.9826041,N,11433.4498633,E,4,31,0.5,35.424,M,-13.60,M,02,1002*49
$GPGGA,064031.00,3028.9824530,N,11433.4421764,E,4,31,0.5,35.717,M,-13.60,M,02,1002*4B
$GPGGA,064032.00,3028.9822644,N,11433.4343912,E,4,31,0.5,35.979,M,-13.60,M,02,1002*44
$GPGGA,064033.00,3028.9821020,N,11433.4265215,E,4,31,0.5,36.290,M,-13.60,M,02,1002*44
$GPGGA,064034.00,3028.9819692,N,11433.4185700,E,4,31,0.5,36.625,M,-13.60,M,02,1002*41
$GPGGA,064035.00,3028.9818835,N,11433.4105305,E,4,31,0.5,36.940,M,-13.60,M,02,1002*47
$GPGGA,064036.00,3028.9818724,N,11433.4024130,E,4,31,0.5,37.252,M,-13.60,M,02,1002*44
$GPGGA,064037.00,3028.9818826,N,11433.3942055,E,4,31,0.5,37.577,M,-13.60,M,02,1002*44
$GPGGA,064038.00,3028.9819291,N,11433.3859202,E,4,31,0.5,37.902,M,-13.60,M,02,1002*49
$GPGGA,064039.00,3028.9820050,N,11433.3775971,E,4,31,0.5,38.201,M,-13.60,M,02,1002*44
$GPGGA,064040.00,3028.9820664,N,11433.3692912,E,4,31,0.5,38.533,M,-13.60,M,03,1002*41
$GPGGA,064041.00,3028.9821039,N,11433.3611191,E,4,31,0.5,38.835,M,-13.60,M,02,1002*4D
$GPGGA,064042.00,3028.9821299,N,11433.3531565,E,4,31,0.5,39.127,M,-13.60,M,02,1002*43
$GPGGA,064043.00,3028.9821641,N,11433.3453193,E,4,31,0.5,39.443,M,-13.60,M,02,1002*4C
$GPGGA,064044.00,3028.9822257,N,11433.3374446,E,4,31,0.5,39.741,M,-13.60,M,02,1002*45
$GPGGA,064045.00,3028.9823050,N,11433.3294678,E,4,31,0.5,40.064,M,-13.60,M,02,1002*4E
$GPGGA,064046.00,3028.9823533,N,11433.3213993,E,4,31,0.5,40.376,M,-13.60,M,02,1002*48
$GPGGA,064047.00,3028.9823511,N,11433.3132744,E,4,31,0.5,40.684,M,-13.60,M,02,1002*45
$GPGGA,064048.00,3028.9823352,N,11433.3051344,E,4,31,0.5,41.023,M,-13.60,M,02,1002*41
$GPGGA,064049.00,3028.9822913,N,11433.2968892,E,4,31,0.5,41.346,M,-13.60,M,02,1002*4C
$GPGGA,064050.00,3028.9822487,N,11433.2885491,E,4,31,0.5,41.661,M,-13.60,M,02,1002*49
$GPGGA,064051.00,3028.9822062,N,11433.2802524,E,4,31,0.5,41.966,M,-13.60,M,02,1002*4F
$GPGGA,064052.00,3028.9822214,N,11433.2719232,E,4,31,0.5,42.318,M,-13.60,M,02,1002*4A
$GPGGA,064053.00,3028.9822988,N,11433.2635794,E,4,31,0.5,42.652,M,-13.60,M,02,1002*48
$GPGGA,064054.00,3028.9823968,N,11433.2553568,E,4,31,0.5,42.946,M,-13.60,M,02,1002*48
$GPGGA,064055.00,3028.9824567,N,11433.2471706,E,4,31,0.5,43.215,M,-13.60,M,02,1002*4A
$GPGGA,064056.00,3028.9825128,N,11433.2390331,E,4,31,0.5,43.421,M,-13.60,M,02,1002*4E
$GPGGA,064057.00,3028.9825759,N,11433.2309148,E,4,31,0.5,43.551,M,-13.60,M,02,1002*45
$GPGGA,064058.00,3028.9826494,N,11433.2227018,E,4,31,0.5,43.613,M,-13.60,M,02,1002*47
$GPGGA,064059.00,3028.9827135,N,11433.2142944,E,4,31,0.5,43.596,M,-13.60,M,02,1002*47
$GPGGA,064100.00,3028.9827561,N,11433.2057555,E,4,30,0.5,43.514,M,-13.60,M,02,1002*4D
$GPGGA,064101.00,3028.9827924,N,11433.1971572,E,4,29,0.5,43.367,M,-13.60,M,02,1002*40
$GPGGA,064102.00,3028.9828409,N,11433.1884700,E,4,24,0.6,43.086,M,-13.60,M,02,1002*40
$GPGGA,064103.00,3028.9828708,N,11433.1796523,E,4,14,0.7,42.751,M,-13.60,M,02,1002*42
$GPGGA,064104.00,3028.9829233,N,11433.1706730,E,4,22,0.6,42.280,M,-13.60,M,03,1002*4C
$GPGGA,064105.00,3028.9829580,N,11433.1616212,E,1,22,0.6,41.945,M,-13.60,M,03,1002*43
$GPGGA,064106.00,3028.9829632,N,11433.1526300,E,4,21,0.7,41.520,M,-13.60,M,02,1002*41
$GPGGA,064107.00,3028.9829747,N,11433.1436854,E,4,15,0.8,41.042,M,-13.60,M,02,1002*40
$GPGGA,064108.00,3028.9829865,N,11433.1348106,E,4,15,0.6,40.622,M,-13.60,M,02,1002*4F
$GPGGA,064109.00,3028.9830114,N,11433.1260029,E,4,21,0.6,40.233,M,-13.60,M,02,1002*4D
$GPGGA,064110.00,3028.9830432,N,11433.1172556,E,4,16,0.6,39.838,M,-13.60,M,01,1002*41
$GPGGA,064111.00,3028.9830637,N,11433.1085707,E,4,12,0.7,39.415,M,-13.60,M,02,1002*4D
$GPGGA,064112.00,3028.9830878,N,11433.0999336,E,4,18,0.5,38.937,M,-13.60,M,03,1002*4D
$GPGGA,064113.00,3028.9831287,N,11433.0913222,E,4,27,0.5,38.466,M,-13.60,M,04,1002*43
$GPGGA,064114.00,3028.9832020,N,11433.0827376,E,4,30,0.5,38.006,M,-13.60,M,05,1002*4B
$GPGGA,064115.00,3028.9832904,N,11433.0741682,E,4,30,0.5,37.525,M,-13.60,M,06,1002*4C
$GPGGA,064116.00,3028.9833799,N,11433.0656268,E,4,30,0.5,37.092,M,-13.60,M,02,1002*4E
$GPGGA,064117.00,3028.9834679,N,11433.0570938,E,4,30,0.5,36.547,M,-13.60,M,02,1002*42
$GPGGA,064118.00,3028.9835640,N,11433.0485820,E,4,30,0.5,36.165,M,-13.60,M,02,1002*41
$GPGGA,064119.00,3028.9836134,N,11433.0400326,E,4,30,0.5,35.594,M,-13.60,M,03,1002*4F
$GPGGA,064120.00,3028.9836581,N,11433.0314936,E,4,30,0.5,35.060,M,-13.60,M,02,1002*49
$GPGGA,064121.00,3028.9837079,N,11433.0229562,E,4,30,0.5,34.520,M,-13.60,M,02,1002*49
$GPGGA,064122.00,3028.9837707,N,11433.0144094,E,4,30,0.5,33.981,M,-13.60,M,02,1002*40
$GPGGA,064123.00,3028.9838422,N,11433.0058607,E,4,30,0.5,33.411,M,-13.60,M,02,1002*4E
$GPGGA,064124.00,3028.9839112,N,11432.9973211,E,4,30,0.5,32.996,M,-13.60,M,02,1002*46
$GPGGA,064125.00,3028.9839705,N,11432.9888391,E,4,30,0.5,32.666,M,-13.60,M,02,1002*4B
$GPGGA,064126.00,3028.9840267,N,11432.9804440,E,4,30,0.5,32.428,M,-13.60,M,02,1002*40
$GPGGA,064127.00,3028.9840816,N,11432.9721825,E,4,29,0.5,32.270,M,-13.60,M,03,1002*48
$GPGGA,064128.00,3028.9841292,N,11432.9640954,E,4,29,0.5,32.177,M,-13.60,M,02,1002*44
$GPGGA,064129.00,3028.9841699,N,11432.9562129,E,4,29,0.5,32.213,M,-13.60,M,02,1002*4A
$GPGGA,064130.00,3028.9842191,N,11432.9485966,E,4,29,0.5,32.285,M,-13.60,M,02,1002*4A
$GPGGA,064131.00,3028.9842542,N,11432.9412289,E,4,29,0.5,32.345,M,-13.60,M,02,1002*48
$GPGGA,064132.00,3028.9842620,N,11432.9341220,E,4,29,0.5,32.427,M,-13.60,M,02,1002*4D
$GPGGA,064133.00,3028.9842472,N,11432.9272719,E,4,29,0.5,32.442,M,-13.60,M,03,1002*45
$GPGGA,064134.00,3028.9842308,N,11432.9206583,E,4,29,0.5,32.479,M,-13.60,M,02,1002*43
$GPGGA,064135.00,3028.9842159,N,11432.9140576,E,4,29,0.5,32.518,M,-13.60,M,02,1002*49
$GPGGA,064136.00,3028.9841945,N,11432.9072511,E,4,29,0.5,32.561,M,-13.60,M,02,1002*43
$GPGGA,064137.00,3028.9841605,N,11432.9002602,E,4,29,0.5,32.601,M,-13.60,M,02,1002*4A
$GPGGA,064138.00,3028.9841261,N,11432.8932630,E,4,29,0.5,32.640,M,-13.60,M,02,1002*4C
$GPGGA,064139.00,3028.9841208,N,11432.8863033,E,4,29,0.5,32.683,M,-13.60,M,02,1002*4D
$GPGGA,064140.00,3028.9841588,N,11432.8791704,E,4,29,0.5,32.728,M,-13.60,M,02,1002*4D
$GPGGA,064141.00,3028.9841994,N,11432.8718607,E,4,29,0.5,32.762,M,-13.60,M,02,1002*40
$GPGGA,064142.00,3028.9841746,N,11432.8645656,E,4,29,0.5,32.781,M,-13.60,M,02,1002*42
$GPGGA,064143.00,3028.9840531,N,11432.8572683,E,4,29,0.5,32.726,M,-13.60,M,02,1002*42
$GPGGA,064144.00,3028.9840909,N,11432.8497337,E,4,29,0.5,32.618,M,-13.60,M,02,1002*4E
$GPGGA,064145.00,3028.9841397,N,11432.8419180,E,4,29,0.5,32.498,M,-13.60,M,03,1002*40
$GPGGA,064146.00,3028.9841944,N,11432.8339684,E,4,29,0.5,32.353,M,-13.60,M,02,1002*40
$GPGGA,064147.00,3028.9842709,N,11432.8259918,E,4,30,0.5,32.213,M,-13.60,M,02,1002*45
$GPGGA,064148.00,3028.9843544,N,11432.8179092,E,4,28,0.5,32.102,M,-13.60,M,02,1002*40
$GPGGA,064149.00,3028.9844316,N,11432.8097505,E,4,28,0.6,31.972,M,-13.60,M,02,1002*42
$GPGGA,064150.00,3028.9845041,N,11432.8017210,E,4,29,0.5,31.870,M,-13.60,M,02,1002*40
$GPGGA,064151.00,3028.9845734,N,11432.7938607,E,4,30,0.5,31.759,M,-13.60,M,02,1002*41
$GPGGA,064152.00,3028.9846231,N,11432.7861469,E,4,28,0.6,31.644,M,-13.60,M,02,1002*41
$GPGGA,064153.00,3028.9846621,N,11432.7784632,E,4,28,0.5,31.499,M,-13.60,M,02,1002*4C
$GPGGA,064154.00,3028.9847000,N,11432.7707680,E,4,28,0.5,31.416,M,-13.60,M,03,1002*4B
$GPGGA,064155.00,3028.9847846,N,11432.7630805,E,4,28,0.6,31.318,M,-13.60,M,02,1002*4D
$GPGGA,064156.00,3028.9849206,N,11432.7554203,E,4,28,0.6,31.280,M,-13.60,M,02,1002*43
$GPGGA,064157.00,3028.9850384,N,11432.7478284,E,4,28,0.6,31.267,M,-13.60,M,02,1002*48
$GPGGA,064158.00,3028.9850907,N,11432.7402860,E,4,28,0.6,31.287,M,-13.60,M,02,1002*45
$GPGGA,064159.00,3028.9851338,N,11432.7327618,E,4,28,0.6,31.378,M,-13.60,M,02,1002*43
$GPGGA,064200.00,3028.9852038,N,11432.7252208,E,4,28,0.6,31.475,M,-13.60,M,02,1002*40
$GPGGA,064201.00,3028.9852793,N,11432.7178200,E,4,25,0.6,31.570,M,-13.60,M,02,1002*4D
$GPGGA,064202.00,3028.9853552,N,11432.7106640,E,4,28,0.6,31.656,M,-13.60,M,02,1002*43
$GPGGA,064203.00,3028.9854407,N,11432.7035696,E,4,28,0.6,31.761,M,-13.60,M,03,1002*4A
$GPGGA,064204.00,3028.9855709,N,11432.6965548,E,4,27,0.6,31.850,M,-13.60,M,02,1002*4F
$GPGGA,064205.00,3028.9857299,N,11432.6898089,E,4,27,0.6,31.928,M,-13.60,M,02,1002*45
$GPGGA,064206.00,3028.9858877,N,11432.6833275,E,4,28,0.6,32.000,M,-13.60,M,02,1002*4C
$GPGGA,064207.00,3028.9860390,N,11432.6771412,E,4,27,0.6,32.090,M,-13.60,M,02,1002*4C
$GPGGA,064208.00,3028.9861690,N,11432.6712516,E,4,27,0.6,32.203,M,-13.60,M,02,1002*4F
$GPGGA,064209.00,3028.9862666,N,11432.6656651,E,4,28,0.6,32.268,M,-13.60,M,02,1002*47
$GPGGA,064210.00,3028.9863029,N,11432.6603885,E,4,28,0.6,32.348,M,-13.60,M,02,1002*47
$GPGGA,064211.00,3028.9863197,N,11432.6554129,E,4,28,0.6,32.392,M,-13.60,M,02,1002*4B
$GPGGA,064212.00,3028.9863140,N,11432.6507829,E,4,28,0.6,32.475,M,-13.60,M,02,1002*43
$GPGGA,064213.00,3028.9862960,N,11432.6464715,E,4,28,0.6,32.520,M,-13.60,M,02,1002*4C
$GPGGA,064214.00,3028.9862821,N,11432.6425014,E,4,28,0.6,32.535,M,-13.60,M,03,1002*49
$GPGGA,064215.00,3028.9862600,N,11432.6388907,E,4,28,0.6,32.547,M,-13.60,M,02,1002*4A
$GPGGA,064216.00,3028.9862543,N,11432.6354607,E,4,28,0.5,32.546,M,-13.60,M,02,1002*41
$GPGGA,064217.00,3028.9862415,N,11432.6319582,E,4,29,0.5,32.505,M,-13.60,M,02,1002*43
$GPGGA,064218.00,3028.9862393,N,11432.6283232,E,4,29,0.6,32.481,M,-13.60,M,02,1002*45
$GPGGA,064219.00,3028.9862480,N,11432.6245391,E,4,29,0.5,32.466,M,-13.60,M,02,1002*49
$GPGGA,064220.00,3028.9862626,N,11432.6205936,E,4,29,0.5,32.446,M,-13.60,M,02,1002*4C
$GPGGA,064221.00,3028.9862660,N,11432.6163912,E,4,30,0.5,32.418,M,-13.60,M,02,1002*49
$GPGGA,064222.00,3028.9862701,N,11432.6118017,E,4,29,0.5,32.372,M,-13.60,M,02,1002*4F
$GPGGA,064223.00,3028.9862498,N,11432.6068730,E,4,29,0.5,32.404,M,-13.60,M,02,1002*4F
$GPGGA,064224.00,3028.9862182,N,11432.6016972,E,4,30,0.5,32.417,M,-13.60,M,02,1002*4D
$GPGGA,064225.00,3028.9861821,N,11432.5962058,E,4,29,0.5,32.338,M,-13.60,M,02,1002*45
$GPGGA,064226.00,3028.9861288,N,11432.5903364,E,4,29,0.5,32.236,M,-13.60,M,02,1002*4B
$GPGGA,064227.00,3028.9860611,N,11432.5840979,E,4,29,0.5,32.161,M,-13.60,M,02,1002*4E
$GPGGA,064228.00,3028.9859732,N,11432.5775401,E,4,29,0.5,32.086,M,-13.60,M,02,1002*48
$GPGGA,064229.00,3028.9858914,N,11432.5706957,E,4,28,0.5,32.024,M,-13.60,M,03,1002*40
$GPGGA,064230.00,3028.9858658,N,11432.5635842,E,4,27,0.5,31.808,M,-13.60,M,02,1002*40
$GPGGA,064231.00,3028.9858539,N,11432.5561612,E,4,28,0.5,31.583,M,-13.60,M,02,1002*4D
$GPGGA,064232.00,3028.9858591,N,11432.5484336,E,4,27,0.5,31.296,M,-13.60,M,02,1002*49
$GPGGA,064233.00,3028.9858737,N,11432.5404023,E,4,28,0.6,30.994,M,-13.60,M,02,1002*4D
$GPGGA,064234.00,3028.9858850,N,11432.5320938,E,4,28,0.6,30.779,M,-13.60,M,02,1002*4B
$GPGGA,064235.00,3028.9858911,N,11432.5236102,E,4,28,0.6,30.544,M,-13.60,M,02,1002*45
$GPGGA,064236.00,3028.9859072,N,11432.5151814,E,4,27,0.6,30.358,M,-13.60,M,02,1002*43
$GPGGA,064237.00,3028.9859261,N,11432.5067475,E,4,25,0.6,30.187,M,-13.60,M,02,1002*4F
$GPGGA,064238.00,3028.9859313,N,11432.4982842,E,4,26,0.6,30.019,M,-13.60,M,03,1002*4B
$GPGGA,064239.00,3028.9859005,N,11432.4897561,E,4,26,0.6,29.828,M,-13.60,M,02,1002*44
$GPGGA,064240.00,3028.9858797,N,11432.4811870,E,4,27,0.6,29.646,M,-13.60,M,02,1002*43
$GPGGA,064241.00,3028.9858677,N,11432.4725923,E,4,28,0.5,29.456,M,-13.60,M,02,1002*4D
$GPGGA,064242.00,3028.9858546,N,11432.4641114,E,4,27,0.5,29.270,M,-13.60,M,02,1002*4D
$GPGGA,064243.00,3028.9858424,N,11432.4557823,E,4,27,0.5,29.100,M,-13.60,M,02,1002*44
$GPGGA,064244.00,3028.9858081,N,11432.4475744,E,4,25,0.6,28.919,M,-13.60,M,03,1002*46
$GPGGA,064245.00,3028.9857914,N,11432.4395063,E,4,27,0.6,28.732,M,-13.60,M,02,1002*42
$GPGGA,064246.00,3028.9858409,N,11432.4315745,E,4,27,0.6,28.519,M,-13.60,M,02,1002*4F
$GPGGA,064247.00,3028.9859562,N,11432.4238642,E,4,27,0.5,28.483,M,-13.60,M,02,1002*4A
$GPGGA,064248.00,3028.9861691,N,11432.4163594,E,4,29,0.5,28.526,M,-13.60,M,02,1002*44
$GPGGA,064249.00,3028.9863610,N,11432.4092137,E,4,29,0.5,28.594,M,-13.60,M,02,1002*45
$GPGGA,064250.00,3028.9865329,N,11432.4027442,E,4,30,0.5,28.721,M,-13.60,M,02,1002*49
$GPGGA,064251.00,3028.9866410,N,11432.3971713,E,4,30,0.5,28.871,M,-13.60,M,02,1002*46
$GPGGA,064252.00,3028.9867005,N,11432.3925688,E,4,30,0.5,28.998,M,-13.60,M,02,1002*40
$GPGGA,064253.00,3028.9867083,N,11432.3889610,E,4,30,0.5,29.102,M,-13.60,M,02,1002*43
$GPGGA,064254.00,3028.9866896,N,11432.3860934,E,4,30,0.5,29.179,M,-13.60,M,02,1002*4B
$GPGGA,064255.00,3028.9866628,N,11432.3836341,E,4,30,0.5,29.218,M,-13.60,M,02,1002*4E
