$GPGGA,053222.00,3028.0018101,N,11439.5851912,E,4,22,0.8,21.52,M,-13.10,M,02,1008*70
$GPGGA,053223.00,3028.0017939,N,11439.5851941,E,4,24,0.8,21.53,M,-13.10,M,02,1008*76
$GPGGA,053224.00,3028.0017914,N,11439.5851920,E,4,24,0.8,21.54,M,-13.10,M,02,1008*76
$GPGGA,053225.00,3028.0018006,N,11439.5851892,E,4,24,0.8,21.55,M,-13.10,M,02,1008*76
$GPGGA,053226.00,3028.0019206,N,11439.5851348,E,4,24,0.8,21.55,M,-13.10,M,03,1008*76
$GPGGA,053227.00,3028.0022153,N,11439.5849277,E,4,24,0.8,21.54,M,-13.10,M,02,1008*76
$GPGGA,053228.00,3028.0025694,N,11439.5845375,E,4,24,0.8,21.55,M,-13.10,M,02,1008*70
$GPGGA,053229.00,3028.0028999,N,11439.5840149,E,4,24,0.8,21.58,M,-13.10,M,02,1008*76
$GPGGA,053230.00,3028.0032335,N,11439.5833428,E,4,23,0.8,21.57,M,-13.10,M,02,1008*78
$GPGGA,053231.00,3028.0034387,N,11439.5828950,E,4,24,0.8,21.58,M,-13.10,M,02,1008*7C
$GPGGA,053232.00,3028.0035230,N,11439.5827005,E,4,24,0.8,21.60,M,-13.10,M,02,1008*7B
$GPGGA,053233.00,3028.0036559,N,11439.5824178,E,4,24,0.8,21.62,M,-13.10,M,02,1008*79
$GPGGA,053234.00,3028.0039568,N,11439.5818934,E,4,24,0.7,21.64,M,-13.10,M,02,1008*79
$GPGGA,053235.00,3028.0044973,N,11439.5810701,E,4,25,0.7,21.64,M,-13.10,M,02,1008*74
$GPGGA,053236.00,3028.0054527,N,11439.5799969,E,4,26,0.7,21.67,M,-13.10,M,03,1008*77
$GPGGA,053237.00,3028.0068929,N,11439.5789153,E,4,26,0.7,21.71,M,-13.10,M,01,1008*72
$GPGGA,053238.00,3028.0088249,N,11439.5780690,E,4,26,0.7,21.72,M,-13.10,M,02,1008*7A
$GPGGA,053239.00,3028.0113285,N,11439.5772812,E,4,25,0.8,21.74,M,-13.10,M,02,1008*7F
$GPGGA,053240.00,3028.0143610,N,11439.5765547,E,4,25,0.8,21.76,M,-13.10,M,02,1008*75
$GPGGA,053241.00,3028.0177495,N,11439.5759426,E,4,24,0.8,21.77,M,-13.10,M,02,1008*78
$GPGGA,053242.00,3028.0213113,N,11439.5753247,E,4,23,0.9,21.78,M,-13.10,M,02,1008*79
$GPGGA,053243.00,3028.0250139,N,11439.5746107,E,4,20,1.1,21.78,M,-13.10,M,02,1008*71
$GPGGA,053244.00,3028.0327146,N,11439.5732229,E,4,20,1.0,21.92,M,-13.10,M,02,1008*71
$GPGGA,053245.00,3028.0365265,N,11439.5725151,E,4,21,0.8,22.04,M,-13.10,M,02,1008*74
$GPGGA,053246.00,3028.0408486,N,11439.5720590,E,4,22,0.7,22.22,M,-13.10,M,02,1008*77
$GPGGA,053247.00,3028.0449762,N,11439.5716312,E,4,24,0.7,21.78,M,-13.10,M,02,1008*75
$GPGGA,053248.00,3028.0489021,N,11439.5710647,E,4,24,0.7,21.78,M,-13.10,M,02,1008*79
$GPGGA,053249.00,3028.0527918,N,11439.5704750,E,4,24,0.7,21.79,M,-13.10,M,02,1008*76
$GPGGA,053250.00,3028.0565480,N,11439.5699304,E,4,23,0.8,21.78,M,-13.10,M,02,1008*7A
$GPGGA,053251.00,3028.0600844,N,11439.5693701,E,4,23,0.8,21.80,M,-13.10,M,02,1008*70
$GPGGA,053252.00,3028.0635395,N,11439.5687605,E,4,22,0.8,21.80,M,-13.10,M,02,1008*78
$GPGGA,053253.00,3028.0667977,N,11439.5680776,E,4,22,0.7,21.79,M,-13.10,M,03,1008*70
$GPGGA,053254.00,3028.0698862,N,11439.5673312,E,4,25,0.8,21.80,M,-13.10,M,02,1008*7B
$GPGGA,053255.00,3028.0730519,N,11439.5665184,E,4,26,0.8,21.82,M,-13.10,M,02,1008*7F
$GPGGA,053256.00,3028.0764634,N,11439.5656020,E,4,24,0.9,21.84,M,-13.10,M,02,1008*78
$GPGGA,053257.00,3028.0798573,N,11439.5646187,E,4,23,1.2,21.86,M,-13.10,M,02,1008*74
$GPGGA,053258.00,3028.0826986,N,11439.5637272,E,4,21,0.9,21.91,M,-13.10,M,02,1008*79
$GPGGA,053259.00,3028.0842867,N,11439.5631085,E,4,24,0.8,21.91,M,-13.10,M,02,1008*78
$GPGGA,053300.00,3028.0854945,N,11439.5626232,E,4,26,0.8,21.91,M,-13.10,M,02,1008*76
$GPGGA,053301.00,3028.0869891,N,11439.5620693,E,4,24,0.8,21.92,M,-13.10,M,02,1008*76
$GPGGA,053302.00,3028.0890815,N,11439.5614322,E,4,25,0.8,21.96,M,-13.10,M,02,1008*79
$GPGGA,053303.00,3028.0917322,N,11439.5608360,E,4,25,0.8,21.99,M,-13.10,M,02,1008*75
$GPGGA,053304.00,3028.0948541,N,11439.5603852,E,4,25,0.8,22.00,M,-13.10,M,03,1008*77
$GPGGA,053305.00,3028.0982344,N,11439.5600729,E,4,25,0.8,21.97,M,-13.10,M,02,1008*78
$GPGGA,053306.00,3028.1013790,N,11439.5597932,E,4,26,0.8,21.97,M,-13.10,M,01,1008*7F
$GPGGA,053307.00,3028.1040164,N,11439.5594280,E,4,26,0.8,21.97,M,-13.10,M,02,1008*70
$GPGGA,053308.00,3028.1059952,N,11439.5589344,E,4,26,0.8,21.99,M,-13.10,M,02,1008*7F
$GPGGA,053309.00,3028.1073951,N,11439.5583086,E,4,26,0.8,22.00,M,-13.10,M,02,1008*72
$GPGGA,053310.00,3028.1085915,N,11439.5573837,E,4,26,0.8,22.00,M,-13.10,M,02,1008*7F
$GPGGA,053311.00,3028.1093153,N,11439.5559626,E,4,25,0.8,21.99,M,-13.10,M,02,1008*7F
$GPGGA,053312.00,3028.1093237,N,11439.5542877,E,4,25,0.8,21.97,M,-13.10,M,02,1008*73
$GPGGA,053313.00,3028.1084711,N,11439.5526270,E,4,25,0.8,21.93,M,-13.10,M,02,1008*72
$GPGGA,053314.00,3028.1065236,N,11439.5515405,E,4,25,0.8,21.92,M,-13.10,M,03,1008*7B
$GPGGA,053315.00,3028.1038351,N,11439.5512196,E,4,26,0.8,21.88,M,-13.10,M,02,1008*7C
$GPGGA,053316.00,3028.1006408,N,11439.5515207,E,4,26,0.8,21.86,M,-13.10,M,02,1008*7B
$GPGGA,053317.00,3028.0969630,N,11439.5520805,E,4,27,0.8,21.88,M,-13.10,M,02,1008*7B
$GPGGA,053318.00,3028.0928089,N,11439.5527021,E,4,27,0.8,21.88,M,-13.10,M,02,1008*7F
$GPGGA,053319.00,3028.0882682,N,11439.5533917,E,4,26,0.8,21.86,M,-13.10,M,01,1008*70
$GPGGA,053320.00,3028.0833988,N,11439.5541272,E,4,25,0.8,21.86,M,-13.10,M,02,1008*74
$GPGGA,053321.00,3028.0783207,N,11439.5548623,E,4,24,0.8,21.86,M,-13.10,M,02,1008*7F
$GPGGA,053322.00,3028.0730785,N,11439.5556145,E,4,22,1.0,21.83,M,-13.10,M,02,1008*71
$GPGGA,053323.00,3028.0676040,N,11439.5563705,E,4,23,0.8,21.83,M,-13.10,M,02,1008*7B
$GPGGA,053324.00,3028.0619579,N,11439.5572029,E,4,26,0.8,21.82,M,-13.10,M,02,1008*7C
$GPGGA,053325.00,3028.0561506,N,11439.5580874,E,4,24,0.8,21.81,M,-13.10,M,01,1008*76
$GPGGA,053326.00,3028.0501401,N,11439.5590552,E,4,23,0.8,21.78,M,-13.10,M,02,1008*73
$GPGGA,053327.00,3028.0438970,N,11439.5601270,E,4,24,0.8,21.77,M,-13.10,M,02,1008*7A
$GPGGA,053328.00,3028.0373839,N,11439.5612827,E,4,24,0.8,21.77,M,-13.10,M,02,1008*78
$GPGGA,053329.00,3028.0306819,N,11439.5625032,E,4,24,0.8,21.74,M,-13.10,M,02,1008*7B
$GPGGA,053330.00,3028.0238581,N,11439.5637756,E,4,21,1.0,21.73,M,-13.10,M,01,1008*7B
$GPGGA,053331.00,3028.0168312,N,11439.5651141,E,4,21,0.9,21.75,M,-13.10,M,02,1008*7F
$GPGGA,053332.00,3028.0096246,N,11439.5664992,E,4,23,0.8,21.74,M,-13.10,M,02,1008*79
$GPGGA,053333.00,3028.0024044,N,11439.5678920,E,4,25,0.8,21.70,M,-13.10,M,01,1008*7D
$GPGGA,053334.00,3027.9951583,N,11439.5692916,E,4,26,0.8,21.70,M,-13.10,M,02,1008*70
$GPGGA,053335.00,3027.9879695,N,11439.5706832,E,4,23,0.8,21.67,M,-13.10,M,03,1008*71
$GPGGA,053336.00,3027.9809385,N,11439.5720037,E,4,22,0.8,21.73,M,-13.10,M,02,1008*73
$GPGGA,053337.00,3027.9739271,N,11439.5732652,E,4,24,0.8,21.69,M,-13.10,M,02,1008*71
$GPGGA,053338.00,3027.9668154,N,11439.5745022,E,4,24,0.7,21.62,M,-13.10,M,02,1008*7E
$GPGGA,053339.00,3027.9597313,N,11439.5757700,E,4,23,0.8,21.55,M,-13.10,M,02,1008*7C
$GPGGA,053340.00,3027.9527294,N,11439.5772112,E,4,22,0.9,21.58,M,-13.10,M,02,1008*7C
$GPGGA,053341.00,3027.9456291,N,11439.5787041,E,4,24,0.7,21.56,M,-13.10,M,02,1008*76
$GPGGA,053342.00,3027.9383456,N,11439.5801564,E,4,26,0.7,21.57,M,-13.10,M,01,1008*78
$GPGGA,053343.00,3027.9309027,N,11439.5816184,E,4,26,0.7,21.57,M,-13.10,M,02,1008*7D
$GPGGA,053344.00,3027.9234112,N,11439.5830998,E,4,26,0.6,21.54,M,-13.10,M,03,1008*73
$GPGGA,053345.00,3027.9158991,N,11439.5845367,E,4,26,0.6,21.52,M,-13.10,M,02,1008*7E
$GPGGA,053346.00,3027.9083228,N,11439.5859341,E,4,27,0.6,21.52,M,-13.10,M,02,1008*77
$GPGGA,053347.00,3027.9007422,N,11439.5872882,E,4,28,0.6,21.57,M,-13.10,M,02,1008*78
$GPGGA,053348.00,3027.8932639,N,11439.5886229,E,4,28,0.6,21.60,M,-13.10,M,02,1008*76
$GPGGA,053349.00,3027.8858176,N,11439.5899638,E,4,27,0.6,21.57,M,-13.10,M,02,1008*7F
$GPGGA,053350.00,3027.8782665,N,11439.5912975,E,4,29,0.6,21.60,M,-13.10,M,02,1008*76
$GPGGA,053351.00,3027.8705981,N,11439.5925703,E,4,28,0.6,21.63,M,-13.10,M,02,1008*7E
$GPGGA,053352.00,3027.8628460,N,11439.5937805,E,4,29,0.6,21.64,M,-13.10,M,03,1008*78
$GPGGA,053353.00,3027.8551767,N,11439.5949121,E,4,29,0.6,21.62,M,-13.10,M,02,1008*76
$GPGGA,053354.00,3027.8475514,N,11439.5960879,E,4,28,0.6,21.69,M,-13.10,M,02,1008*76
$GPGGA,053355.00,3027.8398950,N,11439.5972847,E,4,29,0.6,21.72,M,-13.10,M,02,1008*79
$GPGGA,053356.00,3027.8321536,N,11439.5984883,E,4,28,0.6,21.75,M,-13.10,M,02,1008*75
$GPGGA,053357.00,3027.8243406,N,11439.5997109,E,4,28,0.7,21.79,M,-13.10,M,02,1008*7C
$GPGGA,053358.00,3027.8164221,N,11439.6008898,E,4,27,0.8,21.81,M,-13.10,M,02,1008*7F
$GPGGA,053359.00,3027.8084320,N,11439.6021504,E,4,26,0.7,21.85,M,-13.10,M,03,1008*73
$GPGGA,053400.00,3027.8003668,N,11439.6034813,E,4,29,0.6,21.90,M,-13.10,M,02,1008*7D
$GPGGA,053401.00,3027.7922751,N,11439.6048383,E,4,29,0.7,21.91,M,-13.10,M,02,1008*75
$GPGGA,053402.00,3027.7841057,N,11439.6061208,E,4,29,0.6,21.93,M,-13.10,M,01,1008*78
$GPGGA,053403.00,3027.7758250,N,11439.6073212,E,4,29,0.6,21.96,M,-13.10,M,02,1008*7B
$GPGGA,053404.00,3027.7675163,N,11439.6084343,E,4,28,0.6,21.98,M,-13.10,M,02,1008*75
$GPGGA,053405.00,3027.7592256,N,11439.6095687,E,4,28,0.6,21.99,M,-13.10,M,02,1008*7C
$GPGGA,053406.00,3027.7508679,N,11439.6107779,E,4,28,0.6,22.02,M,-13.10,M,03,1008*7B
$GPGGA,053407.00,3027.7423852,N,11439.6120254,E,4,28,0.7,22.03,M,-13.10,M,02,1008*7F
$GPGGA,053408.00,3027.7337870,N,11439.6133134,E,4,27,0.7,22.06,M,-13.10,M,02,1008*72
$GPGGA,053409.00,3027.7251422,N,11439.6146113,E,4,27,0.7,22.05,M,-13.10,M,02,1008*7C
$GPGGA,053410.00,3027.7164812,N,11439.6158835,E,4,27,0.6,22.08,M,-13.10,M,02,1008*72
$GPGGA,053411.00,3027.7077234,N,11439.6171310,E,4,26,0.7,22.09,M,-13.10,M,02,1008*7A
$GPGGA,053412.00,3027.6988971,N,11439.6183824,E,4,23,0.8,22.05,M,-13.10,M,02,1008*7C
$GPGGA,053413.00,3027.6900519,N,11439.6196264,E,4,23,0.7,22.05,M,-13.10,M,03,1008*70
$GPGGA,053414.00,3027.6811979,N,11439.6208873,E,4,24,0.7,22.09,M,-13.10,M,02,1008*7B
$GPGGA,053415.00,3027.6723918,N,11439.6221958,E,4,27,0.7,22.12,M,-13.10,M,02,1008*70
$GPGGA,053416.00,3027.6635279,N,11439.6235545,E,4,28,0.7,22.11,M,-13.10,M,02,1008*7B
$GPGGA,053417.00,3027.6546103,N,11439.6249419,E,4,25,0.6,22.12,M,-13.10,M,01,1008*79
$GPGGA,053418.00,3027.6455762,N,11439.6263534,E,4,27,0.6,22.10,M,-13.10,M,02,1008*7A
$GPGGA,053419.00,3027.6364646,N,11439.6277649,E,4,28,0.7,22.12,M,-13.10,M,03,1008*7C
$GPGGA,053420.00,3027.6273734,N,11439.6291253,E,4,28,0.6,22.14,M,-13.10,M,02,1008*76
$GPGGA,053421.00,3027.6182629,N,11439.6304387,E,4,28,0.6,22.14,M,-13.10,M,02,1008*71
$GPGGA,053422.00,3027.6090834,N,11439.6317242,E,4,28,0.7,22.12,M,-13.10,M,02,1008*75
$GPGGA,053423.00,3027.5999077,N,11439.6329938,E,4,26,0.7,22.10,M,-13.10,M,02,1008*7F
$GPGGA,053424.00,3027.5907485,N,11439.6342338,E,4,25,0.7,22.07,M,-13.10,M,02,1008*7F
$GPGGA,053425.00,3027.5815766,N,11439.6355186,E,4,25,0.7,22.10,M,-13.10,M,01,1008*7C
$GPGGA,053426.00,3027.5723288,N,11439.6368551,E,4,26,0.8,22.16,M,-13.10,M,02,1008*70
$GPGGA,053427.00,3027.5629947,N,11439.6381960,E,4,25,0.6,22.17,M,-13.10,M,02,1008*7B
$GPGGA,053428.00,3027.5537338,N,11439.6393982,E,4,26,0.6,22.27,M,-13.10,M,02,1008*77
$GPGGA,053429.00,3027.5445878,N,11439.6403753,E,4,26,0.7,22.33,M,-13.10,M,02,1008*7B
$GPGGA,053430.00,3027.5355678,N,11439.6412007,E,4,30,0.6,22.43,M,-13.10,M,02,1008*73
$GPGGA,053431.00,3027.5266594,N,11439.6418412,E,4,30,0.6,22.53,M,-13.10,M,02,1008*7A
$GPGGA,053432.00,3027.5178341,N,11439.6421758,E,4,30,0.6,22.66,M,-13.10,M,02,1008*7B
$GPGGA,053433.00,3027.5091440,N,11439.6422450,E,4,30,0.6,22.91,M,-13.10,M,02,1008*74
$GPGGA,053434.00,3027.5006411,N,11439.6419197,E,4,30,0.6,23.17,M,-13.10,M,02,1008*7A
$GPGGA,053435.00,3027.4923698,N,11439.6410591,E,4,30,0.6,23.39,M,-13.10,M,02,1008*77
$GPGGA,053436.00,3027.4843302,N,11439.6396275,E,4,29,0.6,23.51,M,-13.10,M,02,1008*7A
$GPGGA,053437.00,3027.4766106,N,11439.6375821,E,4,27,0.6,23.74,M,-13.10,M,02,1008*74
$GPGGA,053438.00,3027.4691638,N,11439.6350593,E,4,27,0.6,23.98,M,-13.10,M,03,1008*77
$GPGGA,053439.00,3027.4620365,N,11439.6320853,E,4,27,0.6,24.18,M,-13.10,M,02,1008*76
$GPGGA,053440.00,3027.4552570,N,11439.6288758,E,4,28,0.6,24.40,M,-13.10,M,02,1008*7E
$GPGGA,053441.00,3027.4490218,N,11439.6253839,E,4,26,0.6,24.66,M,-13.10,M,02,1008*7B
$GPGGA,053442.00,3027.4432392,N,11439.6216907,E,4,27,0.6,24.84,M,-13.10,M,02,1008*7A
$GPGGA,053443.00,3027.4378869,N,11439.6179998,E,4,28,0.6,24.99,M,-13.10,M,02,1008*7D
$GPGGA,053444.00,3027.4330502,N,11439.6144479,E,4,28,0.6,25.12,M,-13.10,M,02,1008*7C
$GPGGA,053445.00,3027.4287233,N,11439.6110160,E,4,29,0.6,25.26,M,-13.10,M,02,1008*76
$GPGGA,053446.00,3027.4249191,N,11439.6077373,E,4,28,0.6,25.35,M,-13.10,M,02,1008*74
$GPGGA,053447.00,3027.4215573,N,11439.6046371,E,4,28,0.6,25.46,M,-13.10,M,01,1008*7A
$GPGGA,053448.00,3027.4186663,N,11439.6018391,E,4,28,0.6,25.55,M,-13.10,M,02,1008*74
$GPGGA,053449.00,3027.4163279,N,11439.5996053,E,4,29,0.6,25.63,M,-13.10,M,02,1008*77
$GPGGA,053450.00,3027.4146228,N,11439.5983017,E,4,29,0.6,25.66,M,-13.10,M,02,1008*79
$GPGGA,053451.00,3027.4133346,N,11439.5979046,E,4,27,0.6,25.78,M,-13.10,M,02,1008*7E
$GPGGA,053452.00,3027.4121844,N,11439.5982250,E,4,27,0.6,25.91,M,-13.10,M,02,1008*7E
$GPGGA,053453.00,3027.4112852,N,11439.5992688,E,4,29,0.6,26.00,M,-13.10,M,02,1008*78
$GPGGA,053454.00,3027.4110069,N,11439.6009943,E,4,28,0.6,26.07,M,-13.10,M,02,1008*7B
$GPGGA,053455.00,3027.4118192,N,11439.6031465,E,4,28,0.6,26.09,M,-13.10,M,02,1008*7F
$GPGGA,053456.00,3027.4136175,N,11439.6054405,E,4,28,0.6,26.06,M,-13.10,M,02,1008*7C
$GPGGA,053457.00,3027.4160247,N,11439.6077939,E,4,27,0.6,25.96,M,-13.10,M,02,1008*75
$GPGGA,053458.00,3027.4183587,N,11439.6101321,E,4,27,0.6,25.88,M,-13.10,M,03,1008*71
$GPGGA,053459.00,3027.4204175,N,11439.6125227,E,4,27,0.6,25.84,M,-13.10,M,02,1008*70
$GPGGA,053500.00,3027.4220506,N,11439.6146321,E,4,27,0.6,25.87,M,-13.10,M,02,1008*7C
$GPGGA,053501.00,3027.4231567,N,11439.6160422,E,4,27,0.6,25.86,M,-13.10,M,02,1008*7A
$GPGGA,053502.00,3027.4241054,N,11439.6170195,E,4,24,0.7,25.86,M,-13.10,M,02,1008*7E
$GPGGA,053503.00,3027.4248163,N,11439.6176585,E,4,24,0.7,25.83,M,-13.10,M,02,1008*74
$GPGGA,053504.00,3027.4251142,N,11439.6179077,E,4,25,0.6,25.83,M,-13.10,M,02,1008*75
$GPGGA,053505.00,3027.4251168,N,11439.6179115,E,4,26,0.6,25.82,M,-13.10,M,01,1008*75
$GPGGA,053506.00,3027.4251164,N,11439.6179117,E,4,26,0.6,25.81,M,-13.10,M,02,1008*76
$GPGGA,053507.00,3027.4251162,N,11439.6179107,E,4,26,0.6,25.82,M,-13.10,M,02,1008*74
$GPGGA,053508.00,3027.4251158,N,11439.6179114,E,4,27,0.6,25.82,M,-13.10,M,03,1008*7B
$GPGGA,053509.00,3027.4251152,N,11439.6179106,E,4,27,0.6,25.82,M,-13.10,M,02,1008*7B
$GPGGA,053510.00,3027.4251158,N,11439.6179099,E,4,27,0.6,25.83,M,-13.10,M,02,1008*72
$GPGGA,053511.00,3027.4251173,N,11439.6179102,E,4,27,0.6,25.83,M,-13.10,M,02,1008*73
$GPGGA,053512.00,3027.4251171,N,11439.6179105,E,4,27,0.6,25.83,M,-13.10,M,02,1008*70
$GPGGA,053513.00,3027.4251168,N,11439.6179099,E,4,27,0.6,25.83,M,-13.10,M,02,1008*71
$GPGGA,053514.00,3027.4251177,N,11439.6179101,E,4,27,0.6,25.83,M,-13.10,M,02,1008*76
$GPGGA,053515.00,3027.4251173,N,11439.6179085,E,4,27,0.6,25.83,M,-13.10,M,02,1008*77
$GPGGA,053516.00,3027.4251119,N,11439.6179028,E,4,27,0.6,25.82,M,-13.10,M,02,1008*75
$GPGGA,053517.00,3027.4251060,N,11439.6178928,E,4,27,0.6,25.81,M,-13.10,M,02,1008*77
$GPGGA,053518.00,3027.4251049,N,11439.6178915,E,4,27,0.6,25.82,M,-13.10,M,02,1008*7B
$GPGGA,053519.00,3027.4251057,N,11439.6178948,E,4,27,0.6,25.82,M,-13.10,M,03,1008*7B
$GPGGA,053520.00,3027.4251080,N,11439.6178979,E,4,27,0.6,25.82,M,-13.10,M,02,1008*70
$GPGGA,053521.00,3027.4251130,N,11439.6179000,E,4,26,0.6,25.83,M,-13.10,M,02,1008*71
$GPGGA,053522.00,3027.4251220,N,11439.6179128,E,4,27,0.6,25.85,M,-13.10,M,02,1008*75
$GPGGA,053523.00,3027.4251170,N,11439.6179076,E,4,27,0.6,25.84,M,-13.10,M,02,1008*75
$GPGGA,053524.00,3027.4251096,N,11439.6179062,E,4,27,0.6,25.83,M,-13.10,M,02,1008*75
$GPGGA,053525.00,3027.4251144,N,11439.6179105,E,4,27,0.6,25.84,M,-13.10,M,02,1008*73
$GPGGA,053526.00,3027.4251219,N,11439.6179114,E,4,27,0.6,25.85,M,-13.10,M,02,1008*71
$GPGGA,053527.00,3027.4251222,N,11439.6179048,E,4,27,0.6,25.85,M,-13.10,M,02,1008*70
$GPGGA,053528.00,3027.4251140,N,11439.6179021,E,4,28,0.6,25.84,M,-13.10,M,02,1008*71
$GPGGA,053529.00,3027.4251123,N,11439.6179063,E,4,28,0.6,25.84,M,-13.10,M,02,1008*70
$GPGGA,053530.00,3027.4251958,N,11439.6179888,E,4,28,0.6,25.85,M,-13.10,M,03,1008*7D
$GPGGA,053531.00,3027.4253203,N,11439.6180983,E,4,27,0.6,25.84,M,-13.10,M,02,1008*73
$GPGGA,053532.00,3027.4254000,N,11439.6181603,E,4,27,0.6,25.84,M,-13.10,M,02,1008*74
$GPGGA,053533.00,3027.4254016,N,11439.6181532,E,4,28,0.6,25.84,M,-13.10,M,02,1008*7A
$GPGGA,053534.00,3027.4254167,N,11439.6181627,E,4,28,0.6,25.85,M,-13.10,M,02,1008*7C
$GPGGA,053535.00,3027.4254169,N,11439.6181608,E,4,29,0.6,25.86,M,-13.10,M,01,1008*7C
$GPGGA,053536.00,3027.4254168,N,11439.6181605,E,4,29,0.6,25.85,M,-13.10,M,02,1008*7F
$GPGGA,053537.00,3027.4254171,N,11439.6181609,E,4,29,0.6,25.86,M,-13.10,M,02,1008*7D
$GPGGA,053538.00,3027.4254168,N,11439.6181630,E,4,29,0.6,25.86,M,-13.10,M,02,1008*72
$GPGGA,053539.00,3027.4254169,N,11439.6181619,E,4,29,0.6,25.86,M,-13.10,M,02,1008*73
$GPGGA,053540.00,3027.4254170,N,11439.6181617,E,4,28,0.6,25.85,M,-13.10,M,03,1008*7E
$GPGGA,053541.00,3027.4254092,N,11439.6181515,E,4,28,0.6,25.84,M,-13.10,M,03,1008*7E
$GPGGA,053542.00,3027.4254125,N,11439.6181606,E,4,28,0.6,25.86,M,-13.10,M,02,1008*7E
$GPGGA,053543.00,3027.4254189,N,11439.6181615,E,4,29,0.6,25.85,M,-13.10,M,01,1008*7E
$GPGGA,053544.00,3027.4254148,N,11439.6181539,E,4,29,0.6,25.85,M,-13.10,M,02,1008*7A
$GPGGA,053545.00,3027.4254141,N,11439.6181574,E,4,29,0.6,25.85,M,-13.10,M,02,1008*7B
$GPGGA,053546.00,3027.4254153,N,11439.6181631,E,4,29,0.6,25.85,M,-13.10,M,02,1008*78
$GPGGA,053547.00,3027.4254162,N,11439.6181604,E,4,29,0.6,25.85,M,-13.10,M,02,1008*79
$GPGGA,053548.00,3027.4254114,N,11439.6181557,E,4,29,0.6,25.85,M,-13.10,M,02,1008*76
$GPGGA,053549.00,3027.4254124,N,11439.6181607,E,4,29,0.6,25.85,M,-13.10,M,02,1008*77
$GPGGA,053550.00,3027.4254202,N,11439.6181654,E,4,28,0.6,25.86,M,-13.10,M,02,1008*7D
$GPGGA,053551.00,3027.4254199,N,11439.6181612,E,4,28,0.6,25.86,M,-13.10,M,03,1008*7D
$GPGGA,053552.00,3027.4254212,N,11439.6181609,E,4,28,0.6,25.86,M,-13.10,M,02,1008*7F
$GPGGA,053553.00,3027.4254292,N,11439.6181613,E,4,28,0.6,25.86,M,-13.10,M,02,1008*7E
$GPGGA,053554.00,3027.4254185,N,11439.6181670,E,4,28,0.6,25.86,M,-13.10,M,02,1008*79
$GPGGA,053555.00,3027.4254244,N,11439.6181657,E,4,29,0.6,25.86,M,-13.10,M,02,1008*79
$GPGGA,053556.00,3027.4254225,N,11439.6181637,E,4,29,0.6,25.86,M,-13.10,M,02,1008*7A
$GPGGA,053557.00,3027.4254155,N,11439.6181618,E,4,28,0.6,25.85,M,-13.10,M,02,1008*79
$GPGGA,053558.00,3027.4254193,N,11439.6181628,E,4,28,0.6,25.86,M,-13.10,M,02,1008*75
$GPGGA,053559.00,3027.4254132,N,11439.6181608,E,4,29,0.6,25.85,M,-13.10,M,02,1008*76
$GPGGA,053600.00,3027.4254188,N,11439.6181601,E,4,28,0.6,25.86,M,-13.10,M,02,1008*7B
$GPGGA,053601.00,3027.4254161,N,11439.6181628,E,4,28,0.6,25.86,M,-13.10,M,03,1008*7B
$GPGGA,053602.00,3027.4254130,N,11439.6181591,E,4,29,0.6,25.85,M,-13.10,M,02,1008*7B
$GPGGA,053603.00,3027.4254167,N,11439.6181575,E,4,29,0.6,25.86,M,-13.10,M,01,1008*7A
$GPGGA,053604.00,3027.4254181,N,11439.6181585,E,4,29,0.6,25.85,M,-13.10,M,02,1008*7D
$GPGGA,053605.00,3027.4254187,N,11439.6181592,E,4,29,0.6,25.85,M,-13.10,M,02,1008*7C
$GPGGA,053606.00,3027.4254175,N,11439.6181643,E,4,29,0.6,25.86,M,-13.10,M,02,1008*7C
$GPGGA,053607.00,3027.4254135,N,11439.6181641,E,4,28,0.6,25.85,M,-13.10,M,01,1008*7C
$GPGGA,053608.00,3027.4254170,N,11439.6181609,E,4,28,0.6,25.86,M,-13.10,M,02,1008*73
$GPGGA,053609.00,3027.4254136,N,11439.6181647,E,4,29,0.6,25.85,M,-13.10,M,02,1008*70
$GPGGA,053610.00,3027.4254179,N,11439.6181634,E,4,29,0.6,25.86,M,-13.10,M,02,1008*7B
$GPGGA,053611.00,3027.4254175,N,11439.6181666,E,4,28,0.6,25.86,M,-13.10,M,02,1008*7B
$GPGGA,053612.00,3027.4254192,N,11439.6181700,E,4,28,0.6,25.86,M,-13.10,M,02,1008*78
$GPGGA,053613.00,3027.4254205,N,11439.6181703,E,4,28,0.6,25.87,M,-13.10,M,02,1008*78
$GPGGA,053614.00,3027.4254186,N,11439.6181732,E,4,28,0.6,25.86,M,-13.10,M,02,1008*7E
$GPGGA,053615.00,3027.4254151,N,11439.6181690,E,4,28,0.6,25.86,M,-13.10,M,02,1008*7F
$GPGGA,053616.00,3027.4254167,N,11439.6181662,E,4,28,0.6,25.86,M,-13.10,M,02,1008*7C
$GPGGA,053617.00,3027.4254143,N,11439.6181646,E,4,28,0.6,25.86,M,-13.10,M,02,1008*7D
$GPGGA,053618.00,3027.4254169,N,11439.6181641,E,4,28,0.6,25.86,M,-13.10,M,02,1008*72
$GPGGA,053619.00,3027.4254178,N,11439.6181702,E,4,28,0.6,25.86,M,-13.10,M,02,1008*73
$GPGGA,053620.00,3027.4254194,N,11439.6181710,E,4,28,0.6,25.86,M,-13.10,M,01,1008*7A
$GPGGA,053621.00,3027.4254197,N,11439.6181695,E,4,28,0.6,25.86,M,-13.10,M,02,1008*78
$GPGGA,053622.00,3027.4254164,N,11439.6181678,E,4,28,0.6,25.86,M,-13.10,M,03,1008*7A
$GPGGA,053623.00,3027.4254185,N,11439.6181681,E,4,28,0.6,25.86,M,-13.10,M,02,1008*7A
$GPGGA,053624.00,3027.4254214,N,11439.6181687,E,4,28,0.6,25.87,M,-13.10,M,02,1008*7C
$GPGGA,053625.00,3027.4254205,N,11439.6181702,E,4,28,0.6,25.87,M,-13.10,M,02,1008*7D
$GPGGA,053626.00,3027.4254189,N,11439.6181738,E,4,28,0.6,25.87,M,-13.10,M,02,1008*7E
$GPGGA,053627.00,3027.4254190,N,11439.6181710,E,4,28,0.6,25.87,M,-13.10,M,02,1008*7F
$GPGGA,053628.00,3027.4254176,N,11439.6181663,E,4,28,0.6,25.86,M,-13.10,M,02,1008*71
$GPGGA,053629.00,3027.4254145,N,11439.6181658,E,4,28,0.6,25.86,M,-13.10,M,02,1008*70
$GPGGA,053630.00,3027.4254173,N,11439.6181675,E,4,28,0.6,25.86,M,-13.10,M,02,1008*78
$GPGGA,053631.00,3027.4254215,N,11439.6181682,E,4,28,0.6,25.87,M,-13.10,M,02,1008*78
$GPGGA,053632.00,3027.4254198,N,11439.6181682,E,4,28,0.6,25.87,M,-13.10,M,02,1008*7B
$GPGGA,053633.00,3027.4254218,N,11439.6181675,E,4,28,0.6,25.87,M,-13.10,M,03,1008*7B
$GPGGA,053634.00,3027.4254218,N,11439.6181727,E,4,28,0.6,25.87,M,-13.10,M,02,1008*7D
$GPGGA,053635.00,3027.4254208,N,11439.6181706,E,4,28,0.6,25.87,M,-13.10,M,02,1008*7C
$GPGGA,053636.00,3027.4254171,N,11439.6181673,E,4,28,0.6,25.87,M,-13.10,M,02,1008*7F
$GPGGA,053637.00,3027.4254173,N,11439.6181659,E,4,28,0.6,25.87,M,-13.10,M,02,1008*7E
$GPGGA,053638.00,3027.4254190,N,11439.6181670,E,4,28,0.6,25.87,M,-13.10,M,02,1008*71
$GPGGA,053639.00,3027.4254195,N,11439.6181651,E,4,28,0.6,25.87,M,-13.10,M,02,1008*70
$GPGGA,053640.00,3027.4254193,N,11439.6181656,E,4,28,0.6,25.87,M,-13.10,M,02,1008*7E
$GPGGA,053641.00,3027.4254221,N,11439.6181678,E,4,28,0.6,25.87,M,-13.10,M,02,1008*7F
$GPGGA,053642.00,3027.4254180,N,11439.6181666,E,4,28,0.6,25.86,M,-13.10,M,02,1008*7D
$GPGGA,053643.00,3027.4254205,N,11439.6181697,E,4,28,0.6,25.87,M,-13.10,M,02,1008*7D
$GPGGA,053644.00,3027.4254221,N,11439.6181729,E,4,28,0.6,25.87,M,-13.10,M,03,1008*7B
$GPGGA,053645.00,3027.4254214,N,11439.6181707,E,4,28,0.6,25.88,M,-13.10,M,02,1008*74
$GPGGA,053646.00,3027.4254202,N,11439.6181695,E,4,28,0.6,25.88,M,-13.10,M,02,1008*77
$GPGGA,053647.00,3027.4254167,N,11439.6181668,E,4,28,0.6,25.87,M,-13.10,M,02,1008*79
$GPGGA,053648.00,3027.4254150,N,11439.6181689,E,4,27,0.6,25.87,M,-13.10,M,02,1008*79
$GPGGA,053649.00,3027.4254167,N,11439.6181672,E,4,27,0.7,25.87,M,-13.10,M,01,1008*7A
$GPGGA,053650.00,3027.4254158,N,11439.6181647,E,4,27,0.7,25.87,M,-13.10,M,01,1008*72
$GPGGA,053651.00,3027.4254153,N,11439.6181652,E,4,27,0.7,25.87,M,-13.10,M,02,1008*70
$GPGGA,053652.00,3027.4254161,N,11439.6181699,E,4,27,0.7,25.87,M,-13.10,M,02,1008*73
$GPGGA,053653.00,3027.4254217,N,11439.6181716,E,4,27,0.7,25.87,M,-13.10,M,02,1008*72
$GPGGA,053654.00,3027.4254190,N,11439.6181690,E,4,27,0.7,25.87,M,-13.10,M,03,1008*74
$GPGGA,053655.00,3027.4254183,N,11439.6181740,E,4,27,0.7,25.87,M,-13.10,M,02,1008*74
$GPGGA,053656.00,3027.4254171,N,11439.6181712,E,4,27,0.7,25.87,M,-13.10,M,02,1008*77
$GPGGA,053657.00,3027.4254207,N,11439.6181727,E,4,27,0.7,25.87,M,-13.10,M,02,1008*76
$GPGGA,053658.00,3027.4254151,N,11439.6181691,E,4,27,0.7,25.87,M,-13.10,M,01,1008*7A
$GPGGA,053659.00,3027.4254143,N,11439.6181682,E,4,27,0.7,25.87,M,-13.10,M,02,1008*78
$GPGGA,053700.00,3027.4254172,N,11439.6181673,E,4,27,0.7,25.87,M,-13.10,M,02,1008*75
$GPGGA,053701.00,3027.4254201,N,11439.6181657,E,4,27,0.7,25.87,M,-13.10,M,02,1008*74
$GPGGA,053702.00,3027.4254182,N,11439.6181661,E,4,27,0.7,25.86,M,-13.10,M,02,1008*76
$GPGGA,053703.00,3027.4254202,N,11439.6181696,E,4,27,0.7,25.87,M,-13.10,M,02,1008*76
$GPGGA,053704.00,3027.4254182,N,11439.6181737,E,4,27,0.7,25.87,M,-13.10,M,03,1008*70
$GPGGA,053705.00,3027.4254240,N,11439.6181727,E,4,27,0.7,25.88,M,-13.10,M,01,1008*7C
$GPGGA,053706.00,3027.4254189,N,11439.6181698,E,4,27,0.7,25.88,M,-13.10,M,02,1008*7C
$GPGGA,053707.00,3027.4254182,N,11439.6181687,E,4,27,0.7,25.88,M,-13.10,M,02,1008*7D
$GPGGA,053708.00,3027.4254175,N,11439.6181696,E,4,27,0.7,25.87,M,-13.10,M,02,1008*7D
$GPGGA,053709.00,3027.4254213,N,11439.6181688,E,4,27,0.7,25.87,M,-13.10,M,02,1008*7C
$GPGGA,053710.00,3027.4254239,N,11439.6181677,E,4,27,0.7,25.87,M,-13.10,M,02,1008*74
$GPGGA,053711.00,3027.4254207,N,11439.6181701,E,4,27,0.7,25.87,M,-13.10,M,02,1008*75
$GPGGA,053712.00,3027.4254230,N,11439.6181726,E,4,27,0.7,25.87,M,-13.10,M,02,1008*76
$GPGGA,053713.00,3027.4254282,N,11439.6181746,E,4,27,0.7,25.88,M,-13.10,M,01,1008*7B
$GPGGA,053714.00,3027.4254246,N,11439.6181744,E,4,27,0.7,25.88,M,-13.10,M,02,1008*7F
$GPGGA,053715.00,3027.4254207,N,11439.6181724,E,4,27,0.7,25.88,M,-13.10,M,03,1008*7F
$GPGGA,053716.00,3027.4254238,N,11439.6181722,E,4,27,0.7,25.88,M,-13.10,M,02,1008*7D
$GPGGA,053717.00,3027.4254231,N,11439.6181690,E,4,28,0.7,25.88,M,-13.10,M,02,1008*73
$GPGGA,053718.00,3027.4254178,N,11439.6181660,E,4,28,0.7,25.87,M,-13.10,M,02,1008*73
$GPGGA,053719.00,3027.4254210,N,11439.6181654,E,4,28,0.7,25.87,M,-13.10,M,02,1008*72
$GPGGA,053720.00,3027.4254206,N,11439.6181664,E,4,28,0.7,25.87,M,-13.10,M,02,1008*78
$GPGGA,053721.00,3027.4254218,N,11439.6181674,E,4,28,0.7,25.87,M,-13.10,M,02,1008*79
$GPGGA,053722.00,3027.4254231,N,11439.6181706,E,4,28,0.7,25.87,M,-13.10,M,02,1008*7A
$GPGGA,053723.00,3027.4254195,N,11439.6181706,E,4,28,0.7,25.88,M,-13.10,M,02,1008*74
$GPGGA,053724.00,3027.4254180,N,11439.6181699,E,4,28,0.7,25.87,M,-13.10,M,02,1008*7C
$GPGGA,053725.00,3027.4254182,N,11439.6181709,E,4,28,0.7,25.88,M,-13.10,M,02,1008*72
$GPGGA,053726.00,3027.4254223,N,11439.6181697,E,4,28,0.7,25.88,M,-13.10,M,03,1008*70
$GPGGA,053727.00,3027.4254204,N,11439.6181681,E,4,28,0.7,25.87,M,-13.10,M,02,1008*7F
$GPGGA,053728.00,3027.4254230,N,11439.6181689,E,4,28,0.7,25.87,M,-13.10,M,02,1008*70
$GPGGA,053729.00,3027.4254248,N,11439.6181712,E,4,28,0.7,25.87,M,-13.10,M,02,1008*71
$GPGGA,053730.00,3027.4254210,N,11439.6181646,E,4,28,0.7,25.87,M,-13.10,M,02,1008*79
$GPGGA,053731.00,3027.4254198,N,11439.6181712,E,4,28,0.7,25.87,M,-13.10,M,02,1008*78
$GPGGA,053732.00,3027.4254226,N,11439.6181764,E,4,28,0.7,25.87,M,-13.10,M,02,1008*7B
$GPGGA,053733.00,3027.4254232,N,11439.6181759,E,4,28,0.7,25.88,M,-13.10,M,02,1008*75
$GPGGA,053734.00,3027.4254242,N,11439.6181752,E,4,28,0.7,25.88,M,-13.10,M,02,1008*72
$GPGGA,053735.00,3027.4254230,N,11439.6181740,E,4,28,0.7,25.88,M,-13.10,M,02,1008*73
$GPGGA,053736.00,3027.4254176,N,11439.6181716,E,4,28,0.7,25.87,M,-13.10,M,01,1008*7C
$GPGGA,053737.00,3027.4254193,N,11439.6181715,E,4,28,0.7,25.87,M,-13.10,M,02,1008*7E
$GPGGA,053738.00,3027.4254224,N,11439.6181711,E,4,28,0.7,25.87,M,-13.10,M,02,1008*71
$GPGGA,053739.00,3027.4254237,N,11439.6181706,E,4,28,0.7,25.88,M,-13.10,M,02,1008*7F
$GPGGA,053740.00,3027.4254252,N,11439.6181729,E,4,28,0.7,25.88,M,-13.10,M,02,1008*71
$GPGGA,053741.00,3027.4254255,N,11439.6181767,E,4,28,0.7,25.88,M,-13.10,M,02,1008*70
$GPGGA,053742.00,3027.4254262,N,11439.6181795,E,4,28,0.7,25.88,M,-13.10,M,02,1008*73
$GPGGA,053743.00,3027.4254247,N,11439.6181770,E,4,28,0.7,25.88,M,-13.10,M,02,1008*72
$GPGGA,053744.00,3027.4254232,N,11439.6181749,E,4,28,0.7,25.88,M,-13.10,M,02,1008*75
$GPGGA,053745.00,3027.4254185,N,11439.6181700,E,4,28,0.7,25.88,M,-13.10,M,02,1008*74
$GPGGA,053746.00,3027.4254184,N,11439.6181707,E,4,28,0.7,25.88,M,-13.10,M,02,1008*77
$GPGGA,053747.00,3027.4254180,N,11439.6181702,E,4,28,0.7,25.87,M,-13.10,M,03,1008*78
$GPGGA,053748.00,3027.4254215,N,11439.6181698,E,4,28,0.7,25.88,M,-13.10,M,02,1008*79
$GPGGA,053749.00,3027.4254238,N,11439.6181705,E,4,28,0.7,25.88,M,-13.10,M,02,1008*78
$GPGGA,053750.00,3027.4254239,N,11439.6181689,E,4,28,0.7,25.88,M,-13.10,M,02,1008*70
$GPGGA,053751.00,3027.4254232,N,11439.6181728,E,4,28,0.7,25.88,M,-13.10,M,02,1008*71
$GPGGA,053752.00,3027.4254242,N,11439.6181757,E,4,29,0.7,25.89,M,-13.10,M,02,1008*72
$GPGGA,053753.00,3027.4254258,N,11439.6181749,E,4,29,0.7,25.88,M,-13.10,M,02,1008*72
$GPGGA,053754.00,3027.4254235,N,11439.6181770,E,4,29,0.7,25.88,M,-13.10,M,02,1008*75
$GPGGA,053755.00,3027.4254179,N,11439.6181709,E,4,29,0.7,25.88,M,-13.10,M,02,1008*74
$GPGGA,053756.00,3027.4254180,N,11439.6181696,E,4,29,0.7,25.88,M,-13.10,M,02,1008*77
$GPGGA,053757.00,3027.4254182,N,11439.6181686,E,4,29,0.7,25.87,M,-13.10,M,03,1008*78
$GPGGA,053758.00,3027.4254203,N,11439.6181718,E,4,29,0.7,25.88,M,-13.10,M,02,1008*79
$GPGGA,053759.00,3027.4254235,N,11439.6181706,E,4,29,0.7,25.88,M,-13.10,M,02,1008*78
$GPGGA,053800.00,3027.4254249,N,11439.6181772,E,4,28,0.7,25.88,M,-13.10,M,02,1008*7A
$GPGGA,053801.00,3027.4254262,N,11439.6181789,E,4,25,0.7,25.88,M,-13.10,M,02,1008*76
$GPGGA,053802.00,3027.4254299,N,11439.6181823,E,4,26,0.7,25.89,M,-13.10,M,02,1008*77
$GPGGA,053803.00,3027.4254380,N,11439.6181973,E,4,28,0.7,25.90,M,-13.10,M,02,1008*70
$GPGGA,053804.00,3027.4254281,N,11439.6181825,E,4,28,0.7,25.89,M,-13.10,M,02,1008*7F
$GPGGA,053805.00,3027.4254235,N,11439.6181764,E,4,28,0.7,25.88,M,-13.10,M,02,1008*7F
$GPGGA,053806.00,3027.4254241,N,11439.6181764,E,4,28,0.7,25.88,M,-13.10,M,02,1008*7C
$GPGGA,053807.00,3027.4254245,N,11439.6181748,E,4,28,0.7,25.87,M,-13.10,M,03,1008*73
$GPGGA,053808.00,3027.4254234,N,11439.6181749,E,4,28,0.7,25.87,M,-13.10,M,02,1008*7D
$GPGGA,053809.00,3027.4254238,N,11439.6181766,E,4,28,0.7,25.87,M,-13.10,M,02,1008*7C
$GPGGA,053810.00,3027.4254273,N,11439.6181798,E,4,28,0.7,25.87,M,-13.10,M,02,1008*74
$GPGGA,053811.00,3027.4254308,N,11439.6181799,E,4,28,0.7,25.88,M,-13.10,M,02,1008*7A
$GPGGA,053812.00,3027.4254269,N,11439.6181757,E,4,28,0.7,25.88,M,-13.10,M,02,1008*79
$GPGGA,053813.00,3027.4254248,N,11439.6181756,E,4,28,0.7,25.88,M,-13.10,M,02,1008*78
$GPGGA,053814.00,3027.4254223,N,11439.6181758,E,4,28,0.7,25.88,M,-13.10,M,02,1008*7F
$GPGGA,053815.00,3027.4254228,N,11439.6181734,E,4,28,0.7,25.88,M,-13.10,M,02,1008*7E
$GPGGA,053816.00,3027.4254207,N,11439.6181699,E,4,28,0.7,25.87,M,-13.10,M,02,1008*72
$GPGGA,053817.00,3027.4254180,N,11439.6181686,E,4,28,0.7,25.87,M,-13.10,M,02,1008*73
$GPGGA,053818.00,3027.4254201,N,11439.6181707,E,4,28,0.7,25.87,M,-13.10,M,03,1008*7D
$GPGGA,053819.00,3027.4254225,N,11439.6181731,E,4,28,0.7,25.87,M,-13.10,M,02,1008*7D
$GPGGA,053820.00,3027.4254250,N,11439.6181771,E,4,28,0.7,25.87,M,-13.10,M,02,1008*77
$GPGGA,053821.00,3027.4254213,N,11439.6181790,E,4,28,0.7,25.87,M,-13.10,M,02,1008*76
$GPGGA,053822.00,3027.4254272,N,11439.6181803,E,4,28,0.7,25.88,M,-13.10,M,02,1008*7A
$GPGGA,053823.00,3027.4254306,N,11439.6181810,E,4,28,0.7,25.88,M,-13.10,M,02,1008*7B
$GPGGA,053824.00,3027.4254300,N,11439.6181798,E,4,28,0.7,25.88,M,-13.10,M,02,1008*7C
$GPGGA,053825.00,3027.4254263,N,11439.6181764,E,4,28,0.7,25.88,M,-13.10,M,02,1008*7D
$GPGGA,053826.00,3027.4254265,N,11439.6181806,E,4,28,0.7,25.89,M,-13.10,M,02,1008*7F
$GPGGA,053827.00,3027.4254257,N,11439.6181773,E,4,29,0.7,25.88,M,-13.10,M,02,1008*7E
$GPGGA,053828.00,3027.4254203,N,11439.6181745,E,4,29,0.7,25.88,M,-13.10,M,03,1008*70
$GPGGA,053829.00,3027.4254165,N,11439.6181724,E,4,28,0.7,25.87,M,-13.10,M,02,1008*7E
$GPGGA,053830.00,3027.4254189,N,11439.6181720,E,4,27,0.7,25.87,M,-13.10,M,02,1008*79
$GPGGA,053831.00,3027.4254242,N,11439.6181733,E,4,27,0.7,25.87,M,-13.10,M,01,1008*7B
$GPGGA,053832.00,3027.4254214,N,11439.6181724,E,4,28,0.7,25.86,M,-13.10,M,02,1008*75
$GPGGA,053833.00,3027.4254261,N,11439.6181780,E,4,28,0.7,25.87,M,-13.10,M,02,1008*75
$GPGGA,053834.00,3027.4254287,N,11439.6181772,E,4,28,0.7,25.87,M,-13.10,M,02,1008*72
$GPGGA,053835.00,3027.4254282,N,11439.6181756,E,4,28,0.7,25.87,M,-13.10,M,02,1008*73
$GPGGA,053836.00,3027.4254228,N,11439.6181695,E,4,28,0.7,25.86,M,-13.10,M,02,1008*71
$GPGGA,053837.00,3027.4254226,N,11439.6181664,E,4,28,0.7,25.86,M,-13.10,M,02,1008*70
$GPGGA,053838.00,3027.4254277,N,11439.6181675,E,4,28,0.6,25.86,M,-13.10,M,02,1008*7E
$GPGGA,053839.00,3027.4254242,N,11439.6181680,E,4,28,0.7,25.86,M,-13.10,M,03,1008*7F
$GPGGA,053840.00,3027.4254247,N,11439.6181714,E,4,28,0.7,25.85,M,-13.10,M,02,1008*73
$GPGGA,053841.00,3027.4254258,N,11439.6181722,E,4,28,0.7,25.85,M,-13.10,M,02,1008*72
$GPGGA,053842.00,3027.4254300,N,11439.6181806,E,4,29,0.7,25.86,M,-13.10,M,02,1008*73
$GPGGA,053843.00,3027.4254313,N,11439.6181747,E,4,29,0.7,25.87,M,-13.10,M,02,1008*73
$GPGGA,053844.00,3027.4254295,N,11439.6181785,E,4,29,0.7,25.86,M,-13.10,M,02,1008*75
$GPGGA,053845.00,3027.4254286,N,11439.6181786,E,4,29,0.7,25.86,M,-13.10,M,02,1008*74
$GPGGA,053846.00,3027.4254298,N,11439.6181797,E,4,29,0.7,25.86,M,-13.10,M,02,1008*77
$GPGGA,053847.00,3027.4254288,N,11439.6181744,E,4,29,0.7,25.86,M,-13.10,M,02,1008*76
$GPGGA,053848.00,3027.4254219,N,11439.6181704,E,4,29,0.7,25.85,M,-13.10,M,02,1008*7A
$GPGGA,053849.00,3027.4254193,N,11439.6181702,E,4,29,0.7,25.85,M,-13.10,M,03,1008*7A
$GPGGA,053850.00,3027.4254237,N,11439.6181698,E,4,29,0.7,25.85,M,-13.10,M,02,1008*73
$GPGGA,053851.00,3027.4254248,N,11439.6181636,E,4,29,0.7,25.85,M,-13.10,M,02,1008*72
$GPGGA,053852.00,3027.4254256,N,11439.6181647,E,4,29,0.7,25.85,M,-13.10,M,02,1008*71
$GPGGA,053853.00,3027.4254247,N,11439.6181715,E,4,29,0.7,25.84,M,-13.10,M,02,1008*71
$GPGGA,053854.00,3027.4254285,N,11439.6181773,E,4,29,0.7,25.85,M,-13.10,M,02,1008*77
$GPGGA,053855.00,3027.4254310,N,11439.6181815,E,4,29,0.7,25.85,M,-13.10,M,02,1008*76
$GPGGA,053856.00,3027.4254302,N,11439.6181765,E,4,29,0.7,25.85,M,-13.10,M,02,1008*75
$GPGGA,053857.00,3027.4254295,N,11439.6181768,E,4,29,0.7,25.85,M,-13.10,M,03,1008*75
$GPGGA,053858.00,3027.4254270,N,11439.6181731,E,4,29,0.7,25.85,M,-13.10,M,02,1008*7B
$GPGGA,053859.00,3027.4254272,N,11439.6181716,E,4,29,0.7,25.85,M,-13.10,M,03,1008*7B
$GPGGA,053900.00,3027.4254286,N,11439.6181675,E,4,29,0.7,25.85,M,-13.10,M,02,1008*77
$GPGGA,053901.00,3027.4254255,N,11439.6181647,E,4,28,0.7,25.85,M,-13.10,M,02,1008*77
$GPGGA,053902.00,3027.4254236,N,11439.6181680,E,4,29,0.7,25.84,M,-13.10,M,02,1008*74
$GPGGA,053903.00,3027.4254286,N,11439.6181705,E,4,28,0.7,25.84,M,-13.10,M,02,1008*74
$GPGGA,053904.00,3027.4254320,N,11439.6181750,E,4,29,0.7,25.85,M,-13.10,M,02,1008*73
$GPGGA,053905.00,3027.4254298,N,11439.6181775,E,4,28,0.7,25.85,M,-13.10,M,02,1008*73
$GPGGA,053906.00,3027.4254261,N,11439.6181718,E,4,28,0.7,25.85,M,-13.10,M,02,1008*70
$GPGGA,053907.00,3027.4254208,N,11439.6181712,E,4,28,0.7,25.85,M,-13.10,M,02,1008*71
$GPGGA,053908.00,3027.4254224,N,11439.6181708,E,4,28,0.7,25.85,M,-13.10,M,02,1008*7E
$GPGGA,053909.00,3027.4254240,N,11439.6181681,E,4,28,0.7,25.84,M,-13.10,M,02,1008*7E
$GPGGA,053910.00,3027.4254256,N,11439.6181674,E,4,28,0.7,25.84,M,-13.10,M,03,1008*77
$GPGGA,053911.00,3027.4254245,N,11439.6181657,E,4,28,0.7,25.84,M,-13.10,M,02,1008*77
$GPGGA,053912.00,3027.4254237,N,11439.6181671,E,4,28,0.7,25.84,M,-13.10,M,02,1008*74
$GPGGA,053913.00,3027.4254254,N,11439.6181723,E,4,28,0.7,25.84,M,-13.10,M,02,1008*75
$GPGGA,053914.00,3027.4254299,N,11439.6181756,E,4,28,0.7,25.85,M,-13.10,M,02,1008*73
$GPGGA,053915.00,3027.4254254,N,11439.6181728,E,4,28,0.7,25.85,M,-13.10,M,02,1008*72
$GPGGA,053916.00,3027.4254270,N,11439.6181716,E,4,28,0.7,25.85,M,-13.10,M,02,1008*71
$GPGGA,053917.00,3027.4254245,N,11439.6181703,E,4,28,0.7,25.85,M,-13.10,M,02,1008*70
$GPGGA,053918.00,3027.4254235,N,11439.6181692,E,4,28,0.7,25.85,M,-13.10,M,02,1008*7F
$GPGGA,053919.00,3027.4254254,N,11439.6181692,E,4,28,0.7,25.85,M,-13.10,M,02,1008*7E
$GPGGA,053920.00,3027.4254255,N,11439.6181662,E,4,28,0.7,25.84,M,-13.10,M,02,1008*75
$GPGGA,053921.00,3027.4254228,N,11439.6181679,E,4,28,0.7,25.85,M,-13.10,M,03,1008*74
$GPGGA,053922.00,3027.4254262,N,11439.6181713,E,4,28,0.7,25.85,M,-13.10,M,01,1008*75
$GPGGA,053923.00,3027.4254304,N,11439.6181753,E,4,29,0.7,25.85,M,-13.10,M,02,1008*76
$GPGGA,053924.00,3027.4254342,N,11439.6181763,E,4,29,0.7,25.86,M,-13.10,M,02,1008*72
$GPGGA,053925.00,3027.4254314,N,11439.6181734,E,4,28,0.7,25.86,M,-13.10,M,02,1008*72
$GPGGA,053926.00,3027.4254270,N,11439.6181758,E,4,28,0.7,25.86,M,-13.10,M,02,1008*71
$GPGGA,053927.00,3027.4254258,N,11439.6181757,E,4,28,0.7,25.86,M,-13.10,M,02,1008*70
$GPGGA,053928.00,3027.4254273,N,11439.6181731,E,4,28,0.7,25.85,M,-13.10,M,02,1008*7C
$GPGGA,053929.00,3027.4254267,N,11439.6181703,E,4,29,0.7,25.85,M,-13.10,M,02,1008*7C
$GPGGA,053930.00,3027.4254236,N,11439.6181632,E,4,28,0.7,25.85,M,-13.10,M,02,1008*75
$GPGGA,053931.00,3027.4254203,N,11439.6181633,E,4,28,0.7,25.84,M,-13.10,M,02,1008*75
$GPGGA,053932.00,3027.4254236,N,11439.6181665,E,4,29,0.7,25.84,M,-13.10,M,03,1008*76
$GPGGA,053933.00,3027.4254273,N,11439.6181712,E,4,29,0.7,25.84,M,-13.10,M,02,1008*76
$GPGGA,053934.00,3027.4254295,N,11439.6181717,E,4,29,0.7,25.85,M,-13.10,M,02,1008*70
$GPGGA,053935.00,3027.4254291,N,11439.6181727,E,4,29,0.7,25.85,M,-13.10,M,02,1008*71
$GPGGA,053936.00,3027.4254284,N,11439.6181743,E,4,29,0.7,25.86,M,-13.10,M,02,1008*71
$GPGGA,053937.00,3027.4254270,N,11439.6181730,E,4,29,0.7,25.86,M,-13.10,M,02,1008*70
$GPGGA,053938.00,3027.4254270,N,11439.6181717,E,4,29,0.7,25.86,M,-13.10,M,02,1008*7F
$GPGGA,053939.00,3027.4254251,N,11439.6181727,E,4,29,0.7,25.86,M,-13.10,M,02,1008*7E
$GPGGA,053940.00,3027.4254230,N,11439.6181668,E,4,29,0.7,25.85,M,-13.10,M,02,1008*73
$GPGGA,053941.00,3027.4254227,N,11439.6181651,E,4,29,0.7,25.84,M,-13.10,M,02,1008*73
$GPGGA,053942.00,3027.4254255,N,11439.6181694,E,4,29,0.7,25.85,M,-13.10,M,03,1008*70
$GPGGA,053943.00,3027.4254292,N,11439.6181697,E,4,29,0.7,25.85,M,-13.10,M,02,1008*70
$GPGGA,053944.00,3027.4254290,N,11439.6181762,E,4,29,0.7,25.85,M,-13.10,M,02,1008*77
$GPGGA,053945.00,3027.4254298,N,11439.6181752,E,4,28,0.7,25.85,M,-13.10,M,02,1008*77
$GPGGA,053946.00,3027.4254279,N,11439.6181752,E,4,29,0.7,25.85,M,-13.10,M,02,1008*75
$GPGGA,053947.00,3027.4254240,N,11439.6181693,E,4,29,0.7,25.85,M,-13.10,M,02,1008*74
$GPGGA,053948.00,3027.4254300,N,11439.6181716,E,4,29,0.7,25.85,M,-13.10,M,02,1008*7B
$GPGGA,053949.00,3027.4254282,N,11439.6181653,E,4,29,0.7,25.85,M,-13.10,M,02,1008*7A
$GPGGA,053950.00,3027.4254265,N,11439.6181638,E,4,29,0.7,25.84,M,-13.10,M,01,1008*70
$GPGGA,053951.00,3027.4254302,N,11439.6181708,E,4,29,0.7,25.85,M,-13.10,M,02,1008*73
$GPGGA,053952.00,3027.4254285,N,11439.6181731,E,4,29,0.7,25.85,M,-13.10,M,03,1008*71
$GPGGA,053953.00,3027.4254326,N,11439.6181774,E,4,29,0.7,25.85,M,-13.10,M,02,1008*71
$GPGGA,053954.00,3027.4254289,N,11439.6181745,E,4,29,0.7,25.85,M,-13.10,M,02,1008*76
$GPGGA,053955.00,3027.4254273,N,11439.6181696,E,4,29,0.7,25.85,M,-13.10,M,02,1008*77
$GPGGA,053956.00,3027.4254260,N,11439.6181675,E,4,29,0.7,25.84,M,-13.10,M,02,1008*75
$GPGGA,053957.00,3027.4254285,N,11439.6181660,E,4,29,0.7,25.85,M,-13.10,M,02,1008*75
$GPGGA,053958.00,3027.4254284,N,11439.6181653,E,4,29,0.7,25.84,M,-13.10,M,01,1008*78
$GPGGA,053959.00,3027.4254319,N,11439.6181718,E,4,29,0.7,25.85,M,-13.10,M,02,1008*7B
$GPGGA,054000.00,3027.4254294,N,11439.6181687,E,4,29,0.7,25.84,M,-13.10,M,02,1008*78
$GPGGA,054001.00,3027.4254308,N,11439.6181706,E,4,29,0.7,25.84,M,-13.10,M,02,1008*79
$GPGGA,054002.00,3027.4254363,N,11439.6181723,E,4,29,0.7,25.85,M,-13.10,M,03,1008*7A
$GPGGA,054003.00,3027.4254381,N,11439.6181688,E,4,29,0.7,25.84,M,-13.10,M,02,1008*7B
$GPGGA,054004.00,3027.4254511,N,11439.6181653,E,4,29,0.7,25.84,M,-13.10,M,02,1008*7D
$GPGGA,054005.00,3027.4254521,N,11439.6181793,E,4,29,0.7,25.84,M,-13.10,M,02,1008*7C
$GPGGA,054006.00,3027.4256720,N,11439.6183139,E,4,29,0.7,25.82,M,-13.10,M,02,1008*7A
$GPGGA,054007.00,3027.4262518,N,11439.6185703,E,4,27,0.7,25.78,M,-13.10,M,02,1008*72
$GPGGA,054008.00,3027.4271011,N,11439.6187385,E,4,26,0.7,25.73,M,-13.10,M,02,1008*75
$GPGGA,054009.00,3027.4282111,N,11439.6190124,E,4,28,0.7,25.67,M,-13.10,M,01,1008*76
$GPGGA,054010.00,3027.4295686,N,11439.6194186,E,4,28,0.7,25.59,M,-13.10,M,02,1008*71
$GPGGA,054011.00,3027.4311072,N,11439.6200011,E,4,27,0.7,25.51,M,-13.10,M,02,1008*77
$GPGGA,054012.00,3027.4329364,N,11439.6208257,E,4,28,0.7,25.43,M,-13.10,M,03,1008*7A
$GPGGA,054013.00,3027.4350983,N,11439.6219878,E,4,29,0.7,25.36,M,-13.10,M,02,1008*7C
$GPGGA,054014.00,3027.4375021,N,11439.6234235,E,4,28,0.7,25.31,M,-13.10,M,02,1008*7E
$GPGGA,054015.00,3027.4401752,N,11439.6250165,E,4,28,0.7,25.22,M,-13.10,M,02,1008*78
$GPGGA,054016.00,3027.4431670,N,11439.6267570,E,4,28,0.7,25.11,M,-13.10,M,02,1008*73
$GPGGA,054017.00,3027.4465109,N,11439.6286556,E,4,28,0.7,25.03,M,-13.10,M,01,1008*71
$GPGGA,054018.00,3027.4501634,N,11439.6306825,E,4,27,0.7,24.91,M,-13.10,M,02,1008*71
$GPGGA,054019.00,3027.4541279,N,11439.6327782,E,4,28,0.7,24.73,M,-13.10,M,01,1008*7A
$GPGGA,054020.00,3027.4584153,N,11439.6348764,E,4,27,0.7,24.56,M,-13.10,M,02,1008*75
$GPGGA,054021.00,3027.4630098,N,11439.6368698,E,4,27,0.7,24.44,M,-13.10,M,02,1008*79
$GPGGA,054022.00,3027.4678655,N,11439.6387557,E,4,26,0.7,24.33,M,-13.10,M,02,1008*79
$GPGGA,054023.00,3027.4728874,N,11439.6405004,E,4,25,0.7,24.21,M,-13.10,M,02,1008*7E
$GPGGA,054024.00,3027.4780760,N,11439.6420925,E,4,26,0.7,24.00,M,-13.10,M,02,1008*7D
$GPGGA,054025.00,3027.4834241,N,11439.6435031,E,4,26,0.7,23.86,M,-13.10,M,03,1008*70
$GPGGA,054026.00,3027.4888215,N,11439.6446728,E,4,28,0.6,23.67,M,-13.10,M,02,1008*70
$GPGGA,054027.00,3027.4941872,N,11439.6455462,E,4,29,0.6,23.58,M,-13.10,M,02,1008*78
$GPGGA,054028.00,3027.4995919,N,11439.6460759,E,4,28,0.6,23.45,M,-13.10,M,02,1008*74
$GPGGA,054029.00,3027.5050513,N,11439.6463184,E,4,32,0.6,23.27,M,-13.10,M,02,1008*7B
$GPGGA,054030.00,3027.5106848,N,11439.6464215,E,4,32,0.6,23.08,M,-13.10,M,02,1008*7B
$GPGGA,054031.00,3027.5164852,N,11439.6464415,E,4,32,0.6,22.87,M,-13.10,M,02,1008*78
$GPGGA,054032.00,3027.5224422,N,11439.6463761,E,4,30,0.6,22.75,M,-13.10,M,02,1008*72
$GPGGA,054033.00,3027.5284428,N,11439.6461988,E,4,30,0.6,22.66,M,-13.10,M,02,1008*7D
$GPGGA,054034.00,3027.5344311,N,11439.6459283,E,4,30,0.6,22.67,M,-13.10,M,02,1008*7E
$GPGGA,054035.00,3027.5404476,N,11439.6455556,E,4,29,0.6,22.54,M,-13.10,M,02,1008*7B
$GPGGA,054036.00,3027.5465312,N,11439.6451130,E,4,30,0.6,22.45,M,-13.10,M,02,1008*70
$GPGGA,054037.00,3027.5527610,N,11439.6446092,E,4,27,0.6,22.41,M,-13.10,M,02,1008*7D
$GPGGA,054038.00,3027.5591312,N,11439.6440984,E,4,25,0.6,22.29,M,-13.10,M,02,1008*7B
$GPGGA,054039.00,3027.5656453,N,11439.6434966,E,4,24,0.6,22.21,M,-13.10,M,02,1008*78
$GPGGA,054040.00,3027.5722625,N,11439.6427646,E,4,27,0.6,22.16,M,-13.10,M,02,1008*7E
$GPGGA,054041.00,3027.5788747,N,11439.6419386,E,4,27,0.6,22.08,M,-13.10,M,02,1008*72
$GPGGA,054042.00,3027.5854030,N,11439.6410406,E,4,28,0.6,22.05,M,-13.10,M,02,1008*75
$GPGGA,054043.00,3027.5919565,N,11439.6400928,E,4,25,0.7,22.03,M,-13.10,M,02,1008*7C
$GPGGA,054044.00,3027.5985610,N,11439.6390944,E,4,24,0.6,22.04,M,-13.10,M,03,1008*7F
$GPGGA,054045.00,3027.6051786,N,11439.6380520,E,4,27,0.6,22.05,M,-13.10,M,02,1008*7F
$GPGGA,054046.00,3027.6116718,N,11439.6370092,E,4,27,0.6,22.07,M,-13.10,M,02,1008*70
$GPGGA,054047.00,3027.6180939,N,11439.6360221,E,4,28,0.6,22.02,M,-13.10,M,02,1008*75
$GPGGA,054048.00,3027.6245235,N,11439.6350435,E,4,27,0.6,22.06,M,-13.10,M,02,1008*79
$GPGGA,054049.00,3027.6310420,N,11439.6340506,E,4,28,0.6,22.07,M,-13.10,M,02,1008*77
$GPGGA,054050.00,3027.6376187,N,11439.6330780,E,4,28,0.6,22.07,M,-13.10,M,02,1008*78
$GPGGA,054051.00,3027.6442879,N,11439.6321263,E,4,28,0.6,22.06,M,-13.10,M,02,1008*78
$GPGGA,054052.00,3027.6511042,N,11439.6311226,E,4,29,0.6,22.08,M,-13.10,M,02,1008*71
$GPGGA,054053.00,3027.6581084,N,11439.6300780,E,4,30,0.6,22.12,M,-13.10,M,03,1008*7A
$GPGGA,054054.00,3027.6653237,N,11439.6289865,E,4,30,0.6,22.10,M,-13.10,M,02,1008*7B
$GPGGA,054055.00,3027.6727652,N,11439.6278783,E,4,28,0.6,22.06,M,-13.10,M,02,1008*7E
$GPGGA,054056.00,3027.6804134,N,11439.6267594,E,4,28,0.6,22.04,M,-13.10,M,02,1008*7E
$GPGGA,054057.00,3027.6882685,N,11439.6256320,E,4,27,0.6,22.09,M,-13.10,M,02,1008*7F
$GPGGA,054058.00,3027.6963047,N,11439.6244602,E,4,26,0.6,22.14,M,-13.10,M,02,1008*70
$GPGGA,054059.00,3027.7045321,N,11439.6232672,E,4,26,0.6,22.12,M,-13.10,M,02,1008*7A
$GPGGA,054100.00,3027.7129422,N,11439.6220563,E,4,28,0.6,22.13,M,-13.10,M,02,1008*70
$GPGGA,054101.00,3027.7215119,N,11439.6208434,E,4,26,0.6,22.09,M,-13.10,M,03,1008*72
$GPGGA,054102.00,3027.7300114,N,11439.6196690,E,4,27,0.6,22.01,M,-13.10,M,02,1008*79
$GPGGA,054103.00,3027.7384639,N,11439.6184760,E,4,28,0.6,22.01,M,-13.10,M,02,1008*79
$GPGGA,054104.00,3027.7470500,N,11439.6172159,E,4,30,0.6,22.01,M,-13.10,M,02,1008*72
$GPGGA,054105.00,3027.7558358,N,11439.6158891,E,4,29,0.6,21.96,M,-13.10,M,02,1008*74
$GPGGA,054106.00,3027.7648273,N,11439.6145290,E,4,31,0.6,21.95,M,-13.10,M,02,1008*72
$GPGGA,054107.00,3027.7738112,N,11439.6131936,E,4,31,0.6,21.95,M,-13.10,M,02,1008*75
$GPGGA,054108.00,3027.7826064,N,11439.6119394,E,4,31,0.6,21.91,M,-13.10,M,03,1008*76
$GPGGA,054109.00,3027.7911955,N,11439.6107201,E,4,31,0.6,21.86,M,-13.10,M,01,1008*7A
$GPGGA,054110.00,3027.7995831,N,11439.6095036,E,4,29,0.6,21.84,M,-13.10,M,02,1008*7C
$GPGGA,054111.00,3027.8077673,N,11439.6082959,E,4,30,0.6,21.84,M,-13.10,M,02,1008*74
$GPGGA,054112.00,3027.8157677,N,11439.6071005,E,4,32,0.6,21.81,M,-13.10,M,02,1008*7E
$GPGGA,054113.00,3027.8235739,N,11439.6059167,E,4,32,0.6,21.78,M,-13.10,M,02,1008*78
$GPGGA,054114.00,3027.8311949,N,11439.6047391,E,4,30,0.6,21.73,M,-13.10,M,02,1008*7E
$GPGGA,054115.00,3027.8386731,N,11439.6035778,E,4,30,0.6,21.69,M,-13.10,M,02,1008*7E
$GPGGA,054116.00,3027.8461649,N,11439.6023703,E,4,31,0.6,21.66,M,-13.10,M,02,1008*7C
$GPGGA,054117.00,3027.8537333,N,11439.6011119,E,4,31,0.6,21.64,M,-13.10,M,02,1008*78
$GPGGA,054118.00,3027.8613370,N,11439.5998232,E,4,30,0.6,21.66,M,-13.10,M,02,1008*7A
$GPGGA,054119.00,3027.8690350,N,11439.5985051,E,4,31,0.6,21.64,M,-13.10,M,02,1008*7F
$GPGGA,054120.00,3027.8767587,N,11439.5971936,E,4,32,0.6,21.63,M,-13.10,M,02,1008*7F
$GPGGA,054121.00,3027.8843224,N,11439.5960130,E,4,32,0.6,21.65,M,-13.10,M,02,1008*7D
$GPGGA,054122.00,3027.8917102,N,11439.5948990,E,4,29,0.6,21.57,M,-13.10,M,02,1008*7E
$GPGGA,054123.00,3027.8989191,N,11439.5937896,E,4,29,0.6,21.59,M,-13.10,M,03,1008*71
$GPGGA,054124.00,3027.9059279,N,11439.5926833,E,4,29,0.5,21.53,M,-13.10,M,01,1008*76
$GPGGA,054125.00,3027.9127410,N,11439.5915308,E,4,30,0.5,21.55,M,-13.10,M,02,1008*73
$GPGGA,054126.00,3027.9194784,N,11439.5903742,E,4,30,0.5,21.57,M,-13.10,M,01,1008*78
$GPGGA,054127.00,3027.9261894,N,11439.5891934,E,4,29,0.6,21.59,M,-13.10,M,02,1008*7A
$GPGGA,054128.00,3027.9329213,N,11439.5879867,E,4,29,0.6,21.62,M,-13.10,M,02,1008*70
$GPGGA,054129.00,3027.9397902,N,11439.5867974,E,4,27,0.5,21.62,M,-13.10,M,02,1008*70
$GPGGA,054130.00,3027.9468375,N,11439.5856307,E,4,27,0.5,21.62,M,-13.10,M,02,1008*7D
$GPGGA,054131.00,3027.9540664,N,11439.5844548,E,4,28,0.6,21.65,M,-13.10,M,01,1008*7C
$GPGGA,054132.00,3027.9614944,N,11439.5832224,E,4,27,0.6,21.67,M,-13.10,M,02,1008*73
$GPGGA,054133.00,3027.9690763,N,11439.5819312,E,4,28,0.6,21.69,M,-13.10,M,02,1008*76
$GPGGA,054134.00,3027.9765874,N,11439.5806161,E,4,27,0.6,21.72,M,-13.10,M,02,1008*73
$GPGGA,054135.00,3027.9837418,N,11439.5793807,E,4,28,0.6,21.76,M,-13.10,M,02,1008*76
$GPGGA,054136.00,3027.9901168,N,11439.5783018,E,4,24,0.6,21.73,M,-13.10,M,02,1008*7E
$GPGGA,054137.00,3027.9960017,N,11439.5773221,E,4,25,0.7,21.72,M,-13.10,M,02,1008*76
$GPGGA,054138.00,3028.0016758,N,11439.5763990,E,4,25,0.6,21.74,M,-13.10,M,02,1008*77
$GPGGA,054139.00,3028.0072050,N,11439.5755257,E,4,25,0.7,21.75,M,-13.10,M,02,1008*77
$GPGGA,054140.00,3028.0126124,N,11439.5747639,E,4,24,0.6,21.78,M,-13.10,M,03,1008*79
$GPGGA,054141.00,3028.0179375,N,11439.5740933,E,4,24,0.6,21.74,M,-13.10,M,02,1008*76
$GPGGA,054142.00,3028.0231711,N,11439.5734161,E,4,27,0.6,21.69,M,-13.10,M,02,1008*74
$GPGGA,054143.00,3028.0282998,N,11439.5726823,E,4,25,1.0,21.74,M,-13.10,M,02,1008*74
$GPGGA,054144.00,3028.0333681,N,11439.5719367,E,4,21,0.7,21.73,M,-13.10,M,02,1008*76
$GPGGA,054145.00,3028.0384989,N,11439.5711349,E,4,24,0.8,21.79,M,-13.10,M,02,1008*75
$GPGGA,054146.00,3028.0435914,N,11439.5703888,E,4,24,0.6,21.79,M,-13.10,M,02,1008*73
$GPGGA,054147.00,3028.0486466,N,11439.5696882,E,4,25,0.6,21.80,M,-13.10,M,02,1008*75
$GPGGA,054148.00,3028.0538089,N,11439.5689542,E,4,26,0.7,21.80,M,-13.10,M,02,1008*7B
$GPGGA,054149.00,3028.0591908,N,11439.5682062,E,4,24,0.8,21.81,M,-13.10,M,02,1008*75
$GPGGA,054150.00,3028.0646583,N,11439.5674534,E,4,23,0.6,21.78,M,-13.10,M,02,1008*71
$GPGGA,054151.00,3028.0699096,N,11439.5666992,E,4,24,0.6,21.78,M,-13.10,M,02,1008*77
$GPGGA,054152.00,3028.0745353,N,11439.5659616,E,4,25,0.7,21.79,M,-13.10,M,02,1008*72
$GPGGA,054153.00,3028.0781569,N,11439.5652370,E,4,26,0.7,21.80,M,-13.10,M,02,1008*7C
$GPGGA,054154.00,3028.0804186,N,11439.5643285,E,4,25,0.7,21.82,M,-13.10,M,01,1008*78
$GPGGA,054155.00,3028.0815183,N,11439.5633177,E,4,22,0.6,21.84,M,-13.10,M,02,1008*7D
$GPGGA,054156.00,3028.0822813,N,11439.5619641,E,4,23,0.6,21.86,M,-13.10,M,03,1008*7B
$GPGGA,054157.00,3028.0826460,N,11439.5600475,E,4,25,0.6,21.87,M,-13.10,M,02,1008*7B
$GPGGA,054158.00,3028.0821759,N,11439.5578312,E,4,26,0.6,21.87,M,-13.10,M,02,1008*7F
$GPGGA,054159.00,3028.0806245,N,11439.5558847,E,4,27,0.6,21.87,M,-13.10,M,02,1008*7A
$GPGGA,054200.00,3028.0780403,N,11439.5550011,E,4,26,0.6,21.80,M,-13.10,M,02,1008*7B
$GPGGA,054201.00,3028.0748149,N,11439.5550064,E,4,24,0.6,21.77,M,-13.10,M,02,1008*74
$GPGGA,054202.00,3028.0710851,N,11439.5555544,E,4,24,0.6,21.76,M,-13.10,M,02,1008*7C
$GPGGA,054203.00,3028.0668276,N,11439.5561884,E,4,25,0.6,21.78,M,-13.10,M,02,1008*7A
$GPGGA,054204.00,3028.0620616,N,11439.5568807,E,4,25,0.6,21.76,M,-13.10,M,02,1008*75
$GPGGA,054205.00,3028.0568243,N,11439.5577004,E,4,26,0.6,21.77,M,-13.10,M,02,1008*77
$GPGGA,054206.00,3028.0511404,N,11439.5586723,E,4,26,0.6,21.74,M,-13.10,M,02,1008*76
$GPGGA,054207.00,3028.0450447,N,11439.5597474,E,4,26,0.6,21.72,M,-13.10,M,02,1008*74
$GPGGA,054208.00,3028.0385369,N,11439.5609390,E,4,27,0.6,21.72,M,-13.10,M,02,1008*71
$GPGGA,054209.00,3028.0316600,N,11439.5622189,E,4,25,0.6,21.74,M,-13.10,M,01,1008*75
$GPGGA,054210.00,3028.0244170,N,11439.5635600,E,4,25,0.8,21.72,M,-13.10,M,01,1008*77
$GPGGA,054211.00,3028.0168253,N,11439.5649714,E,4,24,0.8,21.73,M,-13.10,M,02,1008*78
$GPGGA,054212.00,3028.0089175,N,11439.5664755,E,4,23,0.7,21.74,M,-13.10,M,03,1008*7D
$GPGGA,054213.00,3028.0007546,N,11439.5680497,E,4,24,0.6,21.69,M,-13.10,M,02,1008*75
$GPGGA,054214.00,3027.9924147,N,11439.5697175,E,4,25,0.7,21.67,M,-13.10,M,02,1008*7B
$GPGGA,054215.00,3027.9839337,N,11439.5714031,E,4,25,0.8,21.68,M,-13.10,M,01,1008*7E
$GPGGA,054216.00,3027.9754234,N,11439.5730510,E,4,25,0.7,21.68,M,-13.10,M,02,1008*72
$GPGGA,054217.00,3027.9668898,N,11439.5746748,E,4,23,0.6,21.60,M,-13.10,M,02,1008*72
$GPGGA,054218.00,3027.9582711,N,11439.5763348,E,4,25,0.7,21.54,M,-13.10,M,02,1008*7C
$GPGGA,054219.00,3027.9497719,N,11439.5779797,E,4,22,0.8,21.52,M,-13.10,M,02,1008*75
$GPGGA,054220.00,3027.9412701,N,11439.5795975,E,4,24,0.6,21.56,M,-13.10,M,02,1008*77
$GPGGA,054221.00,3027.9326116,N,11439.5812357,E,4,25,0.6,21.58,M,-13.10,M,02,1008*7B
$GPGGA,054222.00,3027.9237431,N,11439.5829039,E,4,28,0.6,21.55,M,-13.10,M,02,1008*71
$GPGGA,054223.00,3027.9146423,N,11439.5845922,E,4,29,0.6,21.50,M,-13.10,M,02,1008*78
$GPGGA,054224.00,3027.9053109,N,11439.5862821,E,4,29,0.6,21.53,M,-13.10,M,03,1008*7F
$GPGGA,054225.00,3027.8957873,N,11439.5880168,E,4,30,0.5,21.61,M,-13.10,M,02,1008*7B
$GPGGA,054226.00,3027.8861159,N,11439.5897284,E,4,29,0.6,21.52,M,-13.10,M,02,1008*7E
$GPGGA,054227.00,3027.8762356,N,11439.5914058,E,4,30,0.6,21.60,M,-13.10,M,02,1008*70
$GPGGA,054228.00,3027.8661909,N,11439.5929383,E,4,31,0.5,21.63,M,-13.10,M,02,1008*71
$GPGGA,054229.00,3027.8560239,N,11439.5944369,E,4,32,0.5,21.59,M,-13.10,M,03,1008*71
$GPGGA,054230.00,3027.8457386,N,11439.5959611,E,4,31,0.5,21.66,M,-13.10,M,02,1008*74
$GPGGA,054231.00,3027.8352938,N,11439.5975210,E,4,31,0.5,21.70,M,-13.10,M,02,1008*75
$GPGGA,054232.00,3027.8247104,N,11439.5990332,E,4,28,0.6,21.75,M,-13.10,M,02,1008*77
$GPGGA,054233.00,3027.8140271,N,11439.6005664,E,4,30,0.5,21.81,M,-13.10,M,02,1008*76
$GPGGA,054234.00,3027.8033450,N,11439.6020846,E,4,29,0.6,21.88,M,-13.10,M,02,1008*73
$GPGGA,054235.00,3027.7927671,N,11439.6035986,E,4,28,0.6,21.93,M,-13.10,M,01,1008*70
$GPGGA,054236.00,3027.7822224,N,11439.6051249,E,4,31,0.6,21.92,M,-13.10,M,01,1008*70
$GPGGA,054237.00,3027.7716244,N,11439.6067593,E,4,30,0.6,21.95,M,-13.10,M,02,1008*76
$GPGGA,054238.00,3027.7609512,N,11439.6085261,E,4,30,0.6,21.97,M,-13.10,M,02,1008*7F
$GPGGA,054239.00,3027.7502210,N,11439.6102925,E,4,30,0.6,22.02,M,-13.10,M,02,1008*7E
$GPGGA,054240.00,3027.7395189,N,11439.6119457,E,4,28,0.6,22.04,M,-13.10,M,02,1008*7C
$GPGGA,054241.00,3027.7287624,N,11439.6135896,E,4,29,0.6,22.06,M,-13.10,M,03,1008*7F
$GPGGA,054242.00,3027.7178850,N,11439.6152266,E,4,28,0.6,22.04,M,-13.10,M,02,1008*71
$GPGGA,054243.00,3027.7068676,N,11439.6169046,E,4,26,0.6,22.07,M,-13.10,M,02,1008*75
$GPGGA,054244.00,3027.6957181,N,11439.6185977,E,4,26,0.6,22.08,M,-13.10,M,02,1008*79
$GPGGA,054245.00,3027.6844649,N,11439.6203422,E,4,26,0.7,22.10,M,-13.10,M,02,1008*7C
$GPGGA,054246.00,3027.6731346,N,11439.6220703,E,4,26,0.6,22.14,M,-13.10,M,03,1008*77
$GPGGA,054247.00,3027.6618678,N,11439.6237583,E,4,29,0.6,22.13,M,-13.10,M,02,1008*7C
$GPGGA,054248.00,3027.6508016,N,11439.6254322,E,4,29,0.6,22.13,M,-13.10,M,01,1008*79
$GPGGA,054249.00,3027.6399660,N,11439.6270648,E,4,30,0.6,22.12,M,-13.10,M,02,1008*7C
$GPGGA,054250.00,3027.6292388,N,11439.6286864,E,4,29,0.6,22.14,M,-13.10,M,02,1008*7E
$GPGGA,054251.00,3027.6184725,N,11439.6302931,E,4,27,0.5,22.18,M,-13.10,M,02,1008*76
$GPGGA,054252.00,3027.6076665,N,11439.6318286,E,4,27,0.6,22.13,M,-13.10,M,02,1008*7B
$GPGGA,054253.00,3027.5968979,N,11439.6333023,E,4,27,0.6,22.09,M,-13.10,M,02,1008*7D
$GPGGA,054254.00,3027.5863155,N,11439.6346933,E,4,26,0.7,22.12,M,-13.10,M,02,1008*78
$GPGGA,054255.00,3027.5758651,N,11439.6360724,E,4,26,0.6,22.16,M,-13.10,M,02,1008*7E
$GPGGA,054256.00,3027.5655118,N,11439.6374671,E,4,27,0.6,22.18,M,-13.10,M,02,1008*7A
$GPGGA,054257.00,3027.5553648,N,11439.6387541,E,4,25,0.6,22.27,M,-13.10,M,03,1008*74
$GPGGA,054258.00,3027.5454145,N,11439.6397974,E,4,30,0.6,22.29,M,-13.10,M,02,1008*70
$GPGGA,054259.00,3027.5356102,N,11439.6406035,E,4,30,0.6,22.38,M,-13.10,M,02,1008*74
$GPGGA,054300.00,3027.5259666,N,11439.6411808,E,4,32,0.6,22.49,M,-13.10,M,02,1008*7C
$GPGGA,054301.00,3027.5164477,N,11439.6415754,E,4,32,0.6,22.65,M,-13.10,M,02,1008*70
$GPGGA,054302.00,3027.5071139,N,11439.6416951,E,4,32,0.6,22.93,M,-13.10,M,02,1008*7E
$GPGGA,054303.00,3027.4980706,N,11439.6413931,E,4,31,0.6,23.18,M,-13.10,M,02,1008*7A
$GPGGA,054304.00,3027.4893448,N,11439.6404350,E,4,30,0.6,23.35,M,-13.10,M,02,1008*70
$GPGGA,054305.00,3027.4809380,N,11439.6387703,E,4,30,0.6,23.60,M,-13.10,M,02,1008*71
$GPGGA,054306.00,3027.4728649,N,11439.6364013,E,4,27,0.6,23.85,M,-13.10,M,02,1008*70
$GPGGA,054307.00,3027.4651174,N,11439.6334350,E,4,25,0.6,24.09,M,-13.10,M,02,1008*7B
$GPGGA,054308.00,3027.4576894,N,11439.6301675,E,4,26,0.6,24.31,M,-13.10,M,02,1008*7E
$GPGGA,054309.00,3027.4507274,N,11439.6265565,E,4,27,0.6,24.64,M,-13.10,M,02,1008*7A
$GPGGA,054310.00,3027.4442708,N,11439.6224340,E,4,29,0.6,24.80,M,-13.10,M,03,1008*70
$GPGGA,054311.00,3027.4380394,N,11439.6179687,E,4,29,0.6,24.96,M,-13.10,M,03,1008*73
$GPGGA,054312.00,3027.4318666,N,11439.6132175,E,4,29,0.6,25.12,M,-13.10,M,02,1008*75
$GPGGA,054313.00,3027.4257449,N,11439.6081952,E,4,30,0.6,25.29,M,-13.10,M,02,1008*75
$GPGGA,054314.00,3027.4197191,N,11439.6028187,E,4,29,0.6,25.46,M,-13.10,M,02,1008*7C
$GPGGA,054315.00,3027.4138726,N,11439.5969669,E,4,30,0.6,25.64,M,-13.10,M,02,1008*76
$GPGGA,054316.00,3027.4082213,N,11439.5906112,E,4,30,0.6,25.80,M,-13.10,M,02,1008*7F
$GPGGA,054317.00,3027.4027702,N,11439.5837631,E,4,28,0.7,25.97,M,-13.10,M,02,1008*7C
$GPGGA,054318.00,3027.3975496,N,11439.5764216,E,4,27,0.6,26.33,M,-13.10,M,02,1008*70
$GPGGA,054319.00,3027.3926672,N,11439.5685220,E,4,27,0.6,26.51,M,-13.10,M,02,1008*7C
$GPGGA,054320.00,3027.3880654,N,11439.5601434,E,4,28,0.6,26.70,M,-13.10,M,02,1008*7B
$GPGGA,054321.00,3027.3836682,N,11439.5513650,E,4,26,0.6,26.93,M,-13.10,M,02,1008*73
$GPGGA,054322.00,3027.3794565,N,11439.5422320,E,4,27,0.6,27.14,M,-13.10,M,02,1008*7C
$GPGGA,054323.00,3027.3755041,N,11439.5327242,E,4,24,0.6,27.40,M,-13.10,M,02,1008*71
$GPGGA,054324.00,3027.3717972,N,11439.5228731,E,4,24,0.7,27.67,M,-13.10,M,02,1008*74
$GPGGA,054325.00,3027.3682532,N,11439.5127408,E,4,24,0.6,27.89,M,-13.10,M,03,1008*7B
$GPGGA,054326.00,3027.3648454,N,11439.5023812,E,4,24,0.6,28.18,M,-13.10,M,02,1008*7B
$GPGGA,054327.00,3027.3616005,N,11439.4921155,E,4,25,0.6,28.41,M,-13.10,M,02,1008*71
$GPGGA,054328.00,3027.3584199,N,11439.4819519,E,4,24,0.6,28.64,M,-13.10,M,02,1008*70
$GPGGA,054329.00,3027.3552826,N,11439.4717261,E,4,27,0.6,28.88,M,-13.10,M,02,1008*71
$GPGGA,054330.00,3027.3521434,N,11439.4614351,E,4,30,0.6,29.09,M,-13.10,M,02,1008*70
$GPGGA,054331.00,3027.3489769,N,11439.4511004,E,4,30,0.6,29.34,M,-13.10,M,03,1008*73
$GPGGA,054332.00,3027.3458029,N,11439.4407918,E,4,27,0.6,29.57,M,-13.10,M,02,1008*7F
$GPGGA,054333.00,3027.3426644,N,11439.4305715,E,4,27,0.6,29.82,M,-13.10,M,02,1008*77
$GPGGA,054334.00,3027.3395293,N,11439.4204066,E,4,28,0.6,30.08,M,-13.10,M,02,1008*78
$GPGGA,054335.00,3027.3364087,N,11439.4102769,E,4,29,0.6,30.33,M,-13.10,M,02,1008*7A
$GPGGA,054336.00,3027.3332972,N,11439.4001743,E,4,29,0.6,30.55,M,-13.10,M,02,1008*7B
$GPGGA,054337.00,3027.3301875,N,11439.3900947,E,4,30,0.6,30.79,M,-13.10,M,03,1008*72
$GPGGA,054338.00,3027.3270834,N,11439.3800066,E,4,29,0.6,31.02,M,-13.10,M,02,1008*7C
$GPGGA,054339.00,3027.3239697,N,11439.3698111,E,4,29,0.6,31.25,M,-13.10,M,02,1008*75
$GPGGA,054340.00,3027.3208536,N,11439.3596771,E,4,30,0.6,31.49,M,-13.10,M,02,1008*78
$GPGGA,054341.00,3027.3178248,N,11439.3498414,E,4,29,0.6,31.73,M,-13.10,M,02,1008*73
$GPGGA,054342.00,3027.3149158,N,11439.3403330,E,4,30,0.6,31.93,M,-13.10,M,02,1008*76
$GPGGA,054343.00,3027.3120212,N,11439.3310088,E,4,27,0.6,32.17,M,-13.10,M,02,1008*74
$GPGGA,054344.00,3027.3091231,N,11439.3216916,E,4,26,0.6,32.35,M,-13.10,M,02,1008*7F
$GPGGA,054345.00,3027.3061777,N,11439.3122644,E,4,26,0.6,32.58,M,-13.10,M,02,1008*7D
$GPGGA,054346.00,3027.3031680,N,11439.3026416,E,4,25,0.6,32.80,M,-13.10,M,02,1008*79
$GPGGA,054347.00,3027.3000928,N,11439.2928078,E,4,26,0.6,33.04,M,-13.10,M,02,1008*70
$GPGGA,054348.00,3027.2969415,N,11439.2827580,E,4,28,0.6,33.25,M,-13.10,M,02,1008*75
$GPGGA,054349.00,3027.2937392,N,11439.2724863,E,4,29,0.6,33.50,M,-13.10,M,02,1008*7E
$GPGGA,054350.00,3027.2904918,N,11439.2619937,E,4,28,0.6,33.76,M,-13.10,M,03,1008*77
$GPGGA,054351.00,3027.2871763,N,11439.2513017,E,4,28,0.6,34.02,M,-13.10,M,02,1008*71
$GPGGA,054352.00,3027.2837963,N,11439.2404158,E,4,29,0.6,34.26,M,-13.10,M,02,1008*7C
$GPGGA,054353.00,3027.2803812,N,11439.2293257,E,4,28,0.6,34.54,M,-13.10,M,02,1008*7E
$GPGGA,054354.00,3027.2769241,N,11439.2180441,E,4,28,0.6,34.81,M,-13.10,M,02,1008*74
$GPGGA,054355.00,3027.2734138,N,11439.2065750,E,4,28,0.6,35.05,M,-13.10,M,02,1008*79
$GPGGA,054356.00,3027.2698277,N,11439.1949380,E,4,28,0.6,35.31,M,-13.10,M,03,1008*7C
$GPGGA,054357.00,3027.2661789,N,11439.1831327,E,4,29,0.6,35.65,M,-13.10,M,02,1008*77
$GPGGA,054358.00,3027.2624890,N,11439.1712018,E,4,28,0.6,35.89,M,-13.10,M,02,1008*76
