$GPGGA,050817.00,3029.2888285,N,11433.4601642,E,4,25,1.4,38.975,M,-13.60,M,03,1002*43
$GPGGA,050818.00,3029.2888290,N,11433.4601660,E,4,25,1.4,38.973,M,-13.60,M,02,1002*4F
$GPGGA,050819.00,3029.2888293,N,11433.4601651,E,4,25,1.4,38.975,M,-13.60,M,02,1002*49
$GPGGA,050820.00,3029.2888283,N,11433.4601648,E,4,25,1.4,38.974,M,-13.60,M,02,1002*4B
$GPGGA,050821.00,3029.2888288,N,11433.4601657,E,4,25,1.4,38.972,M,-13.60,M,02,1002*49
$GPGGA,050822.00,3029.2888291,N,11433.4601675,E,4,25,1.4,38.981,M,-13.60,M,02,1002*4E
$GPGGA,050823.00,3029.2888284,N,11433.4601656,E,4,25,1.4,38.978,M,-13.60,M,01,1002*4F
$GPGGA,050824.00,3029.2888282,N,11433.4601658,E,4,25,1.4,38.978,M,-13.60,M,02,1002*43
$GPGGA,050825.00,3029.2888291,N,11433.4601669,E,4,25,1.4,38.978,M,-13.60,M,02,1002*42
$GPGGA,050826.00,3029.2888280,N,11433.4601641,E,4,25,1.4,38.968,M,-13.60,M,02,1002*4A
$GPGGA,050827.00,3029.2888288,N,11433.4601632,E,4,25,1.4,38.966,M,-13.60,M,03,1002*48
$GPGGA,050828.00,3029.2888277,N,11433.4601671,E,4,25,1.4,38.982,M,-13.60,M,02,1002*4B
$GPGGA,050829.00,3029.2888277,N,11433.4601669,E,4,25,1.4,38.983,M,-13.60,M,02,1002*42
$GPGGA,050830.00,3029.2888285,N,11433.4601673,E,4,25,1.4,38.982,M,-13.60,M,02,1002*4D
$GPGGA,050831.00,3029.2888282,N,11433.4601689,E,4,25,1.4,38.986,M,-13.60,M,02,1002*4A
$GPGGA,050832.00,3029.2888281,N,11433.4601650,E,4,25,1.4,38.977,M,-13.60,M,02,1002*40
$GPGGA,050833.00,3029.2888264,N,11433.4601650,E,4,25,1.0,38.977,M,-13.60,M,02,1002*4E
$GPGGA,050834.00,3029.2888279,N,11433.4601661,E,4,25,1.4,38.982,M,-13.60,M,02,1002*49
$GPGGA,050835.00,3029.2888285,N,11433.4601656,E,4,25,1.4,38.980,M,-13.60,M,02,1002*4D
$GPGGA,050836.00,3029.2888279,N,11433.4601658,E,4,25,1.4,38.982,M,-13.60,M,02,1002*41
$GPGGA,050837.00,3029.2888279,N,11433.4601664,E,4,25,1.4,38.987,M,-13.60,M,02,1002*4A
$GPGGA,050838.00,3029.2888279,N,11433.4601673,E,4,25,1.4,38.985,M,-13.60,M,02,1002*41
$GPGGA,050839.00,3029.2888291,N,11433.4601678,E,4,25,1.4,38.984,M,-13.60,M,02,1002*4C
$GPGGA,050840.00,3029.2888291,N,11433.4601697,E,4,25,1.4,38.992,M,-13.60,M,02,1002*44
$GPGGA,050841.00,3029.2888273,N,11433.4601672,E,4,25,1.4,38.989,M,-13.60,M,02,1002*48
$GPGGA,050842.00,3029.2888281,N,11433.4601678,E,4,25,1.2,38.992,M,-13.60,M,02,1002*40
$GPGGA,050843.00,3029.2888285,N,11433.4601648,E,4,25,1.2,38.988,M,-13.60,M,02,1002*4D
$GPGGA,050844.00,3029.2888284,N,11433.4601662,E,4,26,1.0,38.982,M,-13.60,M,02,1002*48
$GPGGA,050845.00,3029.2888276,N,11433.4601687,E,4,26,1.0,38.991,M,-13.60,M,01,1002*4E
$GPGGA,050846.00,3029.2888279,N,11433.4601675,E,4,27,1.0,38.993,M,-13.60,M,02,1002*4F
$GPGGA,050847.00,3029.2888286,N,11433.4601677,E,4,27,1.0,38.993,M,-13.60,M,02,1002*4C
$GPGGA,050848.00,3029.2888288,N,11433.4601689,E,4,27,1.0,38.992,M,-13.60,M,03,1002*4C
$GPGGA,050849.00,3029.2888274,N,11433.4601660,E,4,27,1.0,38.990,M,-13.60,M,02,1002*4A
$GPGGA,050850.00,3029.2888265,N,11433.4601654,E,4,27,1.0,38.983,M,-13.60,M,01,1002*44
$GPGGA,050851.00,3029.2888267,N,11433.4601657,E,4,27,1.0,38.986,M,-13.60,M,02,1002*42
$GPGGA,050852.00,3029.2888272,N,11433.4601663,E,4,27,1.0,38.983,M,-13.60,M,02,1002*47
$GPGGA,050853.00,3029.2888283,N,11433.4601655,E,4,26,1.2,38.984,M,-13.60,M,02,1002*49
$GPGGA,050854.00,3029.2888287,N,11433.4601679,E,4,26,1.2,38.997,M,-13.60,M,02,1002*46
$GPGGA,050855.00,3029.2888274,N,11433.4601661,E,4,26,1.2,38.992,M,-13.60,M,02,1002*47
$GPGGA,050856.00,3029.2888271,N,11433.4601670,E,4,26,1.2,38.993,M,-13.60,M,02,1002*40
$GPGGA,050857.00,3029.2888287,N,11433.4601680,E,4,26,1.2,38.996,M,-13.60,M,01,1002*41
$GPGGA,050858.00,3029.2888272,N,11433.4601672,E,4,26,1.0,38.992,M,-13.60,M,02,1002*4C
$GPGGA,050859.00,3029.2888263,N,11433.4601686,E,4,26,1.0,38.994,M,-13.60,M,03,1002*41
$GPGGA,050900.00,3029.2888268,N,11433.4601670,E,4,27,1.0,38.989,M,-13.60,M,02,1002*42
$GPGGA,050901.00,3029.2888281,N,11433.4601681,E,4,27,1.0,38.994,M,-13.60,M,01,1002*45
$GPGGA,050902.00,3029.2888284,N,11433.4601688,E,4,27,1.0,38.998,M,-13.60,M,02,1002*45
$GPGGA,050903.00,3029.2888278,N,11433.4601717,E,4,27,1.0,39.005,M,-13.60,M,02,1002*4C
$GPGGA,050904.00,3029.2888276,N,11433.4601698,E,4,27,1.0,38.995,M,-13.60,M,02,1002*42
$GPGGA,050905.00,3029.2888267,N,11433.4601664,E,4,27,1.0,38.992,M,-13.60,M,02,1002*47
$GPGGA,050906.00,3029.2888276,N,11433.4601662,E,4,27,1.0,38.990,M,-13.60,M,02,1002*40
$GPGGA,050907.00,3029.2888275,N,11433.4601673,E,4,27,1.0,38.990,M,-13.60,M,02,1002*42
$GPGGA,050908.00,3029.2888261,N,11433.4601684,E,4,27,1.0,38.999,M,-13.60,M,02,1002*49
$GPGGA,050909.00,3029.2888287,N,11433.4601691,E,4,27,1.0,38.995,M,-13.60,M,02,1002*48
$GPGGA,050910.00,3029.2888282,N,11433.4601684,E,4,27,1.0,38.992,M,-13.60,M,01,1002*45
$GPGGA,050911.00,3029.2888286,N,11433.4601679,E,4,26,1.0,38.993,M,-13.60,M,02,1002*41
$GPGGA,050912.00,3029.2888271,N,11433.4601697,E,4,26,1.2,39.001,M,-13.60,M,02,1002*4B
$GPGGA,050913.00,3029.2888266,N,11433.4601684,E,4,26,1.2,38.998,M,-13.60,M,01,1002*45
$GPGGA,050914.00,3029.2888261,N,11433.4601686,E,4,26,1.2,38.997,M,-13.60,M,02,1002*4B
$GPGGA,050915.00,3029.2888271,N,11433.4601715,E,4,26,1.2,38.999,M,-13.60,M,02,1002*4E
$GPGGA,050916.00,3029.2888270,N,11433.4601702,E,4,26,1.2,38.996,M,-13.60,M,02,1002*45
$GPGGA,050917.00,3029.2888274,N,11433.4601700,E,4,26,1.2,38.996,M,-13.60,M,02,1002*42
$GPGGA,050918.00,3029.2888272,N,11433.4601680,E,4,26,1.2,38.995,M,-13.60,M,02,1002*41
$GPGGA,050919.00,3029.2888270,N,11433.4601679,E,4,26,1.2,38.995,M,-13.60,M,03,1002*45
$GPGGA,050920.00,3029.2888284,N,11433.4601687,E,4,26,1.2,38.993,M,-13.60,M,02,1002*42
$GPGGA,050921.00,3029.2888278,N,11433.4601686,E,4,26,1.2,38.994,M,-13.60,M,02,1002*46
$GPGGA,050922.00,3029.2888272,N,11433.4601685,E,4,26,1.1,38.992,M,-13.60,M,02,1002*49
$GPGGA,050923.00,3029.2888261,N,11433.4601674,E,4,26,1.1,38.992,M,-13.60,M,02,1002*44
$GPGGA,050924.00,3029.2888274,N,11433.4601690,E,4,26,1.1,38.991,M,-13.60,M,02,1002*4E
$GPGGA,050925.00,3029.2888272,N,11433.4601716,E,4,26,1.1,39.000,M,-13.60,M,02,1002*46
$GPGGA,050926.00,3029.2888273,N,11433.4601706,E,4,26,1.1,38.995,M,-13.60,M,02,1002*41
$GPGGA,050927.00,3029.2888293,N,11433.4601717,E,4,26,1.0,39.000,M,-13.60,M,02,1002*4B
$GPGGA,050928.00,3029.2888273,N,11433.4601700,E,4,27,1.0,38.998,M,-13.60,M,02,1002*44
$GPGGA,050929.00,3029.2888280,N,11433.4601687,E,4,26,1.1,38.993,M,-13.60,M,01,1002*4F
$GPGGA,050930.00,3029.2888285,N,11433.4601672,E,4,26,1.1,38.993,M,-13.60,M,02,1002*4B
$GPGGA,050931.00,3029.2888277,N,11433.4601693,E,4,26,1.1,38.995,M,-13.60,M,02,1002*4E
$GPGGA,050932.00,3029.2888284,N,11433.4601695,E,4,25,1.1,38.992,M,-13.60,M,02,1002*43
$GPGGA,050933.00,3029.2888282,N,11433.4601692,E,4,26,1.1,38.991,M,-13.60,M,02,1002*43
$GPGGA,050934.00,3029.2888387,N,11433.4601694,E,4,26,1.1,38.987,M,-13.60,M,02,1002*41
$GPGGA,050935.00,3029.2889627,N,11433.4601691,E,4,25,1.1,38.991,M,-13.60,M,02,1002*4F
$GPGGA,050936.00,3029.2893824,N,11433.4601572,E,4,24,1.1,38.974,M,-13.60,M,02,1002*4E
$GPGGA,050937.00,3029.2900711,N,11433.4601747,E,4,23,1.0,39.002,M,-13.60,M,02,1002*46
$GPGGA,050938.00,3029.2908836,N,11433.4602343,E,4,24,1.0,39.009,M,-13.60,M,02,1002*44
$GPGGA,050939.00,3029.2917630,N,11433.4603693,E,4,25,1.0,39.001,M,-13.60,M,02,1002*43
$GPGGA,050940.00,3029.2926471,N,11433.4605662,E,4,25,1.0,39.012,M,-13.60,M,03,1002*43
$GPGGA,050941.00,3029.2934627,N,11433.4608298,E,4,24,1.0,39.049,M,-13.60,M,02,1002*42
$GPGGA,050942.00,3029.2942101,N,11433.4610715,E,4,24,1.0,39.049,M,-13.60,M,02,1002*4A
$GPGGA,050943.00,3029.2949337,N,11433.4613895,E,4,26,1.0,39.086,M,-13.60,M,02,1002*42
$GPGGA,050944.00,3029.2957672,N,11433.4618041,E,4,25,1.0,39.104,M,-13.60,M,02,1002*4C
$GPGGA,050945.00,3029.2966669,N,11433.4624551,E,4,24,1.0,39.109,M,-13.60,M,02,1002*42
$GPGGA,050946.00,3029.2974332,N,11433.4633545,E,4,23,1.0,39.156,M,-13.60,M,02,1002*47
$GPGGA,050947.00,3029.2979774,N,11433.4643908,E,4,23,1.0,39.177,M,-13.60,M,02,1002*4C
$GPGGA,050948.00,3029.2983094,N,11433.4654289,E,4,22,1.2,39.248,M,-13.60,M,02,1002*47
$GPGGA,050949.00,3029.2985056,N,11433.4662568,E,4,22,1.2,39.290,M,-13.60,M,02,1002*46
$GPGGA,050950.00,3029.2985922,N,11433.4666553,E,4,22,1.2,39.307,M,-13.60,M,03,1002*46
$GPGGA,050951.00,3029.2986530,N,11433.4669910,E,4,23,1.2,39.317,M,-13.60,M,02,1002*4E
$GPGGA,050952.00,3029.2987731,N,11433.4677512,E,4,22,1.2,39.355,M,-13.60,M,02,1002*49
$GPGGA,050953.00,3029.2988928,N,11433.4689572,E,4,20,1.0,39.407,M,-13.60,M,02,1002*46
$GPGGA,050954.00,3029.2990565,N,11433.4705819,E,4,22,1.0,39.478,M,-13.60,M,02,1002*42
$GPGGA,050955.00,3029.2993257,N,11433.4722193,E,4,22,1.0,39.547,M,-13.60,M,02,1002*45
$GPGGA,050956.00,3029.2996904,N,11433.4737659,E,4,25,1.0,39.609,M,-13.60,M,02,1002*45
$GPGGA,050957.00,3029.3003055,N,11433.4755433,E,4,25,1.0,39.633,M,-13.60,M,02,1002*4E
$GPGGA,050958.00,3029.3012742,N,11433.4774483,E,4,26,1.0,39.603,M,-13.60,M,02,1002*48
$GPGGA,050959.00,3029.3027151,N,11433.4793077,E,4,26,1.0,39.691,M,-13.60,M,02,1002*46
$GPGGA,051000.00,3029.3045384,N,11433.4809056,E,4,24,1.0,39.769,M,-13.60,M,03,1002*46
$GPGGA,051001.00,3029.3066734,N,11433.4820754,E,4,25,1.0,39.864,M,-13.60,M,02,1002*45
$GPGGA,051002.00,3029.3090286,N,11433.4827794,E,4,27,1.0,39.904,M,-13.60,M,02,1002*4D
$GPGGA,051003.00,3029.3115466,N,11433.4832533,E,4,27,0.9,39.959,M,-13.60,M,02,1002*43
$GPGGA,051004.00,3029.3141233,N,11433.4836015,E,4,27,0.9,40.047,M,-13.60,M,02,1002*4E
$GPGGA,051005.00,3029.3165730,N,11433.4838319,E,4,26,0.9,40.123,M,-13.60,M,02,1002*4C
$GPGGA,051006.00,3029.3188498,N,11433.4839727,E,4,27,0.9,40.195,M,-13.60,M,02,1002*49
$GPGGA,051007.00,3029.3209494,N,11433.4840324,E,4,28,0.9,40.243,M,-13.60,M,02,1002*40
$GPGGA,051008.00,3029.3228462,N,11433.4840335,E,4,27,0.9,40.286,M,-13.60,M,02,1002*43
$GPGGA,051009.00,3029.3243998,N,11433.4839968,E,4,27,0.9,40.326,M,-13.60,M,02,1002*40
$GPGGA,051010.00,3029.3257245,N,11433.4839371,E,4,27,0.9,40.359,M,-13.60,M,02,1002*4C
$GPGGA,051011.00,3029.3269107,N,11433.4838611,E,4,27,0.9,40.401,M,-13.60,M,03,1002*4C
$GPGGA,051012.00,3029.3279905,N,11433.4837854,E,4,28,0.9,40.434,M,-13.60,M,02,1002*4C
$GPGGA,051013.00,3029.3290350,N,11433.4837675,E,4,28,0.9,40.460,M,-13.60,M,02,1002*4C
$GPGGA,051014.00,3029.3300820,N,11433.4837996,E,4,28,0.9,40.482,M,-13.60,M,02,1002*41
$GPGGA,051015.00,3029.3311186,N,11433.4839089,E,4,28,0.9,40.500,M,-13.60,M,02,1002*47
$GPGGA,051016.00,3029.3321421,N,11433.4841245,E,4,27,0.9,40.533,M,-13.60,M,02,1002*4D
$GPGGA,051017.00,3029.3331150,N,11433.4844396,E,4,27,0.9,40.578,M,-13.60,M,02,1002*4B
$GPGGA,051018.00,3029.3339734,N,11433.4849383,E,4,28,0.9,40.628,M,-13.60,M,02,1002*48
$GPGGA,051019.00,3029.3347055,N,11433.4856127,E,4,28,0.9,40.668,M,-13.60,M,02,1002*46
$GPGGA,051020.00,3029.3353165,N,11433.4864247,E,4,28,0.9,40.687,M,-13.60,M,02,1002*4E
$GPGGA,051021.00,3029.3357505,N,11433.4873865,E,4,28,0.9,40.711,M,-13.60,M,03,1002*4A
$GPGGA,051022.00,3029.3359865,N,11433.4884560,E,4,28,0.9,40.722,M,-13.60,M,02,1002*4D
$GPGGA,051023.00,3029.3360088,N,11433.4895659,E,4,28,0.9,40.743,M,-13.60,M,02,1002*43
$GPGGA,051024.00,3029.3358172,N,11433.4906584,E,4,28,0.9,40.779,M,-13.60,M,02,1002*4A
$GPGGA,051025.00,3029.3355300,N,11433.4917426,E,4,28,0.9,40.806,M,-13.60,M,02,1002*4F
$GPGGA,051026.00,3029.3352830,N,11433.4926705,E,4,28,0.9,40.822,M,-13.60,M,02,1002*45
$GPGGA,051027.00,3029.3351591,N,11433.4931179,E,4,28,0.9,40.833,M,-13.60,M,02,1002*4A
$GPGGA,051028.00,3029.3351457,N,11433.4931535,E,4,28,0.9,40.846,M,-13.60,M,02,1002*40
$GPGGA,051029.00,3029.3351446,N,11433.4931458,E,4,28,0.9,40.810,M,-13.60,M,02,1002*48
$GPGGA,051030.00,3029.3351452,N,11433.4931459,E,4,28,0.9,40.810,M,-13.60,M,02,1002*44
$GPGGA,051031.00,3029.3351450,N,11433.4931461,E,4,28,0.9,40.811,M,-13.60,M,03,1002*4C
$GPGGA,051032.00,3029.3351463,N,11433.4931471,E,4,29,0.9,40.830,M,-13.60,M,02,1002*4D
$GPGGA,051033.00,3029.3351448,N,11433.4931453,E,4,29,0.7,40.824,M,-13.60,M,02,1002*4E
$GPGGA,051034.00,3029.3351449,N,11433.4931446,E,4,29,0.7,40.816,M,-13.60,M,02,1002*4D
$GPGGA,051035.00,3029.3351477,N,11433.4931468,E,4,29,0.7,40.823,M,-13.60,M,02,1002*4B
$GPGGA,051036.00,3029.3351473,N,11433.4931454,E,4,29,0.7,40.824,M,-13.60,M,02,1002*44
$GPGGA,051037.00,3029.3351478,N,11433.4931438,E,4,29,0.7,40.824,M,-13.60,M,01,1002*47
$GPGGA,051038.00,3029.3351469,N,11433.4931435,E,4,29,0.7,40.827,M,-13.60,M,02,1002*45
$GPGGA,051039.00,3029.3351471,N,11433.4931440,E,4,29,0.7,40.822,M,-13.60,M,02,1002*4A
$GPGGA,051040.00,3029.3351489,N,11433.4931459,E,4,29,0.7,40.829,M,-13.60,M,01,1002*43
$GPGGA,051041.00,3029.3351499,N,11433.4931445,E,4,29,0.7,40.827,M,-13.60,M,02,1002*43
$GPGGA,051042.00,3029.3351442,N,11433.4931653,E,4,29,0.7,40.827,M,-13.60,M,03,1002*42
$GPGGA,051043.00,3029.3350926,N,11433.4933693,E,4,29,0.7,40.826,M,-13.60,M,02,1002*43
$GPGGA,051044.00,3029.3350065,N,11433.4940422,E,4,29,0.7,40.849,M,-13.60,M,02,1002*4F
$GPGGA,051045.00,3029.3349325,N,11433.4954340,E,4,29,0.7,40.893,M,-13.60,M,02,1002*40
$GPGGA,051046.00,3029.3347931,N,11433.4976011,E,4,29,0.7,40.962,M,-13.60,M,02,1002*4A
$GPGGA,051047.00,3029.3345698,N,11433.5004195,E,4,29,0.7,41.023,M,-13.60,M,02,1002*48
$GPGGA,051048.00,3029.3342881,N,11433.5037412,E,4,29,0.7,41.100,M,-13.60,M,02,1002*4C
$GPGGA,051049.00,3029.3339241,N,11433.5074565,E,4,29,0.6,41.197,M,-13.60,M,03,1002*4F
$GPGGA,051050.00,3029.3334636,N,11433.5115287,E,4,29,0.6,41.224,M,-13.60,M,02,1002*49
$GPGGA,051051.00,3029.3329244,N,11433.5159247,E,4,29,0.6,41.296,M,-13.60,M,02,1002*48
$GPGGA,051052.00,3029.3323435,N,11433.5206310,E,4,29,0.6,41.334,M,-13.60,M,02,1002*42
$GPGGA,051053.00,3029.3311722,N,11433.5306136,E,4,29,0.6,41.525,M,-13.60,M,02,1002*46
$GPGGA,051054.00,3029.3307943,N,11433.5356022,E,4,29,0.6,41.676,M,-13.60,M,02,1002*4B
$GPGGA,051055.00,3029.3305694,N,11433.5409365,E,4,29,0.6,41.867,M,-13.60,M,02,1002*4E
$GPGGA,051056.00,3029.3291985,N,11433.5471909,E,4,28,0.6,41.898,M,-13.60,M,02,1002*40
$GPGGA,051057.00,3029.3285055,N,11433.5527450,E,4,29,0.6,42.010,M,-13.60,M,02,1002*49
$GPGGA,051058.00,3029.3277505,N,11433.5583805,E,4,29,0.6,42.110,M,-13.60,M,02,1002*48
$GPGGA,051059.00,3029.3269206,N,11433.5641262,E,4,29,0.6,42.222,M,-13.60,M,03,1002*47
$GPGGA,051100.00,3029.3260316,N,11433.5699866,E,4,29,0.6,42.314,M,-13.60,M,02,1002*4D
$GPGGA,051101.00,3029.3251190,N,11433.5759594,E,4,29,0.6,42.390,M,-13.60,M,02,1002*43
$GPGGA,051102.00,3029.3242064,N,11433.5820615,E,4,29,0.6,42.468,M,-13.60,M,01,1002*40
$GPGGA,051103.00,3029.3232981,N,11433.5882566,E,4,29,0.6,42.512,M,-13.60,M,02,1002*44
$GPGGA,051104.00,3029.3224073,N,11433.5944958,E,4,29,0.6,42.565,M,-13.60,M,02,1002*4A
$GPGGA,051105.00,3029.3215277,N,11433.6007840,E,4,29,0.6,42.586,M,-13.60,M,02,1002*47
$GPGGA,051106.00,3029.3206529,N,11433.6071203,E,4,29,0.6,42.628,M,-13.60,M,02,1002*41
$GPGGA,051107.00,3029.3197737,N,11433.6135294,E,4,29,0.6,42.656,M,-13.60,M,02,1002*40
$GPGGA,051108.00,3029.3188666,N,11433.6200607,E,4,29,0.6,42.676,M,-13.60,M,02,1002*4D
$GPGGA,051109.00,3029.3179266,N,11433.6267140,E,4,29,0.6,42.687,M,-13.60,M,02,1002*4D
$GPGGA,051110.00,3029.3169589,N,11433.6334675,E,4,29,0.6,42.721,M,-13.60,M,01,1002*4A
$GPGGA,051111.00,3029.3159801,N,11433.6403070,E,4,29,0.6,42.767,M,-13.60,M,02,1002*44
$GPGGA,051112.00,3029.3149879,N,11433.6471918,E,4,29,0.6,42.802,M,-13.60,M,02,1002*47
$GPGGA,051113.00,3029.3139866,N,11433.6541133,E,4,29,0.6,42.835,M,-13.60,M,02,1002*48
$GPGGA,051114.00,3029.3129802,N,11433.6610076,E,4,29,0.6,42.870,M,-13.60,M,02,1002*4A
$GPGGA,051115.00,3029.3119775,N,11433.6678456,E,4,29,0.6,42.899,M,-13.60,M,02,1002*48
$GPGGA,051116.00,3029.3109934,N,11433.6746731,E,4,29,0.6,42.940,M,-13.60,M,02,1002*4A
$GPGGA,051117.00,3029.3100315,N,11433.6815170,E,4,29,0.6,42.982,M,-13.60,M,01,1002*4C
$GPGGA,051118.00,3029.3090656,N,11433.6884085,E,4,29,0.6,43.022,M,-13.60,M,02,1002*4B
$GPGGA,051119.00,3029.3080855,N,11433.6953749,E,4,29,0.6,43.048,M,-13.60,M,02,1002*46
$GPGGA,051120.00,3029.3070955,N,11433.7024443,E,4,29,0.6,43.092,M,-13.60,M,03,1002*45
$GPGGA,051121.00,3029.3060884,N,11433.7096166,E,4,29,0.6,43.113,M,-13.60,M,02,1002*4A
$GPGGA,051122.00,3029.3050659,N,11433.7168739,E,4,29,0.6,43.157,M,-13.60,M,02,1002*48
$GPGGA,051123.00,3029.3040268,N,11433.7242173,E,4,29,0.6,43.199,M,-13.60,M,02,1002*4F
$GPGGA,051124.00,3029.3029843,N,11433.7316015,E,4,29,0.6,43.228,M,-13.60,M,02,1002*4C
$GPGGA,051125.00,3029.3019499,N,11433.7388800,E,4,29,0.6,43.262,M,-13.60,M,02,1002*40
$GPGGA,051126.00,3029.3009321,N,11433.7460462,E,4,29,0.6,43.291,M,-13.60,M,02,1002*43
$GPGGA,051127.00,3029.2999026,N,11433.7532530,E,4,29,0.6,43.326,M,-13.60,M,02,1002*4A
$GPGGA,051128.00,3029.2988571,N,11433.7605609,E,4,29,0.6,43.331,M,-13.60,M,02,1002*4A
$GPGGA,051129.00,3029.2978149,N,11433.7679520,E,4,28,0.6,43.321,M,-13.60,M,03,1002*49
$GPGGA,051130.00,3029.2967938,N,11433.7752802,E,4,29,0.6,43.315,M,-13.60,M,02,1002*43
$GPGGA,051131.00,3029.2958019,N,11433.7824028,E,4,28,0.6,43.264,M,-13.60,M,02,1002*4C
$GPGGA,051132.00,3029.2948339,N,11433.7893053,E,4,28,0.6,43.236,M,-13.60,M,02,1002*48
$GPGGA,051133.00,3029.2939014,N,11433.7959775,E,4,28,0.6,43.189,M,-13.60,M,02,1002*40
$GPGGA,051134.00,3029.2930265,N,11433.8024164,E,4,26,0.6,43.162,M,-13.60,M,02,1002*4B
$GPGGA,051135.00,3029.2922246,N,11433.8086169,E,4,27,0.6,43.132,M,-13.60,M,02,1002*49
$GPGGA,051136.00,3029.2914949,N,11433.8145509,E,4,29,0.6,43.106,M,-13.60,M,02,1002*4E
$GPGGA,051137.00,3029.2908364,N,11433.8201014,E,4,27,0.6,43.079,M,-13.60,M,02,1002*4A
$GPGGA,051138.00,3029.2902352,N,11433.8252650,E,4,27,0.6,43.066,M,-13.60,M,02,1002*44
$GPGGA,051139.00,3029.2896316,N,11433.8300977,E,4,28,0.6,43.054,M,-13.60,M,03,1002*4A
$GPGGA,051140.00,3029.2890591,N,11433.8344932,E,4,28,0.6,43.060,M,-13.60,M,02,1002*4C
$GPGGA,051141.00,3029.2885424,N,11433.8383039,E,4,29,0.6,43.082,M,-13.60,M,02,1002*42
$GPGGA,051142.00,3029.2881057,N,11433.8416571,E,4,29,0.6,43.107,M,-13.60,M,02,1002*4B
$GPGGA,051143.00,3029.2879372,N,11433.8448724,E,4,29,0.6,43.179,M,-13.60,M,02,1002*49
$GPGGA,051144.00,3029.2883916,N,11433.8480867,E,4,29,0.6,43.327,M,-13.60,M,02,1002*46
$GPGGA,051145.00,3029.2895296,N,11433.8512169,E,4,29,0.6,43.498,M,-13.60,M,02,1002*4D
$GPGGA,051146.00,3029.2913549,N,11433.8540543,E,4,29,0.6,43.695,M,-13.60,M,02,1002*40
$GPGGA,051147.00,3029.2938369,N,11433.8563864,E,4,29,0.6,43.911,M,-13.60,M,02,1002*46
$GPGGA,051148.00,3029.2968923,N,11433.8580794,E,4,29,0.6,44.124,M,-13.60,M,02,1002*4C
$GPGGA,051149.00,3029.3002651,N,11433.8595006,E,4,29,0.6,44.349,M,-13.60,M,01,1002*41
$GPGGA,051150.00,3029.3038257,N,11433.8610203,E,4,29,0.6,44.611,M,-13.60,M,02,1002*40
$GPGGA,051151.00,3029.3076062,N,11433.8626226,E,4,29,0.6,44.856,M,-13.60,M,02,1002*40
$GPGGA,051152.00,3029.3116053,N,11433.8643080,E,4,27,0.6,45.144,M,-13.60,M,02,1002*4E
$GPGGA,051153.00,3029.3157946,N,11433.8660669,E,4,28,0.6,45.413,M,-13.60,M,02,1002*4F
$GPGGA,051154.00,3029.3200824,N,11433.8678581,E,4,27,0.6,45.679,M,-13.60,M,02,1002*41
$GPGGA,051155.00,3029.3243071,N,11433.8696386,E,4,27,0.6,45.953,M,-13.60,M,02,1002*49
$GPGGA,051156.00,3029.3283345,N,11433.8713584,E,4,27,0.6,46.227,M,-13.60,M,02,1002*41
$GPGGA,051157.00,3029.3319855,N,11433.8729668,E,4,28,0.6,46.416,M,-13.60,M,03,1002*4A
$GPGGA,051158.00,3029.3352184,N,11433.8745210,E,4,27,0.6,46.595,M,-13.60,M,02,1002*4A
$GPGGA,051159.00,3029.3381285,N,11433.8761390,E,4,29,0.6,46.730,M,-13.60,M,02,1002*4B
$GPGGA,051200.00,3029.3407329,N,11433.8780626,E,4,28,0.6,46.923,M,-13.60,M,02,1002*40
$GPGGA,051201.00,3029.3429945,N,11433.8804024,E,4,28,0.6,47.029,M,-13.60,M,02,1002*48
$GPGGA,051202.00,3029.3448626,N,11433.8832917,E,4,29,0.6,47.051,M,-13.60,M,02,1002*44
$GPGGA,051203.00,3029.3460198,N,11433.8866725,E,4,29,0.6,47.082,M,-13.60,M,02,1002*4D
$GPGGA,051204.00,3029.3463426,N,11433.8904376,E,4,28,0.6,47.125,M,-13.60,M,02,1002*43
$GPGGA,051205.00,3029.3459303,N,11433.8944574,E,4,27,0.6,47.124,M,-13.60,M,02,1002*45
$GPGGA,051206.00,3029.3453065,N,11433.8988371,E,4,26,0.6,47.129,M,-13.60,M,01,1002*43
$GPGGA,051207.00,3029.3446565,N,11433.9036144,E,4,27,0.6,47.175,M,-13.60,M,02,1002*41
$GPGGA,051208.00,3029.3440037,N,11433.9087524,E,4,28,0.6,47.191,M,-13.60,M,03,1002*46
$GPGGA,051209.00,3029.3433108,N,11433.9142033,E,4,27,0.6,47.236,M,-13.60,M,02,1002*45
$GPGGA,051210.00,3029.3426394,N,11433.9199587,E,4,28,0.6,47.279,M,-13.60,M,02,1002*46
$GPGGA,051211.00,3029.3419634,N,11433.9260698,E,4,28,0.6,47.323,M,-13.60,M,02,1002*42
$GPGGA,051212.00,3029.3412391,N,11433.9324968,E,4,28,0.6,47.395,M,-13.60,M,02,1002*4C
$GPGGA,051213.00,3029.3403835,N,11433.9391887,E,4,28,0.6,47.525,M,-13.60,M,02,1002*4B
$GPGGA,051214.00,3029.3394695,N,11433.9461209,E,4,27,0.6,47.636,M,-13.60,M,03,1002*4A
$GPGGA,051215.00,3029.3385940,N,11433.9532431,E,4,27,0.6,47.733,M,-13.60,M,02,1002*43
$GPGGA,051216.00,3029.3377096,N,11433.9604483,E,4,29,0.6,47.867,M,-13.60,M,02,1002*40
$GPGGA,051217.00,3029.3367853,N,11433.9677229,E,4,28,0.6,48.027,M,-13.60,M,02,1002*41
$GPGGA,051218.00,3029.3357995,N,11433.9750208,E,4,28,0.6,48.174,M,-13.60,M,02,1002*46
$GPGGA,051219.00,3029.3347722,N,11433.9823132,E,4,28,0.6,48.316,M,-13.60,M,02,1002*43
$GPGGA,051220.00,3029.3337342,N,11433.9895813,E,4,29,0.6,48.479,M,-13.60,M,02,1002*44
$GPGGA,051221.00,3029.3327449,N,11433.9968436,E,4,29,0.6,48.623,M,-13.60,M,01,1002*4E
$GPGGA,051222.00,3029.3317789,N,11434.0041772,E,4,29,0.6,48.770,M,-13.60,M,02,1002*4A
$GPGGA,051223.00,3029.3308140,N,11434.0116269,E,4,28,0.6,48.909,M,-13.60,M,01,1002*48
$GPGGA,051224.00,3029.3299386,N,11434.0192049,E,4,26,0.6,49.074,M,-13.60,M,02,1002*4D
$GPGGA,051225.00,3029.3291623,N,11434.0268736,E,4,27,0.6,49.270,M,-13.60,M,02,1002*40
$GPGGA,051226.00,3029.3284593,N,11434.0345226,E,4,29,0.6,49.430,M,-13.60,M,02,1002*49
$GPGGA,051227.00,3029.3278428,N,11434.0421551,E,4,29,0.6,49.597,M,-13.60,M,02,1002*44
$GPGGA,051228.00,3029.3271947,N,11434.0498476,E,4,29,0.6,49.754,M,-13.60,M,02,1002*4D
$GPGGA,051229.00,3029.3266277,N,11434.0576264,E,4,29,0.6,49.909,M,-13.60,M,02,1002*40
$GPGGA,051230.00,3029.3261759,N,11434.0654989,E,4,29,0.6,50.072,M,-13.60,M,02,1002*40
$GPGGA,051231.00,3029.3257349,N,11434.0734757,E,4,29,0.6,50.260,M,-13.60,M,02,1002*4A
$GPGGA,051232.00,3029.3252478,N,11434.0815861,E,4,29,0.6,50.438,M,-13.60,M,02,1002*44
$GPGGA,051233.00,3029.3246827,N,11434.0898254,E,4,29,0.6,50.642,M,-13.60,M,02,1002*40
$GPGGA,051234.00,3029.3239900,N,11434.0981958,E,4,29,0.6,50.825,M,-13.60,M,02,1002*4A
$GPGGA,051235.00,3029.3232058,N,11434.1067104,E,4,28,0.6,50.985,M,-13.60,M,02,1002*4F
$GPGGA,051236.00,3029.3223417,N,11434.1153666,E,4,28,0.6,51.140,M,-13.60,M,02,1002*46
$GPGGA,051237.00,3029.3214160,N,11434.1241592,E,4,26,0.6,51.264,M,-13.60,M,02,1002*45
$GPGGA,051238.00,3029.3203765,N,11434.1330751,E,4,25,0.6,51.407,M,-13.60,M,02,1002*45
$GPGGA,051239.00,3029.3192078,N,11434.1421120,E,4,25,0.6,51.522,M,-13.60,M,02,1002*45
$GPGGA,051240.00,3029.3179467,N,11434.1512775,E,4,26,0.6,51.610,M,-13.60,M,03,1002*43
$GPGGA,051241.00,3029.3166218,N,11434.1605833,E,4,27,0.6,51.664,M,-13.60,M,02,1002*49
$GPGGA,051242.00,3029.3152918,N,11434.1700439,E,4,24,0.6,51.730,M,-13.60,M,02,1002*47
$GPGGA,051243.00,3029.3139599,N,11434.1796522,E,4,26,0.6,51.780,M,-13.60,M,02,1002*43
$GPGGA,051244.00,3029.3126011,N,11434.1894141,E,4,27,0.6,51.812,M,-13.60,M,02,1002*46
$GPGGA,051245.00,3029.3112124,N,11434.1993247,E,4,27,0.6,51.823,M,-13.60,M,01,1002*45
$GPGGA,051246.00,3029.3098029,N,11434.2093906,E,4,28,0.6,51.804,M,-13.60,M,02,1002*44
$GPGGA,051247.00,3029.3083573,N,11434.2196072,E,4,28,0.6,51.775,M,-13.60,M,02,1002*42
$GPGGA,051248.00,3029.3068623,N,11434.2299274,E,4,27,0.6,51.747,M,-13.60,M,02,1002*48
$GPGGA,051249.00,3029.3053577,N,11434.2402771,E,4,25,0.6,51.684,M,-13.60,M,02,1002*4B
$GPGGA,051250.00,3029.3038403,N,11434.2506664,E,4,25,0.6,51.589,M,-13.60,M,02,1002*42
$GPGGA,051251.00,3029.3023203,N,11434.2611100,E,4,26,0.6,51.475,M,-13.60,M,02,1002*4E
$GPGGA,051252.00,3029.3007729,N,11434.2716126,E,4,27,0.6,51.375,M,-13.60,M,02,1002*42
$GPGGA,051253.00,3029.2992226,N,11434.2821664,E,4,27,0.6,51.249,M,-13.60,M,03,1002*48
$GPGGA,051254.00,3029.2976992,N,11434.2926747,E,4,27,0.6,51.072,M,-13.60,M,02,1002*4C
$GPGGA,051255.00,3029.2962007,N,11434.3030944,E,4,28,0.6,50.897,M,-13.60,M,02,1002*42
$GPGGA,051256.00,3029.2947135,N,11434.3134429,E,4,27,0.6,50.709,M,-13.60,M,02,1002*42
$GPGGA,051257.00,3029.2932213,N,11434.3237446,E,4,24,0.6,50.492,M,-13.60,M,02,1002*4D
$GPGGA,051258.00,3029.2917486,N,11434.3340347,E,4,27,0.6,50.261,M,-13.60,M,01,1002*42
$GPGGA,051259.00,3029.2903126,N,11434.3443261,E,4,28,0.6,50.029,M,-13.60,M,02,1002*4A
$GPGGA,051300.00,3029.2888680,N,11434.3546158,E,4,28,0.6,49.758,M,-13.60,M,02,1002*4A
$GPGGA,051301.00,3029.2873903,N,11434.3649021,E,4,26,0.6,49.471,M,-13.60,M,02,1002*4E
$GPGGA,051302.00,3029.2859206,N,11434.3751873,E,4,25,0.6,49.183,M,-13.60,M,02,1002*47
$GPGGA,051303.00,3029.2844520,N,11434.3854765,E,4,27,0.6,48.878,M,-13.60,M,02,1002*45
$GPGGA,051304.00,3029.2829813,N,11434.3957910,E,4,27,0.6,48.556,M,-13.60,M,02,1002*4B
$GPGGA,051305.00,3029.2815035,N,11434.4061515,E,4,27,0.6,48.154,M,-13.50,M,02,1002*4E
$GPGGA,051306.00,3029.2800175,N,11434.4165733,E,4,28,0.6,47.840,M,-13.50,M,02,1002*43
$GPGGA,051307.00,3029.2785174,N,11434.4270531,E,4,28,0.6,47.512,M,-13.50,M,02,1002*4C
$GPGGA,051308.00,3029.2769970,N,11434.4375929,E,4,29,0.6,47.183,M,-13.50,M,02,1002*41
$GPGGA,051309.00,3029.2754949,N,11434.4481946,E,4,29,0.6,46.858,M,-13.50,M,02,1002*4F
$GPGGA,051310.00,3029.2740122,N,11434.4588442,E,4,29,0.6,46.514,M,-13.50,M,02,1002*43
$GPGGA,051311.00,3029.2725250,N,11434.4695360,E,4,29,0.6,46.156,M,-13.50,M,02,1002*4D
$GPGGA,051312.00,3029.2710202,N,11434.4802628,E,4,28,0.6,45.834,M,-13.50,M,02,1002*49
$GPGGA,051313.00,3029.2694940,N,11434.4910073,E,4,29,0.6,45.543,M,-13.50,M,02,1002*4E
$GPGGA,051314.00,3029.2679515,N,11434.5017831,E,4,28,0.6,45.222,M,-13.50,M,02,1002*46
$GPGGA,051315.00,3029.2664074,N,11434.5125916,E,4,28,0.6,44.882,M,-13.50,M,02,1002*4C
$GPGGA,051316.00,3029.2648717,N,11434.5234317,E,4,27,0.6,44.545,M,-13.50,M,02,1002*42
$GPGGA,051317.00,3029.2633302,N,11434.5342983,E,4,28,0.6,44.209,M,-13.50,M,03,1002*49
$GPGGA,051318.00,3029.2617609,N,11434.5451927,E,4,26,0.6,43.865,M,-13.50,M,02,1002*4D
$GPGGA,051319.00,3029.2602061,N,11434.5560966,E,4,27,0.6,43.549,M,-13.50,M,02,1002*44
$GPGGA,051320.00,3029.2587085,N,11434.5669578,E,4,26,0.6,43.216,M,-13.50,M,02,1002*4F
$GPGGA,051321.00,3029.2572210,N,11434.5777160,E,4,26,0.6,42.886,M,-13.50,M,02,1002*4B
$GPGGA,051322.00,3029.2557133,N,11434.5883381,E,4,28,0.6,42.564,M,-13.50,M,03,1002*4A
$GPGGA,051323.00,3029.2541905,N,11434.5988297,E,4,26,0.7,42.244,M,-13.50,M,03,1002*47
$GPGGA,051324.00,3029.2526597,N,11434.6091918,E,4,25,0.6,41.905,M,-13.50,M,02,1002*46
$GPGGA,051325.00,3029.2511275,N,11434.6194239,E,4,28,0.6,41.578,M,-13.50,M,02,1002*4F
$GPGGA,051326.00,3029.2496477,N,11434.6295409,E,4,31,0.5,41.263,M,-13.50,M,02,1002*47
$GPGGA,051327.00,3029.2482129,N,11434.6395296,E,4,31,0.5,40.959,M,-13.50,M,02,1002*4F
$GPGGA,051328.00,3029.2467874,N,11434.6493944,E,4,31,0.5,40.663,M,-13.50,M,02,1002*49
$GPGGA,051329.00,3029.2453864,N,11434.6591402,E,4,31,0.5,40.353,M,-13.50,M,03,1002*45
$GPGGA,051330.00,3029.2439745,N,11434.6688131,E,4,31,0.5,40.040,M,-13.50,M,02,1002*43
$GPGGA,051331.00,3029.2425609,N,11434.6784311,E,4,31,0.5,39.738,M,-13.50,M,02,1002*4D
$GPGGA,051332.00,3029.2412006,N,11434.6879404,E,4,29,0.6,39.492,M,-13.50,M,02,1002*44
$GPGGA,051333.00,3029.2398839,N,11434.6973143,E,4,27,0.6,39.186,M,-13.50,M,02,1002*47
$GPGGA,051334.00,3029.2386004,N,11434.7065032,E,4,27,0.6,38.907,M,-13.50,M,02,1002*41
$GPGGA,051335.00,3029.2373796,N,11434.7154805,E,4,29,0.5,38.641,M,-13.50,M,02,1002*49
$GPGGA,051336.00,3029.2362020,N,11434.7242406,E,4,31,0.5,38.365,M,-13.50,M,03,1002*40
$GPGGA,051337.00,3029.2350606,N,11434.7327834,E,4,31,0.5,38.128,M,-13.50,M,02,1002*47
$GPGGA,051338.00,3029.2339518,N,11434.7410783,E,4,31,0.5,37.896,M,-13.50,M,02,1002*48
$GPGGA,051339.00,3029.2328716,N,11434.7490951,E,4,31,0.5,37.688,M,-13.50,M,02,1002*4D
$GPGGA,051340.00,3029.2318156,N,11434.7567366,E,4,29,0.5,37.530,M,-13.50,M,02,1002*4C
$GPGGA,051341.00,3029.2308142,N,11434.7639309,E,4,31,0.5,37.392,M,-13.50,M,02,1002*4F
$GPGGA,051342.00,3029.2298698,N,11434.7706238,E,4,31,0.5,37.255,M,-13.50,M,02,1002*40
$GPGGA,051343.00,3029.2289815,N,11434.7767965,E,4,31,0.5,37.110,M,-13.50,M,02,1002*4C
$GPGGA,051344.00,3029.2281728,N,11434.7824253,E,4,31,0.5,36.992,M,-13.50,M,01,1002*44
$GPGGA,051345.00,3029.2274356,N,11434.7874798,E,4,30,0.5,36.904,M,-13.50,M,02,1002*48
$GPGGA,051346.00,3029.2267980,N,11434.7918604,E,4,31,0.5,36.823,M,-13.50,M,02,1002*42
$GPGGA,051347.00,3029.2262867,N,11434.7953783,E,4,31,0.5,36.758,M,-13.50,M,02,1002*4C
$GPGGA,051348.00,3029.2259250,N,11434.7978955,E,4,31,0.5,36.716,M,-13.50,M,02,1002*43
$GPGGA,051349.00,3029.2256970,N,11434.7994828,E,4,31,0.5,36.682,M,-13.50,M,02,1002*41
$GPGGA,051350.00,3029.2255237,N,11434.8007388,E,4,31,0.5,36.670,M,-13.50,M,02,1002*42
$GPGGA,051351.00,3029.2253833,N,11434.8017606,E,4,31,0.5,36.661,M,-13.50,M,02,1002*49
$GPGGA,051352.00,3029.2252869,N,11434.8024543,E,4,31,0.5,36.655,M,-13.50,M,02,1002*41
$GPGGA,051353.00,3029.2252392,N,11434.8028058,E,4,31,0.5,36.648,M,-13.50,M,01,1002*43
$GPGGA,051354.00,3029.2252320,N,11434.8028633,E,4,31,0.5,36.647,M,-13.50,M,02,1002*4A
$GPGGA,051355.00,3029.2252327,N,11434.8028638,E,4,31,0.5,36.652,M,-13.50,M,03,1002*42
$GPGGA,051356.00,3029.2252318,N,11434.8028617,E,4,31,0.5,36.658,M,-13.50,M,02,1002*4B
$GPGGA,051357.00,3029.2252327,N,11434.8028624,E,4,31,0.5,36.663,M,-13.50,M,02,1002*4E
$GPGGA,051358.00,3029.2252318,N,11434.8028621,E,4,31,0.5,36.660,M,-13.50,M,02,1002*4B
$GPGGA,051359.00,3029.2252328,N,11434.8028608,E,4,31,0.5,36.657,M,-13.50,M,01,1002*45
$GPGGA,051400.00,3029.2252325,N,11434.8028607,E,4,31,0.5,36.658,M,-13.50,M,02,1002*40
$GPGGA,051401.00,3029.2252324,N,11434.8028601,E,4,31,0.5,36.657,M,-13.50,M,02,1002*49
$GPGGA,051402.00,3029.2252319,N,11434.8028594,E,4,31,0.5,36.664,M,-13.50,M,02,1002*4B
$GPGGA,051403.00,3029.2252334,N,11434.8028599,E,4,31,0.5,36.663,M,-13.50,M,02,1002*4F
$GPGGA,051404.00,3029.2252329,N,11434.8028610,E,4,31,0.5,36.659,M,-13.50,M,02,1002*4F
$GPGGA,051405.00,3029.2252316,N,11434.8028610,E,4,31,0.5,36.662,M,-13.50,M,02,1002*4A
$GPGGA,051406.00,3029.2252315,N,11434.8028614,E,4,31,0.5,36.666,M,-13.50,M,03,1002*4B
$GPGGA,051407.00,3029.2252318,N,11434.8028606,E,4,31,0.5,36.662,M,-13.50,M,02,1002*41
$GPGGA,051408.00,3029.2252322,N,11434.8028594,E,4,31,0.5,36.661,M,-13.50,M,02,1002*4C
$GPGGA,051409.00,3029.2252317,N,11434.8028606,E,4,31,0.5,36.665,M,-13.50,M,02,1002*47
$GPGGA,051410.00,3029.2252318,N,11434.8028596,E,4,31,0.5,36.666,M,-13.50,M,02,1002*49
$GPGGA,051411.00,3029.2252323,N,11434.8028598,E,4,31,0.5,36.667,M,-13.50,M,02,1002*4F
$GPGGA,051412.00,3029.2252323,N,11434.8028605,E,4,31,0.5,36.679,M,-13.50,M,02,1002*44
$GPGGA,051413.00,3029.2252331,N,11434.8028588,E,4,31,0.5,36.669,M,-13.50,M,02,1002*41
$GPGGA,051414.00,3029.2252329,N,11434.8028587,E,4,31,0.5,36.669,M,-13.50,M,02,1002*40
$GPGGA,051415.00,3029.2252323,N,11434.8028594,E,4,31,0.5,36.671,M,-13.50,M,02,1002*40
$GPGGA,051416.00,3029.2252316,N,11434.8028594,E,4,31,0.5,36.669,M,-13.50,M,03,1002*4D
$GPGGA,051417.00,3029.2252321,N,11434.8028587,E,4,31,0.5,36.670,M,-13.50,M,02,1002*43
$GPGGA,051418.00,3029.2252340,N,11434.8028593,E,4,31,0.5,36.672,M,-13.50,M,02,1002*4C
$GPGGA,051419.00,3029.2252337,N,11434.8028589,E,4,31,0.5,36.672,M,-13.50,M,02,1002*46
$GPGGA,051420.00,3029.2252326,N,11434.8028577,E,4,31,0.5,36.671,M,-13.50,M,02,1002*4E
$GPGGA,051421.00,3029.2252334,N,11434.8028595,E,4,31,0.5,36.671,M,-13.50,M,02,1002*40
$GPGGA,051422.00,3029.2252327,N,11434.8028592,E,4,31,0.5,36.671,M,-13.50,M,02,1002*46
$GPGGA,051423.00,3029.2252323,N,11434.8028588,E,4,31,0.5,36.673,M,-13.50,M,02,1002*4A
$GPGGA,051424.00,3029.2252332,N,11434.8028576,E,4,31,0.5,36.677,M,-13.50,M,02,1002*48
$GPGGA,051425.00,3029.2252334,N,11434.8028581,E,4,31,0.5,36.677,M,-13.50,M,01,1002*44
$GPGGA,051426.00,3029.2252329,N,11434.8028587,E,4,31,0.5,36.678,M,-13.50,M,02,1002*41
$GPGGA,051427.00,3029.2252317,N,11434.8028674,E,4,31,0.5,36.679,M,-13.50,M,02,1002*43
$GPGGA,051428.00,3029.2252053,N,11434.8030619,E,4,31,0.5,36.681,M,-13.50,M,02,1002*4A
$GPGGA,051429.00,3029.2251103,N,11434.8037617,E,4,31,0.5,36.670,M,-13.50,M,02,1002*4B
$GPGGA,051430.00,3029.2249126,N,11434.8052439,E,4,31,0.5,36.668,M,-13.50,M,02,1002*49
$GPGGA,051431.00,3029.2246143,N,11434.8075236,E,4,31,0.5,36.623,M,-13.50,M,02,1002*47
$GPGGA,051432.00,3029.2242106,N,11434.8105197,E,4,31,0.5,36.590,M,-13.50,M,02,1002*44
$GPGGA,051433.00,3029.2237160,N,11434.8141257,E,4,31,0.5,36.545,M,-13.50,M,02,1002*40
$GPGGA,051434.00,3029.2231481,N,11434.8182501,E,4,31,0.5,36.505,M,-13.50,M,02,1002*44
$GPGGA,051435.00,3029.2225071,N,11434.8228009,E,4,31,0.5,36.508,M,-13.50,M,02,1002*48
$GPGGA,051436.00,3029.2218021,N,11434.8277303,E,4,31,0.5,36.503,M,-13.50,M,02,1002*48
$GPGGA,051437.00,3029.2210291,N,11434.8330167,E,4,31,0.5,36.486,M,-13.50,M,03,1002*47
$GPGGA,051438.00,3029.2201967,N,11434.8386666,E,4,30,0.6,36.427,M,-13.50,M,02,1002*49
$GPGGA,051439.00,3029.2193083,N,11434.8446865,E,4,30,0.6,36.374,M,-13.50,M,03,1002*45
$GPGGA,051440.00,3029.2183672,N,11434.8510565,E,4,30,0.6,36.279,M,-13.50,M,02,1002*40
$GPGGA,051441.00,3029.2174031,N,11434.8577289,E,4,30,0.5,36.318,M,-13.50,M,02,1002*49
$GPGGA,051442.00,3029.2164131,N,11434.8646895,E,4,31,0.5,36.317,M,-13.50,M,02,1002*42
$GPGGA,051443.00,3029.2153729,N,11434.8719128,E,4,30,0.5,36.326,M,-13.50,M,02,1002*4F
$GPGGA,051444.00,3029.2142974,N,11434.8793843,E,4,31,0.5,36.360,M,-13.50,M,02,1002*4B
$GPGGA,051445.00,3029.2132109,N,11434.8870724,E,4,31,0.5,36.455,M,-13.50,M,02,1002*42
$GPGGA,051446.00,3029.2120998,N,11434.8949677,E,4,30,0.6,36.490,M,-13.50,M,02,1002*45
$GPGGA,051447.00,3029.2109735,N,11434.9030503,E,4,30,0.5,36.570,M,-13.50,M,02,1002*4C
$GPGGA,051448.00,3029.2098037,N,11434.9113090,E,4,31,0.5,36.668,M,-13.50,M,03,1002*4A
$GPGGA,051449.00,3029.2085956,N,11434.9197364,E,4,31,0.5,36.771,M,-13.50,M,02,1002*45
$GPGGA,051450.00,3029.2073455,N,11434.9283161,E,4,31,0.5,36.857,M,-13.50,M,02,1002*40
$GPGGA,051451.00,3029.2061135,N,11434.9370626,E,4,31,0.5,36.953,M,-13.50,M,02,1002*4D
$GPGGA,051452.00,3029.2049114,N,11434.9459610,E,4,31,0.5,37.069,M,-13.50,M,02,1002*4F
$GPGGA,051453.00,3029.2037792,N,11434.9550186,E,4,30,0.6,37.116,M,-13.50,M,02,1002*44
$GPGGA,051454.00,3029.2027173,N,11434.9642307,E,4,30,0.6,37.234,M,-13.50,M,02,1002*43
$GPGGA,051455.00,3029.2016720,N,11434.9735657,E,4,30,0.5,37.380,M,-13.50,M,02,1002*4C
$GPGGA,051456.00,3029.2006300,N,11434.9830300,E,4,30,0.6,37.428,M,-13.50,M,02,1002*43
$GPGGA,051457.00,3029.1995897,N,11434.9926134,E,4,30,0.6,37.579,M,-13.50,M,02,1002*41
$GPGGA,051458.00,3029.1985605,N,11435.0023126,E,4,29,0.6,37.674,M,-13.50,M,02,1002*4B
$GPGGA,051459.00,3029.1975690,N,11435.0121292,E,4,27,0.6,37.822,M,-13.50,M,03,1002*44
$GPGGA,051500.00,3029.1966145,N,11435.0220526,E,4,27,0.6,37.941,M,-13.50,M,02,1002*4B
$GPGGA,051501.00,3029.1956956,N,11435.0320862,E,4,30,0.5,38.059,M,-13.50,M,02,1002*45
$GPGGA,051502.00,3029.1948154,N,11435.0422267,E,4,30,0.5,38.157,M,-13.50,M,02,1002*46
$GPGGA,051503.00,3029.1939705,N,11435.0524746,E,4,30,0.6,38.281,M,-13.50,M,03,1002*48
$GPGGA,051504.00,3029.1931901,N,11435.0628237,E,4,30,0.6,38.375,M,-13.50,M,02,1002*4A
$GPGGA,051505.00,3029.1925116,N,11435.0732761,E,4,30,0.6,38.496,M,-13.50,M,02,1002*46
$GPGGA,051506.00,3029.1919051,N,11435.0838115,E,4,29,0.5,38.610,M,-13.50,M,02,1002*4F
$GPGGA,051507.00,3029.1913561,N,11435.0944210,E,4,29,0.6,38.714,M,-13.50,M,02,1002*48
$GPGGA,051508.00,3029.1908229,N,11435.1050126,E,4,29,0.6,38.852,M,-13.50,M,02,1002*40
$GPGGA,051509.00,3029.1903454,N,11435.1155919,E,4,30,0.5,38.992,M,-13.50,M,03,1002*41
$GPGGA,051510.00,3029.1898842,N,11435.1261623,E,4,29,0.6,39.132,M,-13.50,M,02,1002*4A
$GPGGA,051511.00,3029.1894361,N,11435.1367371,E,4,26,0.6,39.236,M,-13.50,M,02,1002*40
$GPGGA,051512.00,3029.1890199,N,11435.1473170,E,4,26,0.6,39.369,M,-13.50,M,02,1002*48
$GPGGA,051513.00,3029.1886339,N,11435.1579037,E,4,27,0.6,39.477,M,-13.50,M,02,1002*46
$GPGGA,051514.00,3029.1883085,N,11435.1684993,E,4,26,0.6,39.591,M,-13.50,M,02,1002*4E
$GPGGA,051515.00,3029.1880622,N,11435.1790995,E,4,21,0.6,39.693,M,-13.50,M,03,1002*42
$GPGGA,051516.00,3029.1878690,N,11435.1897008,E,4,27,0.6,39.808,M,-13.50,M,02,1002*41
$GPGGA,051517.00,3029.1877401,N,11435.2002861,E,4,28,0.6,39.930,M,-13.50,M,02,1002*40
$GPGGA,051518.00,3029.1876721,N,11435.2108712,E,4,29,0.6,40.051,M,-13.50,M,02,1002*4E
$GPGGA,051519.00,3029.1876395,N,11435.2214728,E,4,27,0.6,40.156,M,-13.50,M,02,1002*4B
$GPGGA,051520.00,3029.1876724,N,11435.2321091,E,4,29,0.6,40.281,M,-13.50,M,02,1002*4A
$GPGGA,051521.00,3029.1877503,N,11435.2427816,E,4,26,0.6,40.389,M,-13.50,M,03,1002*4C
$GPGGA,051522.00,3029.1878906,N,11435.2534996,E,4,24,0.6,40.509,M,-13.50,M,02,1002*4E
$GPGGA,051523.00,3029.1880765,N,11435.2642667,E,4,22,0.6,40.624,M,-13.50,M,01,1002*49
$GPGGA,051524.00,3029.1883015,N,11435.2750845,E,4,24,0.6,40.740,M,-13.50,M,02,1002*47
$GPGGA,051525.00,3029.1886048,N,11435.2859515,E,4,28,0.6,40.898,M,-13.50,M,02,1002*43
$GPGGA,051526.00,3029.1889597,N,11435.2968582,E,4,28,0.6,41.008,M,-13.50,M,02,1002*45
$GPGGA,051527.00,3029.1893614,N,11435.3078289,E,4,29,0.6,41.118,M,-13.50,M,03,1002*42
$GPGGA,051528.00,3029.1898262,N,11435.3188356,E,4,30,0.6,41.263,M,-13.50,M,02,1002*48
$GPGGA,051529.00,3029.1903349,N,11435.3298577,E,4,30,0.6,41.363,M,-13.50,M,02,1002*44
$GPGGA,051530.00,3029.1909004,N,11435.3406666,E,4,30,0.6,41.433,M,-13.50,M,02,1002*4C
$GPGGA,051531.00,3029.1915519,N,11435.3511837,E,4,30,0.6,41.500,M,-13.50,M,02,1002*45
$GPGGA,051532.00,3029.1922538,N,11435.3614099,E,4,30,0.6,41.534,M,-13.50,M,02,1002*4C
$GPGGA,051533.00,3029.1929589,N,11435.3713755,E,4,30,0.6,41.553,M,-13.50,M,02,1002*4C
$GPGGA,051534.00,3029.1936648,N,11435.3810506,E,4,27,0.6,41.582,M,-13.50,M,02,1002*49
$GPGGA,051535.00,3029.1944734,N,11435.3902598,E,4,28,0.6,41.538,M,-13.50,M,02,1002*4C
$GPGGA,051536.00,3029.1953627,N,11435.3988904,E,4,27,0.6,41.493,M,-13.50,M,02,1002*4E
$GPGGA,051537.00,3029.1962702,N,11435.4069029,E,4,28,0.5,41.367,M,-13.50,M,02,1002*4C
$GPGGA,051538.00,3029.1971664,N,11435.4142837,E,4,29,0.6,41.281,M,-13.50,M,02,1002*44
$GPGGA,051539.00,3029.1980349,N,11435.4210172,E,4,30,0.5,41.222,M,-13.50,M,02,1002*4F
$GPGGA,051540.00,3029.1988235,N,11435.4270636,E,4,31,0.5,41.165,M,-13.50,M,03,1002*42
$GPGGA,051541.00,3029.1994811,N,11435.4325709,E,4,31,0.5,41.229,M,-13.50,M,02,1002*44
$GPGGA,051542.00,3029.2000053,N,11435.4374718,E,4,31,0.5,41.177,M,-13.50,M,02,1002*42
$GPGGA,051543.00,3029.2004388,N,11435.4416975,E,4,29,0.6,41.130,M,-13.50,M,02,1002*4D
$GPGGA,051544.00,3029.2007893,N,11435.4451782,E,4,29,0.6,41.069,M,-13.50,M,02,1002*40
$GPGGA,051545.00,3029.2010427,N,11435.4478114,E,4,30,0.6,41.026,M,-13.50,M,02,1002*45
$GPGGA,051546.00,3029.2012054,N,11435.4495167,E,4,30,0.6,41.010,M,-13.50,M,02,1002*46
$GPGGA,051547.00,3029.2013238,N,11435.4507721,E,4,30,0.6,40.985,M,-13.50,M,02,1002*44
$GPGGA,051548.00,3029.2014236,N,11435.4518035,E,4,30,0.6,40.961,M,-13.50,M,02,1002*44
$GPGGA,051549.00,3029.2014990,N,11435.4526200,E,4,30,0.6,40.949,M,-13.50,M,02,1002*41
$GPGGA,051550.00,3029.2015614,N,11435.4532070,E,4,30,0.6,40.947,M,-13.50,M,03,1002*44
$GPGGA,051551.00,3029.2015906,N,11435.4535262,E,4,30,0.6,40.940,M,-13.50,M,02,1002*49
$GPGGA,051552.00,3029.2015985,N,11435.4536129,E,4,30,0.6,40.936,M,-13.50,M,02,1002*4F
$GPGGA,051553.00,3029.2016017,N,11435.4536497,E,4,30,0.6,40.940,M,-13.50,M,02,1002*4E
$GPGGA,051554.00,3029.2016092,N,11435.4536873,E,4,30,0.6,40.934,M,-13.50,M,01,1002*42
$GPGGA,051555.00,3029.2016112,N,11435.4537096,E,4,30,0.6,40.934,M,-13.50,M,02,1002*4B
$GPGGA,051556.00,3029.2016100,N,11435.4537103,E,4,30,0.6,40.932,M,-13.50,M,02,1002*40
$GPGGA,051557.00,3029.2016072,N,11435.4537101,E,4,30,0.6,40.935,M,-13.50,M,01,1002*43
$GPGGA,051558.00,3029.2016094,N,11435.4537103,E,4,30,0.6,40.938,M,-13.50,M,01,1002*4B
$GPGGA,051559.00,3029.2016096,N,11435.4537107,E,4,30,0.6,40.937,M,-13.50,M,02,1002*40
$GPGGA,051600.00,3029.2016095,N,11435.4537110,E,4,30,0.6,40.940,M,-13.50,M,03,1002*4B
$GPGGA,051601.00,3029.2016095,N,11435.4537112,E,4,30,0.6,40.937,M,-13.50,M,04,1002*4F
$GPGGA,051602.00,3029.2016091,N,11435.4537092,E,4,30,0.6,40.937,M,-13.50,M,02,1002*47
$GPGGA,051603.00,3029.2016090,N,11435.4537088,E,4,30,0.6,40.932,M,-13.50,M,02,1002*49
$GPGGA,051604.00,3029.2016095,N,11435.4537102,E,4,30,0.6,40.936,M,-13.50,M,02,1002*4C
$GPGGA,051605.00,3029.2016079,N,11435.4537093,E,4,30,0.6,40.935,M,-13.50,M,02,1002*45
$GPGGA,051606.00,3029.2016070,N,11435.4537089,E,4,30,0.6,40.938,M,-13.50,M,02,1002*49
$GPGGA,051607.00,3029.2016069,N,11435.4537103,E,4,30,0.6,40.941,M,-13.50,M,02,1002*4D
$GPGGA,051608.00,3029.2016078,N,11435.4537094,E,4,30,0.6,40.939,M,-13.50,M,02,1002*42
$GPGGA,051609.00,3029.2016062,N,11435.4537096,E,4,30,0.6,40.942,M,-13.50,M,02,1002*46
$GPGGA,051610.00,3029.2016069,N,11435.4537089,E,4,30,0.5,40.944,M,-13.50,M,03,1002*4F
$GPGGA,051611.00,3029.2016059,N,11435.4537101,E,4,31,0.5,40.950,M,-13.50,M,02,1002*49
$GPGGA,051612.00,3029.2016078,N,11435.4537099,E,4,31,0.5,40.949,M,-13.50,M,01,1002*42
$GPGGA,051613.00,3029.2016074,N,11435.4537095,E,4,31,0.5,40.948,M,-13.50,M,02,1002*41
$GPGGA,051614.00,3029.2016051,N,11435.4537111,E,4,31,0.5,40.947,M,-13.50,M,02,1002*43
$GPGGA,051615.00,3029.2016056,N,11435.4537099,E,4,31,0.5,40.953,M,-13.50,M,02,1002*41
$GPGGA,051616.00,3029.2016116,N,11435.4537811,E,4,31,0.5,40.951,M,-13.50,M,01,1002*4E
$GPGGA,051617.00,3029.2016483,N,11435.4541893,E,4,30,0.6,40.940,M,-13.50,M,01,1002*4F
$GPGGA,051618.00,3029.2017535,N,11435.4552422,E,4,30,0.5,40.931,M,-13.50,M,02,1002*4F
$GPGGA,051619.00,3029.2019429,N,11435.4570850,E,4,31,0.5,40.907,M,-13.50,M,02,1002*41
$GPGGA,051620.00,3029.2022094,N,11435.4596383,E,4,31,0.5,40.860,M,-13.50,M,02,1002*4C
$GPGGA,051621.00,3029.2025486,N,11435.4628437,E,4,31,0.5,40.801,M,-13.50,M,02,1002*44
$GPGGA,051622.00,3029.2029611,N,11435.4666417,E,4,31,0.5,40.720,M,-13.50,M,02,1002*43
$GPGGA,051623.00,3029.2034677,N,11435.4709888,E,4,31,0.5,40.628,M,-13.50,M,01,1002*46
$GPGGA,051624.00,3029.2040658,N,11435.4758451,E,4,31,0.5,40.519,M,-13.50,M,02,1002*41
$GPGGA,051625.00,3029.2047490,N,11435.4811742,E,4,31,0.5,40.405,M,-13.50,M,01,1002*4D
$GPGGA,051626.00,3029.2054891,N,11435.4869311,E,4,31,0.5,40.271,M,-13.50,M,02,1002*4A
$GPGGA,051627.00,3029.2063117,N,11435.4930852,E,4,31,0.5,40.113,M,-13.50,M,03,1002*4F
$GPGGA,051628.00,3029.2071951,N,11435.4996331,E,4,29,0.6,39.924,M,-13.50,M,02,1002*42
$GPGGA,051629.00,3029.2081358,N,11435.5065382,E,4,28,0.6,39.726,M,-13.50,M,02,1002*4E
$GPGGA,051630.00,3029.2091322,N,11435.5137830,E,4,27,0.6,39.529,M,-13.50,M,02,1002*4C
$GPGGA,051631.00,3029.2102003,N,11435.5213336,E,4,28,0.5,39.345,M,-13.50,M,02,1002*4E
$GPGGA,051632.00,3029.2113588,N,11435.5291714,E,4,31,0.5,39.154,M,-13.50,M,02,1002*4F
$GPGGA,051633.00,3029.2126161,N,11435.5372876,E,4,31,0.5,38.940,M,-13.50,M,02,1002*40
$GPGGA,051634.00,3029.2138958,N,11435.5456797,E,4,31,0.5,38.730,M,-13.50,M,02,1002*42
$GPGGA,051635.00,3029.2151697,N,11435.5543494,E,4,30,0.6,38.506,M,-13.50,M,02,1002*40
$GPGGA,051636.00,3029.2164586,N,11435.5632850,E,4,29,0.6,38.279,M,-13.50,M,03,1002*41
$GPGGA,051637.00,3029.2177984,N,11435.5724714,E,4,28,0.6,38.038,M,-13.50,M,01,1002*41
$GPGGA,051638.00,3029.2192090,N,11435.5818827,E,4,28,0.6,37.785,M,-13.50,M,02,1002*4B
$GPGGA,051639.00,3029.2206760,N,11435.5913059,E,4,28,0.6,37.551,M,-13.50,M,02,1008*46
$GPGGA,051640.00,3029.2221550,N,11435.6006278,E,4,28,0.6,37.306,M,-13.50,M,02,1008*47
$GPGGA,051641.00,3029.2236551,N,11435.6099444,E,4,28,0.6,37.083,M,-13.50,M,02,1008*40
$GPGGA,051642.00,3029.2251870,N,11435.6193193,E,4,28,0.6,36.821,M,-13.50,M,02,1008*49
$GPGGA,051643.00,3029.2268070,N,11435.6287539,E,4,29,0.5,36.577,M,-13.50,M,02,1008*44
$GPGGA,051644.00,3029.2285316,N,11435.6382404,E,4,31,0.5,36.310,M,-13.50,M,02,1008*46
$GPGGA,051645.00,3029.2303276,N,11435.6476831,E,4,31,0.5,35.941,M,-13.40,M,02,1008*45
$GPGGA,051646.00,3029.2321814,N,11435.6570228,E,4,30,0.6,35.686,M,-13.40,M,02,1008*4B
$GPGGA,051647.00,3029.2340918,N,11435.6663073,E,4,29,0.6,35.460,M,-13.40,M,02,1008*4F
$GPGGA,051648.00,3029.2360605,N,11435.6755544,E,4,29,0.6,35.204,M,-13.40,M,02,1008*40
$GPGGA,051649.00,3029.2380902,N,11435.6847592,E,4,27,0.6,34.974,M,-13.40,M,02,1008*43
$GPGGA,051650.00,3029.2401940,N,11435.6939265,E,4,28,0.6,34.756,M,-13.40,M,02,1008*45
$GPGGA,051651.00,3029.2423160,N,11435.7030458,E,4,15,0.6,34.458,M,-13.40,M,03,1008*45
$GPGGA,051652.00,3029.2445141,N,11435.7120957,E,4,17,0.6,34.234,M,-13.40,M,02,1008*48
$GPGGA,051653.00,3029.2466938,N,11435.7210917,E,4,22,0.6,33.981,M,-13.40,M,02,1008*4E
$GPGGA,051654.00,3029.2489022,N,11435.7300976,E,4,22,0.7,33.745,M,-13.40,M,02,1008*4A
$GPGGA,051655.00,3029.2511281,N,11435.7390825,E,4,22,0.7,33.511,M,-13.40,M,03,1008*4C
$GPGGA,051656.00,3029.2533925,N,11435.7480396,E,4,26,0.6,33.264,M,-13.40,M,02,1008*4E
$GPGGA,051657.00,3029.2557319,N,11435.7570091,E,4,26,0.6,33.085,M,-13.40,M,02,1008*4F
$GPGGA,051658.00,3029.2580315,N,11435.7660164,E,4,27,0.6,32.856,M,-13.40,M,02,1008*49
$GPGGA,051659.00,3029.2603341,N,11435.7751828,E,4,27,0.6,32.596,M,-13.40,M,02,1008*42
$GPGGA,051700.00,3029.2627251,N,11435.7844639,E,4,26,0.6,32.333,M,-13.40,M,02,1008*44
$GPGGA,051701.00,3029.2652584,N,11435.7937777,E,4,26,0.6,32.112,M,-13.40,M,02,1008*47
$GPGGA,051702.00,3029.2679258,N,11435.8030284,E,4,28,0.6,31.840,M,-13.40,M,02,1008*40
$GPGGA,051703.00,3029.2706807,N,11435.8121982,E,4,26,0.6,31.597,M,-13.40,M,02,1008*4D
$GPGGA,051704.00,3029.2734489,N,11435.8212569,E,4,25,0.6,31.341,M,-13.40,M,02,1008*45
$GPGGA,051705.00,3029.2762229,N,11435.8302792,E,4,25,0.7,31.116,M,-13.40,M,03,1008*4D
$GPGGA,051706.00,3029.2789508,N,11435.8393147,E,4,25,0.6,30.855,M,-13.40,M,02,1008*46
$GPGGA,051707.00,3029.2816260,N,11435.8483772,E,4,25,0.6,30.678,M,-13.40,M,01,1008*43
$GPGGA,051708.00,3029.2843105,N,11435.8574458,E,4,25,0.6,30.412,M,-13.40,M,02,1008*43
$GPGGA,051709.00,3029.2869614,N,11435.8664660,E,4,24,0.7,30.201,M,-13.40,M,02,1008*42
$GPGGA,051710.00,3029.2896455,N,11435.8753274,E,4,29,0.6,29.896,M,-13.40,M,02,1008*49
$GPGGA,051711.00,3029.2922568,N,11435.8840724,E,4,30,0.5,29.658,M,-13.40,M,02,1008*43
$GPGGA,051712.00,3029.2947673,N,11435.8926988,E,4,31,0.5,29.447,M,-13.40,M,03,1008*4F
$GPGGA,051713.00,3029.2972147,N,11435.9012417,E,4,30,0.5,29.270,M,-13.40,M,02,1008*4E
$GPGGA,051714.00,3029.2995989,N,11435.9097564,E,4,31,0.5,29.155,M,-13.40,M,02,1008*47
$GPGGA,051715.00,3029.3019157,N,11435.9182291,E,4,31,0.5,28.997,M,-13.40,M,01,1008*4D
$GPGGA,051716.00,3029.3041657,N,11435.9265695,E,4,31,0.5,28.861,M,-13.40,M,02,1008*45
$GPGGA,051717.00,3029.3064237,N,11435.9347380,E,4,30,0.6,28.725,M,-13.40,M,02,1008*4C
$GPGGA,051718.00,3029.3087100,N,11435.9428116,E,4,30,0.5,28.611,M,-13.40,M,02,1008*4F
$GPGGA,051719.00,3029.3109171,N,11435.9507723,E,4,31,0.5,28.606,M,-13.40,M,03,1008*45
$GPGGA,051720.00,3029.3130589,N,11435.9585537,E,4,28,0.6,28.588,M,-13.40,M,02,1008*44
$GPGGA,051721.00,3029.3151199,N,11435.9660774,E,4,26,0.6,28.612,M,-13.40,M,02,1008*44
$GPGGA,051722.00,3029.3170961,N,11435.9732526,E,4,28,0.6,28.670,M,-13.40,M,02,1008*42
$GPGGA,051723.00,3029.3189077,N,11435.9800146,E,4,30,0.5,28.685,M,-13.40,M,02,1008*47
$GPGGA,051724.00,3029.3205525,N,11435.9863533,E,4,30,0.5,28.713,M,-13.40,M,02,1008*48
$GPGGA,051725.00,3029.3220228,N,11435.9922287,E,4,31,0.5,28.796,M,-13.40,M,02,1008*44
$GPGGA,051726.00,3029.3233466,N,11435.9975926,E,4,31,0.5,28.894,M,-13.40,M,02,1008*46
$GPGGA,051727.00,3029.3245313,N,11436.0024158,E,4,30,0.6,28.981,M,-13.40,M,02,1008*42
$GPGGA,051728.00,3029.3255702,N,11436.0066763,E,4,30,0.6,29.064,M,-13.40,M,03,1008*42
$GPGGA,051729.00,3029.3264626,N,11436.0103390,E,4,29,0.6,29.115,M,-13.40,M,02,1008*42
$GPGGA,051730.00,3029.3271954,N,11436.0133446,E,4,29,0.6,29.183,M,-13.40,M,01,1008*47
$GPGGA,051731.00,3029.3277542,N,11436.0156528,E,4,29,0.6,29.230,M,-13.40,M,02,1008*49
$GPGGA,051732.00,3029.3281689,N,11436.0173683,E,4,30,0.6,29.264,M,-13.40,M,02,1008*4B
$GPGGA,051733.00,3029.3285244,N,11436.0188394,E,4,30,0.6,29.276,M,-13.40,M,02,1008*4F
$GPGGA,051734.00,3029.3288240,N,11436.0200841,E,4,30,0.6,29.296,M,-13.40,M,02,1008*4F
$GPGGA,051735.00,3029.3290799,N,11436.0211461,E,4,30,0.6,29.337,M,-13.40,M,02,1008*42
$GPGGA,051736.00,3029.3293056,N,11436.0220993,E,4,30,0.6,29.354,M,-13.40,M,02,1008*41
$GPGGA,051737.00,3029.3295048,N,11436.0229313,E,4,30,0.6,29.389,M,-13.40,M,02,1008*42
$GPGGA,051738.00,3029.3296636,N,11436.0236153,E,4,30,0.6,29.405,M,-13.40,M,02,1008*4A
$GPGGA,051739.00,3029.3297810,N,11436.0241217,E,4,30,0.6,29.421,M,-13.40,M,01,1008*46
$GPGGA,051740.00,3029.3298596,N,11436.0244647,E,4,30,0.6,29.434,M,-13.40,M,02,1008*47
$GPGGA,051741.00,3029.3299188,N,11436.0247167,E,4,30,0.6,29.439,M,-13.40,M,02,1008*47
$GPGGA,051742.00,3029.3299611,N,11436.0249028,E,4,30,0.6,29.435,M,-13.40,M,02,1008*4B
$GPGGA,051743.00,3029.3300015,N,11436.0250667,E,4,30,0.6,29.449,M,-13.40,M,02,1008*47
$GPGGA,051744.00,3029.3300378,N,11436.0252284,E,4,30,0.6,29.451,M,-13.40,M,02,1008*4A
$GPGGA,051745.00,3029.3300834,N,11436.0254308,E,4,30,0.6,29.451,M,-13.40,M,02,1008*4B
$GPGGA,051746.00,3029.3301782,N,11436.0258508,E,4,30,0.6,29.459,M,-13.40,M,02,1008*49
$GPGGA,051747.00,3029.3303305,N,11436.0265204,E,4,30,0.6,29.471,M,-13.40,M,02,1008*4E
$GPGGA,051748.00,3029.3305224,N,11436.0273777,E,4,30,0.6,29.495,M,-13.40,M,02,1008*49
$GPGGA,051749.00,3029.3308133,N,11436.0285901,E,4,30,0.6,29.519,M,-13.40,M,03,1008*42
$GPGGA,051750.00,3029.3312761,N,11436.0304851,E,4,30,0.6,29.582,M,-13.40,M,02,1008*4F
$GPGGA,051751.00,3029.3318983,N,11436.0330388,E,4,30,0.6,29.625,M,-13.40,M,02,1008*40
$GPGGA,051752.00,3029.3326585,N,11436.0361799,E,4,30,0.6,29.696,M,-13.40,M,02,1008*4C
$GPGGA,051753.00,3029.3335065,N,11436.0398240,E,4,30,0.6,29.760,M,-13.40,M,02,1008*4B
$GPGGA,051754.00,3029.3344031,N,11436.0439161,E,4,30,0.6,29.864,M,-13.40,M,02,1008*4C
$GPGGA,051755.00,3029.3353388,N,11436.0484128,E,4,30,0.6,29.931,M,-13.40,M,02,1008*40
$GPGGA,051756.00,3029.3363711,N,11436.0532961,E,4,30,0.6,30.025,M,-13.40,M,02,1008*49
$GPGGA,051757.00,3029.3374573,N,11436.0585047,E,4,30,0.6,30.097,M,-13.40,M,02,1008*40
$GPGGA,051758.00,3029.3386213,N,11436.0640515,E,4,30,0.6,30.172,M,-13.40,M,02,1008*41
$GPGGA,051759.00,3029.3398607,N,11436.0698413,E,4,30,0.6,30.382,M,-13.40,M,03,1008*40
$GPGGA,051800.00,3029.3412375,N,11436.0758413,E,4,30,0.6,30.605,M,-13.40,M,02,1008*40
$GPGGA,051801.00,3029.3427458,N,11436.0820411,E,4,30,0.6,30.846,M,-13.40,M,02,1008*44
$GPGGA,051802.00,3029.3442479,N,11436.0884309,E,4,30,0.6,31.024,M,-13.40,M,02,1008*4A
$GPGGA,051803.00,3029.3455460,N,11436.0950014,E,4,30,0.6,31.187,M,-13.40,M,02,1008*4A
$GPGGA,051804.00,3029.3467398,N,11436.1017458,E,4,30,0.6,31.297,M,-13.40,M,02,1008*49
$GPGGA,051805.00,3029.3479816,N,11436.1086413,E,4,30,0.6,31.406,M,-13.40,M,02,1008*43
$GPGGA,051806.00,3029.3492192,N,11436.1156805,E,4,30,0.6,31.489,M,-13.40,M,01,1008*43
$GPGGA,051807.00,3029.3504879,N,11436.1228524,E,4,30,0.6,31.645,M,-13.40,M,02,1008*45
$GPGGA,051808.00,3029.3517503,N,11436.1301381,E,4,29,0.6,31.824,M,-13.40,M,02,1008*4A
$GPGGA,051809.00,3029.3530801,N,11436.1375293,E,4,28,0.6,31.955,M,-13.40,M,02,1008*46
$GPGGA,051810.00,3029.3544006,N,11436.1450374,E,4,26,0.6,32.121,M,-13.40,M,02,1008*4C
$GPGGA,051811.00,3029.3557496,N,11436.1526516,E,4,25,0.7,32.308,M,-13.40,M,02,1008*4B
$GPGGA,051812.00,3029.3571437,N,11436.1603735,E,4,25,0.6,32.482,M,-13.40,M,02,1008*44
$GPGGA,051813.00,3029.3585560,N,11436.1682328,E,4,28,0.6,32.662,M,-13.40,M,02,1008*4D
$GPGGA,051814.00,3029.3599705,N,11436.1762241,E,4,29,0.6,32.836,M,-13.40,M,02,1008*49
$GPGGA,051815.00,3029.3613649,N,11436.1843506,E,4,29,0.6,33.012,M,-13.40,M,02,1008*47
$GPGGA,051816.00,3029.3627556,N,11436.1926015,E,4,28,0.6,33.203,M,-13.40,M,02,1008*48
$GPGGA,051817.00,3029.3641686,N,11436.2009526,E,4,28,0.6,33.385,M,-13.40,M,03,1008*4B
$GPGGA,051818.00,3029.3655486,N,11436.2094015,E,4,28,0.6,33.557,M,-13.40,M,02,1008*4A
$GPGGA,051819.00,3029.3669251,N,11436.2179290,E,4,28,0.6,33.753,M,-13.40,M,02,1008*43
$GPGGA,051820.00,3029.3683061,N,11436.2265129,E,4,27,0.6,33.927,M,-13.40,M,02,1008*41
$GPGGA,051821.00,3029.3696834,N,11436.2351724,E,4,25,0.6,34.111,M,-13.40,M,02,1008*49
$GPGGA,051822.00,3029.3710455,N,11436.2438917,E,4,24,0.6,34.310,M,-13.40,M,02,1008*4A
$GPGGA,051823.00,3029.3723490,N,11436.2525918,E,4,24,0.7,34.519,M,-13.40,M,02,1008*4E
$GPGGA,051824.00,3029.3735882,N,11436.2612725,E,4,25,0.6,34.707,M,-13.40,M,02,1008*4B
$GPGGA,051825.00,3029.3747922,N,11436.2699723,E,4,26,0.6,34.881,M,-13.40,M,03,1008*42
$GPGGA,051826.00,3029.3759824,N,11436.2787169,E,4,28,0.6,35.030,M,-13.40,M,02,1008*43
$GPGGA,051827.00,3029.3771638,N,11436.2875204,E,4,30,0.6,35.146,M,-13.40,M,02,1008*48
$GPGGA,051828.00,3029.3783453,N,11436.2963874,E,4,30,0.6,35.254,M,-13.40,M,02,1008*4E
$GPGGA,051829.00,3029.3795444,N,11436.3053194,E,4,30,0.6,35.366,M,-13.40,M,01,1008*41
$GPGGA,051830.00,3029.3807523,N,11436.3143181,E,4,27,0.6,35.438,M,-13.40,M,02,1008*40
$GPGGA,051831.00,3029.3819185,N,11436.3234106,E,4,24,0.6,35.479,M,-13.40,M,02,1008*4C
$GPGGA,051832.00,3029.3830781,N,11436.3325686,E,4,24,0.6,35.521,M,-13.40,M,02,1008*44
$GPGGA,051833.00,3029.3841759,N,11436.3416708,E,4,22,0.7,35.527,M,-13.40,M,03,1008*46
$GPGGA,051834.00,3029.3852185,N,11436.3507821,E,4,26,0.6,35.490,M,-13.40,M,02,1008*48
$GPGGA,051835.00,3029.3862412,N,11436.3599802,E,4,27,0.6,35.506,M,-13.40,M,02,1008*48
$GPGGA,051836.00,3029.3872321,N,11436.3692640,E,4,29,0.6,35.457,M,-13.40,M,02,1008*46
$GPGGA,051837.00,3029.3881981,N,11436.3786761,E,4,29,0.6,35.374,M,-13.40,M,02,1008*4B
$GPGGA,051838.00,3029.3891245,N,11436.3882160,E,4,29,0.6,35.254,M,-13.40,M,02,1008*49
$GPGGA,051839.00,3029.3899981,N,11436.3978910,E,4,26,0.6,35.194,M,-13.40,M,03,1008*49
$GPGGA,051840.00,3029.3908786,N,11436.4076882,E,4,27,0.6,35.081,M,-13.40,M,02,1008*48
$GPGGA,051841.00,3029.3918366,N,11436.4176031,E,4,28,0.6,34.974,M,-13.40,M,02,1008*4E
$GPGGA,051842.00,3029.3928532,N,11436.4276282,E,4,30,0.6,34.890,M,-13.40,M,02,1008*42
$GPGGA,051843.00,3029.3939093,N,11436.4377691,E,4,29,0.6,34.800,M,-13.40,M,02,1008*4A
$GPGGA,051844.00,3029.3949327,N,11436.4480194,E,4,27,0.6,34.731,M,-13.40,M,02,1008*48
$GPGGA,051845.00,3029.3958919,N,11436.4583810,E,4,25,0.6,34.645,M,-13.40,M,02,1008*49
$GPGGA,051846.00,3029.3967686,N,11436.4688597,E,4,26,0.6,34.549,M,-13.40,M,02,1008*49
$GPGGA,051847.00,3029.3975788,N,11436.4794494,E,4,28,0.6,34.437,M,-13.40,M,03,1008*4D
$GPGGA,051848.00,3029.3983577,N,11436.4901449,E,4,29,0.6,34.349,M,-13.40,M,02,1008*45
$GPGGA,051849.00,3029.3991153,N,11436.5009423,E,4,29,0.6,34.254,M,-13.40,M,02,1008*44
$GPGGA,051850.00,3029.3997936,N,11436.5118487,E,4,30,0.6,34.145,M,-13.40,M,02,1008*45
$GPGGA,051851.00,3029.4004103,N,11436.5228566,E,4,27,0.6,34.035,M,-13.40,M,02,1008*40
$GPGGA,051852.00,3029.4009514,N,11436.5339561,E,4,28,0.6,33.945,M,-13.40,M,02,1008*4C
$GPGGA,051853.00,3029.4013724,N,11436.5450725,E,4,27,0.6,33.842,M,-13.40,M,03,1008*45
$GPGGA,051854.00,3029.4017345,N,11436.5561911,E,4,27,0.6,33.711,M,-13.40,M,02,1008*47
$GPGGA,051855.00,3029.4020916,N,11436.5673313,E,4,28,0.6,33.603,M,-13.40,M,02,1008*4B
$GPGGA,051856.00,3029.4024276,N,11436.5785083,E,4,28,0.6,33.501,M,-13.40,M,02,1008*42
$GPGGA,051857.00,3029.4027562,N,11436.5897268,E,4,28,0.6,33.376,M,-13.40,M,02,1008*4F
$GPGGA,051858.00,3029.4030892,N,11436.6009690,E,4,27,0.6,33.265,M,-13.40,M,02,1008*47
$GPGGA,051859.00,3029.4034189,N,11436.6120795,E,4,28,0.6,33.158,M,-13.40,M,03,1008*4C
$GPGGA,051900.00,3029.4036778,N,11436.6229713,E,4,28,0.6,33.061,M,-13.40,M,02,1008*45
$GPGGA,051901.00,3029.4038805,N,11436.6336575,E,4,28,0.6,32.967,M,-13.40,M,02,1008*4C
$GPGGA,051902.00,3029.4040901,N,11436.6441628,E,4,28,0.6,32.871,M,-13.40,M,02,1008*4F
$GPGGA,051903.00,3029.4043007,N,11436.6546694,E,4,27,0.6,32.774,M,-13.40,M,02,1008*46
$GPGGA,051904.00,3029.4045199,N,11436.6653030,E,4,27,0.6,32.662,M,-13.40,M,02,1008*48
$GPGGA,051905.00,3029.4047329,N,11436.6760889,E,4,26,0.6,32.570,M,-13.40,M,03,1008*49
$GPGGA,051906.00,3029.4049101,N,11436.6870220,E,4,25,0.6,32.480,M,-13.40,M,02,1008*47
$GPGGA,051907.00,3029.4050569,N,11436.6981175,E,4,27,0.6,32.402,M,-13.40,M,02,1008*40
$GPGGA,051908.00,3029.4051495,N,11436.7092522,E,4,28,0.6,32.289,M,-13.40,M,02,1008*4A
$GPGGA,051909.00,3029.4051914,N,11436.7203257,E,4,27,0.6,32.163,M,-13.40,M,02,1008*48
$GPGGA,051910.00,3029.4051912,N,11436.7313180,E,4,27,0.6,32.052,M,-13.40,M,02,1008*4C
$GPGGA,051911.00,3029.4051983,N,11436.7422440,E,4,28,0.6,31.928,M,-13.40,M,01,1008*42
$GPGGA,051912.00,3029.4052797,N,11436.7531074,E,4,28,0.6,31.824,M,-13.40,M,02,1008*47
$GPGGA,051913.00,3029.4054302,N,11436.7639179,E,4,29,0.6,31.705,M,-13.40,M,02,1008*42
$GPGGA,051914.00,3029.4057140,N,11436.7747824,E,4,30,0.6,31.599,M,-13.40,M,02,1008*44
$GPGGA,051915.00,3029.4060643,N,11436.7857631,E,4,30,0.6,31.454,M,-13.40,M,02,1008*41
$GPGGA,051916.00,3029.4064535,N,11436.7968274,E,4,30,0.6,31.320,M,-13.40,M,02,1008*48
$GPGGA,051917.00,3029.4069089,N,11436.8077256,E,4,27,0.6,31.171,M,-13.40,M,03,1008*4F
$GPGGA,051918.00,3029.4073463,N,11436.8180989,E,4,29,0.6,31.012,M,-13.40,M,02,1008*40
$GPGGA,051919.00,3029.4077867,N,11436.8279199,E,4,26,0.6,30.857,M,-13.40,M,02,1008*46
$GPGGA,051920.00,3029.4082546,N,11436.8371784,E,4,28,0.6,30.726,M,-13.40,M,02,1008*4C
$GPGGA,051921.00,3029.4087309,N,11436.8458844,E,4,24,0.6,30.570,M,-13.40,M,02,1008*47
$GPGGA,051922.00,3029.4092256,N,11436.8540842,E,4,26,0.6,30.422,M,-13.40,M,02,1008*41
$GPGGA,051923.00,3029.4098752,N,11436.8620364,E,4,29,0.6,30.293,M,-13.40,M,02,1008*42
$GPGGA,051924.00,3029.4106263,N,11436.8698031,E,4,30,0.6,30.147,M,-13.40,M,03,1008*47
$GPGGA,051925.00,3029.4113706,N,11436.8774856,E,4,30,0.6,30.003,M,-13.40,M,02,1008*4E
$GPGGA,051926.00,3029.4120365,N,11436.8851375,E,4,30,0.6,29.857,M,-13.40,M,02,1008*4F
$GPGGA,051927.00,3029.4125850,N,11436.8928124,E,4,29,0.6,29.701,M,-13.40,M,02,1008*4B
$GPGGA,051928.00,3029.4131663,N,11436.9006045,E,4,29,0.6,29.545,M,-13.40,M,02,1008*4F
$GPGGA,051929.00,3029.4138216,N,11436.9085298,E,4,28,0.6,29.390,M,-13.40,M,02,1008*47
$GPGGA,051930.00,3029.4144810,N,11436.9164676,E,4,29,0.6,29.244,M,-13.40,M,02,1008*4B
$GPGGA,051931.00,3029.4151177,N,11436.9243176,E,4,29,0.6,29.074,M,-13.40,M,02,1008*46
$GPGGA,051932.00,3029.4156964,N,11436.9321801,E,4,30,0.6,28.887,M,-13.40,M,03,1008*48
$GPGGA,051933.00,3029.4162065,N,11436.9401091,E,4,29,0.6,28.724,M,-13.40,M,02,1008*4D
$GPGGA,051934.00,3029.4167358,N,11436.9480971,E,4,29,0.6,28.532,M,-13.40,M,02,1008*49
$GPGGA,051935.00,3029.4173106,N,11436.9561536,E,4,29,0.6,28.415,M,-13.40,M,02,1008*41
$GPGGA,051936.00,3029.4179315,N,11436.9642621,E,4,28,0.6,28.241,M,-13.40,M,02,1008*49
$GPGGA,051937.00,3029.4186514,N,11436.9724047,E,4,30,0.6,28.079,M,-13.40,M,02,1008*48
$GPGGA,051938.00,3029.4194270,N,11436.9804985,E,4,30,0.6,27.916,M,-13.40,M,02,1008*44
$GPGGA,051939.00,3029.4202302,N,11436.9884618,E,4,30,0.6,27.760,M,-13.40,M,02,1008*41
$GPGGA,051940.00,3029.4210382,N,11436.9962830,E,4,30,0.6,27.611,M,-13.40,M,03,1008*4F
$GPGGA,051941.00,3029.4218448,N,11437.0039645,E,4,30,0.6,27.437,M,-13.40,M,02,1008*43
$GPGGA,051942.00,3029.4226532,N,11437.0115320,E,4,30,0.6,27.278,M,-13.40,M,02,1008*45
$GPGGA,051943.00,3029.4235099,N,11437.0191055,E,4,30,0.6,27.138,M,-13.40,M,02,1008*48
$GPGGA,051944.00,3029.4244125,N,11437.0267702,E,4,29,0.6,26.974,M,-13.40,M,02,1008*49
$GPGGA,051945.00,3029.4253503,N,11437.0345820,E,4,27,0.6,26.833,M,-13.40,M,02,1008*4C
