$GPGGA,055802.00,3027.2173107,N,11435.1503011,E,4,25,0.7,33.314,M,-13.40,M,02,1002*4D
$GPGGA,055803.00,3027.2211071,N,11435.1423381,E,4,25,0.7,33.372,M,-13.40,M,02,1002*42
$GPGGA,055804.00,3027.2249850,N,11435.1341400,E,4,24,0.6,33.465,M,-13.40,M,03,1002*4E
$GPGGA,055805.00,3027.2289019,N,11435.1257097,E,4,23,0.8,33.525,M,-13.40,M,02,1002*47
$GPGGA,055806.00,3027.2328755,N,11435.1171148,E,4,21,0.9,33.598,M,-13.40,M,02,1002*40
$GPGGA,055807.00,3027.2368699,N,11435.1083943,E,4,19,0.9,33.642,M,-13.40,M,02,1002*44
$GPGGA,055808.00,3027.2409104,N,11435.0995001,E,4,19,0.8,33.712,M,-13.40,M,02,1002*4D
$GPGGA,055809.00,3027.2450538,N,11435.0904283,E,4,19,0.8,33.796,M,-13.40,M,02,1002*47
$GPGGA,055810.00,3027.2492640,N,11435.0811560,E,4,20,0.9,33.875,M,-13.40,M,02,1002*4B
$GPGGA,055811.00,3027.2535470,N,11435.0716939,E,4,20,0.8,33.957,M,-13.40,M,02,1002*4F
$GPGGA,055812.00,3027.2578937,N,11435.0620401,E,4,21,0.7,34.047,M,-13.40,M,03,1002*49
$GPGGA,055813.00,3027.2622591,N,11435.0522324,E,4,22,0.7,34.107,M,-13.40,M,02,1002*42
$GPGGA,055814.00,3027.2666512,N,11435.0422973,E,4,20,0.7,34.215,M,-13.40,M,02,1002*45
$GPGGA,055815.00,3027.2710605,N,11435.0322275,E,4,20,0.7,34.286,M,-13.40,M,02,1002*41
$GPGGA,055816.00,3027.2755071,N,11435.0220460,E,4,24,0.6,34.373,M,-13.40,M,02,1002*49
$GPGGA,055817.00,3027.2799783,N,11435.0117693,E,4,22,0.6,34.479,M,-13.40,M,02,1002*40
$GPGGA,055818.00,3027.2844346,N,11435.0014126,E,4,25,0.7,34.554,M,-13.40,M,03,1002*4F
$GPGGA,055819.00,3027.2888830,N,11434.9909604,E,4,26,0.6,34.636,M,-13.40,M,02,1002*4A
$GPGGA,055820.00,3027.2933948,N,11434.9804361,E,4,24,0.7,34.724,M,-13.40,M,02,1002*44
$GPGGA,055821.00,3027.2979703,N,11434.9698400,E,4,23,0.6,34.799,M,-13.40,M,02,1002*41
$GPGGA,055822.00,3027.3026526,N,11434.9591706,E,4,24,0.6,34.858,M,-13.40,M,02,1002*4F
$GPGGA,055823.00,3027.3073792,N,11434.9484450,E,4,24,0.7,34.867,M,-13.40,M,02,1002*4B
$GPGGA,055824.00,3027.3121410,N,11434.9376770,E,4,24,0.6,34.886,M,-13.40,M,03,1002*47
$GPGGA,055825.00,3027.3168657,N,11434.9268152,E,4,25,0.6,34.934,M,-13.40,M,02,1002*4A
$GPGGA,055826.00,3027.3216179,N,11434.9158508,E,4,25,0.6,34.974,M,-13.40,M,02,1002*47
$GPGGA,055827.00,3027.3264152,N,11434.9048263,E,4,24,0.6,34.932,M,-13.40,M,02,1002*43
$GPGGA,055828.00,3027.3312379,N,11434.8937264,E,4,25,0.6,34.909,M,-13.40,M,02,1002*49
$GPGGA,055829.00,3027.3360670,N,11434.8824485,E,4,25,0.6,34.886,M,-13.40,M,03,1002*4C
$GPGGA,055830.00,3027.3408990,N,11434.8709553,E,4,23,0.6,34.867,M,-13.40,M,02,1002*4E
$GPGGA,055831.00,3027.3457496,N,11434.8592506,E,4,22,0.6,34.824,M,-13.40,M,02,1002*48
$GPGGA,055832.00,3027.3506361,N,11434.8473487,E,4,25,0.6,34.778,M,-13.40,M,02,1002*46
$GPGGA,055833.00,3027.3555871,N,11434.8352908,E,4,25,0.6,34.717,M,-13.40,M,02,1002*4C
$GPGGA,055834.00,3027.3606162,N,11434.8230672,E,4,25,0.6,34.622,M,-13.40,M,02,1002*45
$GPGGA,055835.00,3027.3657660,N,11434.8106842,E,4,27,0.6,34.489,M,-13.40,M,03,1002*4E
$GPGGA,055836.00,3027.3711198,N,11434.7981754,E,4,29,0.6,34.341,M,-13.40,M,02,1002*42
$GPGGA,055837.00,3027.3765999,N,11434.7854907,E,4,30,0.6,34.196,M,-13.40,M,02,1002*48
$GPGGA,055838.00,3027.3821462,N,11434.7726071,E,4,26,0.5,34.043,M,-13.40,M,02,1002*4E
$GPGGA,055839.00,3027.3877686,N,11434.7595423,E,4,28,0.5,33.903,M,-13.40,M,02,1002*49
$GPGGA,055840.00,3027.3934600,N,11434.7463390,E,4,23,0.6,33.743,M,-13.40,M,02,1002*4A
$GPGGA,055841.00,3027.3991318,N,11434.7332372,E,4,27,0.5,33.585,M,-13.40,M,02,1002*48
$GPGGA,055842.00,3027.4047899,N,11434.7203749,E,4,30,0.5,33.415,M,-13.40,M,02,1002*4D
$GPGGA,055843.00,3027.4104230,N,11434.7076343,E,4,30,0.5,33.253,M,-13.40,M,02,1002*49
$GPGGA,055844.00,3027.4160264,N,11434.6947914,E,4,29,0.5,33.103,M,-13.40,M,02,1002*41
$GPGGA,055845.00,3027.4216571,N,11434.6818282,E,4,30,0.6,32.983,M,-13.40,M,02,1002*44
$GPGGA,055846.00,3027.4273775,N,11434.6687145,E,4,25,0.6,32.821,M,-13.40,M,02,1002*4F
$GPGGA,055847.00,3027.4332117,N,11434.6554064,E,4,26,0.5,32.667,M,-13.40,M,02,1002*4B
$GPGGA,055848.00,3027.4391369,N,11434.6418809,E,4,28,0.6,32.465,M,-13.40,M,02,1002*41
$GPGGA,055849.00,3027.4451090,N,11434.6281200,E,4,23,0.6,32.237,M,-13.40,M,03,1002*40
$GPGGA,055850.00,3027.4511656,N,11434.6141472,E,4,23,0.6,32.056,M,-13.40,M,03,1002*48
$GPGGA,055851.00,3027.4573421,N,11434.5999799,E,4,27,0.7,31.870,M,-13.40,M,02,1002*4C
$GPGGA,055852.00,3027.4636237,N,11434.5856243,E,4,14,3.0,31.658,M,-13.40,M,02,1002*4C
$GPGGA,055853.00,3027.4700055,N,11434.5710922,E,4,04,9.9,31.444,M,-13.40,M,02,1002*43
$GPGGA,055854.00,3027.4764744,N,11434.5563842,E,4,00,1.7,31.218,M,-13.40,M,02,1002*4D
$GPGGA,055855.00,3027.4830364,N,11434.5415639,E,4,09,1.4,30.988,M,-13.40,M,,*4E
$GPGGA,055856.00,3027.4896561,N,11434.5268357,E,4,12,0.8,30.782,M,-13.40,M,,*40
$GPGGA,055857.00,3027.4961631,N,11434.5123345,E,1,16,0.7,30.588,M,-13.40,M,,*47
$GPGGA,055858.00,3027.5025895,N,11434.4980304,E,1,18,0.8,30.400,M,-13.40,M,,*45
$GPGGA,055859.00,3027.5089313,N,11434.4839130,E,1,16,0.7,30.212,M,-13.40,M,,*45
$GPGGA,055900.00,3027.5152238,N,11434.4698481,E,1,19,0.7,30.035,M,-13.40,M,,*45
$GPGGA,055901.00,3027.5215017,N,11434.4558622,E,1,19,0.8,29.864,M,-13.40,M,,*44
$GPGGA,055902.00,3027.5278067,N,11434.4419853,E,1,18,0.8,29.789,M,-13.50,M,,*4B
$GPGGA,055903.00,3027.5340233,N,11434.4281886,E,1,18,0.7,29.623,M,-13.50,M,,*42
$GPGGA,055904.00,3027.5401049,N,11434.4144650,E,1,19,0.7,29.418,M,-13.50,M,,*4C
$GPGGA,055905.00,3027.5461221,N,11434.4007081,E,1,23,0.7,29.263,M,-13.50,M,,*48
$GPGGA,055906.00,3027.5521721,N,11434.3868730,E,1,23,0.7,29.089,M,-13.50,M,,*46
$GPGGA,055907.00,3027.5583246,N,11434.3729670,E,1,23,0.6,28.855,M,-13.50,M,,*4D
$GPGGA,055908.00,3027.5645206,N,11434.3589352,E,1,25,0.6,28.667,M,-13.50,M,,*4B
$GPGGA,055909.00,3027.5706569,N,11434.3448070,E,1,26,0.6,28.473,M,-13.50,M,,*49
$GPGGA,055910.00,3027.5767812,N,11434.3305517,E,4,28,0.6,28.563,M,-13.50,M,02,1002*47
$GPGGA,055911.00,3027.5828227,N,11434.3164790,E,4,28,0.6,28.476,M,-13.50,M,03,1002*42
$GPGGA,055912.00,3027.5886229,N,11434.3024292,E,4,28,0.5,28.497,M,-13.50,M,02,1002*44
$GPGGA,055913.00,3027.5942937,N,11434.2883080,E,4,26,0.6,28.551,M,-13.50,M,02,1002*4B
$GPGGA,055914.00,3027.5999417,N,11434.2740980,E,4,26,0.6,28.681,M,-13.50,M,02,1002*42
$GPGGA,055915.00,3027.6055828,N,11434.2597942,E,4,25,0.6,28.861,M,-13.50,M,03,1002*4D
$GPGGA,055916.00,3027.6111891,N,11434.2454147,E,4,24,0.6,29.080,M,-13.50,M,02,1002*48
$GPGGA,055917.00,3027.6167378,N,11434.2309869,E,4,27,0.6,29.380,M,-13.50,M,02,1002*4E
$GPGGA,055918.00,3027.6222210,N,11434.2165416,E,4,30,0.5,29.778,M,-13.50,M,02,1002*46
$GPGGA,055919.00,3027.6276261,N,11434.2020628,E,4,28,0.5,30.211,M,-13.50,M,03,1002*45
$GPGGA,055920.00,3027.6329514,N,11434.1875337,E,4,26,0.6,30.739,M,-13.50,M,02,1002*42
$GPGGA,055921.00,3027.6382319,N,11434.1729929,E,4,24,0.6,31.256,M,-13.50,M,02,1002*45
$GPGGA,055922.00,3027.6434692,N,11434.1584325,E,4,23,0.6,31.849,M,-13.50,M,02,1002*4A
$GPGGA,055923.00,3027.6486618,N,11434.1438630,E,4,20,0.7,32.417,M,-13.50,M,02,1002*41
$GPGGA,055924.00,3027.6536262,N,11434.1292698,E,4,04,9.9,32.406,M,-13.50,M,02,1002*40
$GPGGA,055925.00,3027.6588600,N,11434.1147426,E,4,04,0.8,33.511,M,-13.50,M,02,1002*46
$GPGGA,055926.00,3027.6638395,N,11434.1001351,E,4,00,0.7,34.073,M,-13.50,M,02,1002*4D
$GPGGA,055927.00,3027.6687591,N,11434.0855218,E,1,20,0.7,34.679,M,-13.50,M,,*44
$GPGGA,055928.00,3027.6735174,N,11434.0708458,E,1,21,0.9,35.276,M,-13.50,M,,*4C
$GPGGA,055929.00,3027.6782716,N,11434.0562111,E,1,14,1.4,35.863,M,-13.50,M,,*41
$GPGGA,055930.00,3027.6829235,N,11434.0415195,E,1,09,1.0,36.368,M,-13.50,M,,*45
$GPGGA,055931.00,3027.6875035,N,11434.0267514,E,1,14,0.9,36.840,M,-13.50,M,,*44
$GPGGA,055932.00,3027.6920064,N,11434.0119004,E,1,15,2.5,37.271,M,-13.50,M,,*4A
$GPGGA,055933.00,3027.6964228,N,11433.9969270,E,1,09,2.2,37.657,M,-13.50,M,,*4B
$GPGGA,055934.00,3027.7007908,N,11433.9818354,E,1,09,0.7,38.015,M,-13.50,M,,*40
$GPGGA,055935.00,3027.7050997,N,11433.9666318,E,1,22,0.8,38.332,M,-13.50,M,,*4A
$GPGGA,055936.00,3027.7093348,N,11433.9513565,E,1,17,0.8,38.461,M,-13.50,M,,*44
$GPGGA,055937.00,3027.7135782,N,11433.9359178,E,1,17,0.6,38.662,M,-13.50,M,,*45
$GPGGA,055938.00,3027.7177527,N,11433.9204917,E,1,24,0.6,38.855,M,-13.50,M,,*43
$GPGGA,055939.00,3027.7227073,N,11433.9044938,E,1,26,0.6,39.226,M,-13.50,M,,*46
$GPGGA,055940.00,3027.7262513,N,11433.8896825,E,1,26,0.6,38.489,M,-13.50,M,,*43
$GPGGA,055941.00,3027.7296574,N,11433.8745927,E,1,26,0.6,38.867,M,-13.50,M,,*46
$GPGGA,055942.00,3027.7336170,N,11433.8597203,E,1,27,0.6,38.810,M,-13.50,M,,*4F
$GPGGA,055943.00,3027.7374385,N,11433.8449748,E,1,26,0.6,38.759,M,-13.50,M,,*4B
$GPGGA,055944.00,3027.7411693,N,11433.8303177,E,1,25,0.6,38.502,M,-13.50,M,,*46
$GPGGA,055945.00,3027.7449318,N,11433.8157364,E,4,25,0.5,38.636,M,-13.50,M,02,1002*4C
$GPGGA,055946.00,3027.7483672,N,11433.8013493,E,4,29,0.6,38.599,M,-13.50,M,01,1002*44
$GPGGA,055947.00,3027.7517278,N,11433.7872095,E,4,30,0.5,38.521,M,-13.50,M,02,1002*4E
$GPGGA,055948.00,3027.7550270,N,11433.7732774,E,4,30,0.6,38.438,M,-13.50,M,02,1002*43
$GPGGA,055949.00,3027.7582768,N,11433.7594587,E,4,29,0.5,38.352,M,-13.50,M,02,1002*41
$GPGGA,055950.00,3027.7615091,N,11433.7456668,E,4,31,0.6,38.300,M,-13.50,M,02,1002*45
$GPGGA,055951.00,3027.7647592,N,11433.7318791,E,4,30,0.6,38.234,M,-13.50,M,02,1002*48
$GPGGA,055952.00,3027.7680417,N,11433.7180833,E,4,26,0.7,38.177,M,-13.50,M,02,1002*4A
$GPGGA,055953.00,3027.7713445,N,11433.7041901,E,4,22,0.6,38.074,M,-13.50,M,03,1002*4D
$GPGGA,055954.00,3027.7746498,N,11433.6901092,E,4,27,0.6,38.017,M,-13.50,M,02,1002*44
$GPGGA,055955.00,3027.7780121,N,11433.6758298,E,4,27,0.6,37.916,M,-13.50,M,02,1002*45
$GPGGA,055956.00,3027.7814433,N,11433.6613230,E,4,26,0.6,37.847,M,-13.50,M,02,1002*4A
$GPGGA,055957.00,3027.7849545,N,11433.6466029,E,4,27,0.6,37.728,M,-13.50,M,02,1002*4E
$GPGGA,055958.00,3027.7885154,N,11433.6316905,E,4,28,0.6,37.586,M,-13.50,M,02,1002*4B
$GPGGA,055959.00,3027.7920790,N,11433.6168213,E,4,25,0.6,37.506,M,-13.50,M,03,1002*49
$GPGGA,060000.00,3027.7956540,N,11433.6021018,E,4,27,0.6,37.517,M,-13.50,M,02,1002*42
$GPGGA,060001.00,3027.7992053,N,11433.5874680,E,4,29,0.5,37.498,M,-13.50,M,02,1002*4B
$GPGGA,060002.00,3027.8027264,N,11433.5730472,E,4,29,0.5,37.420,M,-13.50,M,02,1002*45
$GPGGA,060003.00,3027.8062361,N,11433.5586725,E,4,27,0.6,37.345,M,-13.50,M,03,1002*47
$GPGGA,060004.00,3027.8097425,N,11433.5442318,E,4,26,0.6,37.264,M,-13.50,M,02,1002*4C
$GPGGA,060005.00,3027.8131986,N,11433.5298159,E,4,23,0.6,37.197,M,-13.50,M,02,1002*48
$GPGGA,060006.00,3027.8165992,N,11433.5155039,E,4,23,1.5,37.115,M,-13.50,M,02,1002*42
$GPGGA,060007.00,3027.8199629,N,11433.5012907,E,4,00,0.6,37.024,M,-13.50,M,02,1002*49
$GPGGA,060008.00,3027.8233200,N,11433.4871437,E,1,26,0.6,36.925,M,-13.50,M,,*41
$GPGGA,060009.00,3027.8266713,N,11433.4729875,E,1,25,0.6,36.851,M,-13.50,M,,*4E
$GPGGA,060010.00,3027.8300958,N,11433.4585355,E,1,25,0.6,36.897,M,-13.50,M,,*41
$GPGGA,060011.00,3027.8335084,N,11433.4441485,E,1,26,0.6,36.704,M,-13.50,M,,*4B
$GPGGA,060012.00,3027.8369715,N,11433.4295948,E,1,24,0.6,36.651,M,-13.50,M,,*4E
$GPGGA,060013.00,3027.8403985,N,11433.4152837,E,1,24,0.6,36.569,M,-13.50,M,,*4A
$GPGGA,060014.00,3027.8438043,N,11433.4011650,E,1,26,0.6,36.500,M,-13.50,M,02,1002*43
$GPGGA,060015.00,3027.8472515,N,11433.3870445,E,1,26,0.6,36.453,M,-13.50,M,,*42
$GPGGA,060016.00,3027.8508723,N,11433.3728749,E,1,26,0.6,36.338,M,-13.50,M,,*4D
$GPGGA,060017.00,3027.8545540,N,11433.3586202,E,1,27,0.6,36.278,M,-13.50,M,,*4A
$GPGGA,060018.00,3027.8582004,N,11433.3445178,E,5,26,0.6,36.198,M,-13.50,M,03,1002*43
$GPGGA,060019.00,3027.8618534,N,11433.3305091,E,4,19,0.5,36.122,M,-13.50,M,02,1002*4F
$GPGGA,060020.00,3027.8655407,N,11433.3165957,E,4,29,0.5,36.116,M,-13.50,M,02,1002*4E
$GPGGA,060021.00,3027.8692644,N,11433.3025356,E,4,31,0.6,36.045,M,-13.50,M,02,1002*42
$GPGGA,060022.00,3027.8730008,N,11433.2882733,E,4,24,0.5,35.932,M,-13.50,M,02,1002*48
$GPGGA,060023.00,3027.8768317,N,11433.2738127,E,4,24,0.6,35.812,M,-13.50,M,02,1002*44
$GPGGA,060024.00,3027.8807948,N,11433.2592296,E,4,21,0.6,35.859,M,-13.60,M,03,1002*46
$GPGGA,060025.00,3027.8848010,N,11433.2447045,E,4,21,0.7,35.784,M,-13.60,M,02,1002*42
$GPGGA,060026.00,3027.8887948,N,11433.2301991,E,4,20,0.6,35.716,M,-13.60,M,02,1002*48
$GPGGA,060027.00,3027.8927074,N,11433.2158703,E,4,19,0.5,35.655,M,-13.60,M,02,1002*40
$GPGGA,060028.00,3027.8965783,N,11433.2017619,E,4,21,0.6,35.603,M,-13.60,M,02,1002*4D
$GPGGA,060029.00,3027.9004862,N,11433.1878611,E,4,19,0.7,35.570,M,-13.60,M,03,1002*45
$GPGGA,060030.00,3027.9043832,N,11433.1742150,E,4,19,0.7,35.481,M,-13.60,M,02,1002*41
$GPGGA,060031.00,3027.9083210,N,11433.1607672,E,4,23,0.6,35.413,M,-13.60,M,02,1002*42
$GPGGA,060032.00,3027.9122199,N,11433.1474583,E,4,25,0.5,35.348,M,-13.60,M,02,1002*4E
$GPGGA,060033.00,3027.9159760,N,11433.1343499,E,4,28,0.5,35.275,M,-13.60,M,02,1002*48
$GPGGA,060034.00,3027.9196799,N,11433.1214746,E,4,29,0.5,35.200,M,-13.60,M,03,1002*4A
$GPGGA,060035.00,3027.9233501,N,11433.1088337,E,4,32,0.5,35.143,M,-13.60,M,02,1002*4E
$GPGGA,060036.00,3027.9270114,N,11433.0964328,E,4,32,0.5,35.078,M,-13.60,M,02,1002*47
$GPGGA,060037.00,3027.9306948,N,11433.0842854,E,4,29,0.5,35.005,M,-13.60,M,02,1002*42
$GPGGA,060038.00,3027.9343817,N,11433.0721979,E,4,29,0.6,34.959,M,-13.60,M,03,1002*40
$GPGGA,060039.00,3027.9380501,N,11433.0600634,E,4,29,0.6,34.865,M,-13.60,M,02,1002*4F
$GPGGA,060040.00,3027.9417293,N,11433.0478431,E,4,31,0.6,34.820,M,-13.60,M,02,1002*46
$GPGGA,060041.00,3027.9454678,N,11433.0354470,E,4,29,0.5,34.735,M,-13.60,M,02,1002*4C
$GPGGA,060042.00,3027.9493374,N,11433.0228399,E,4,29,0.5,34.653,M,-13.60,M,02,1002*46
$GPGGA,060043.00,3027.9532958,N,11433.0099909,E,4,32,0.5,34.582,M,-13.60,M,03,1002*46
$GPGGA,060044.00,3027.9573048,N,11432.9968990,E,4,31,0.5,34.565,M,-13.60,M,02,1002*48
$GPGGA,060045.00,3027.9614400,N,11432.9835819,E,4,28,0.6,34.482,M,-13.60,M,02,1002*49
$GPGGA,060046.00,3027.9656695,N,11432.9700603,E,4,30,0.6,34.423,M,-13.60,M,02,1002*4C
$GPGGA,060047.00,3027.9699813,N,11432.9566004,E,4,27,0.6,34.354,M,-13.60,M,02,1002*4C
$GPGGA,060048.00,3027.9743606,N,11432.9433193,E,4,26,0.6,34.264,M,-13.60,M,03,1002*43
$GPGGA,060049.00,3027.9787710,N,11432.9299995,E,4,28,0.6,34.213,M,-13.60,M,02,1002*4B
$GPGGA,060050.00,3027.9831731,N,11432.9164824,E,4,28,0.6,34.121,M,-13.60,M,02,1002*4A
$GPGGA,060051.00,3027.9876393,N,11432.9027381,E,4,27,0.6,34.042,M,-13.60,M,02,1002*4D
$GPGGA,060052.00,3027.9922308,N,11432.8887879,E,4,26,0.6,33.976,M,-13.60,M,02,1002*4B
$GPGGA,060053.00,3027.9969684,N,11432.8746356,E,4,26,0.6,33.844,M,-13.60,M,02,1002*40
$GPGGA,060054.00,3028.0017801,N,11432.8602754,E,4,27,0.6,33.717,M,-13.60,M,02,1002*4D
$GPGGA,060055.00,3028.0066440,N,11432.8458142,E,4,27,0.6,33.536,M,-13.60,M,02,1002*4E
$GPGGA,060056.00,3028.0115818,N,11432.8312354,E,4,27,0.6,33.291,M,-13.60,M,02,1002*4F
$GPGGA,060057.00,3028.0165899,N,11432.8166216,E,4,27,0.6,33.061,M,-13.60,M,02,1002*4B
$GPGGA,060058.00,3028.0216461,N,11432.8019555,E,4,27,0.6,32.795,M,-13.60,M,03,1002*4D
$GPGGA,060059.00,3028.0267531,N,11432.7871996,E,4,27,0.6,32.502,M,-13.60,M,02,1002*49
$GPGGA,060100.00,3028.0318828,N,11432.7724460,E,4,27,0.6,32.227,M,-13.60,M,02,1002*43
$GPGGA,060101.00,3028.0370976,N,11432.7576926,E,4,27,0.6,31.937,M,-13.60,M,02,1002*45
$GPGGA,060102.00,3028.0424118,N,11432.7428705,E,4,25,0.7,31.642,M,-13.60,M,02,1002*4B
$GPGGA,060103.00,3028.0477732,N,11432.7279979,E,4,24,0.6,31.318,M,-13.60,M,02,1002*4F
$GPGGA,060104.00,3028.0531435,N,11432.7130786,E,4,23,0.7,30.987,M,-13.60,M,02,1002*44
$GPGGA,060105.00,3028.0585289,N,11432.6981267,E,4,26,0.5,30.671,M,-13.60,M,02,1002*43
$GPGGA,060106.00,3028.0639029,N,11432.6832038,E,4,25,0.6,30.338,M,-13.60,M,03,1002*44
$GPGGA,060107.00,3028.0692982,N,11432.6681769,E,4,27,0.6,30.054,M,-13.60,M,02,1002*43
$GPGGA,060108.00,3028.0746993,N,11432.6529949,E,4,26,0.6,29.649,M,-13.60,M,02,1002*4A
$GPGGA,060109.00,3028.0801524,N,11432.6376290,E,4,26,0.6,29.321,M,-13.60,M,02,1002*4F
$GPGGA,060110.00,3028.0856112,N,11432.6221893,E,4,24,0.7,29.024,M,-13.60,M,02,1002*4B
$GPGGA,060111.00,3028.0911120,N,11432.6066729,E,4,22,0.7,28.815,M,-13.60,M,02,1002*4B
$GPGGA,060112.00,3028.0966564,N,11432.5910820,E,4,19,0.7,28.537,M,-13.60,M,02,1002*44
$GPGGA,060113.00,3028.1022464,N,11432.5754299,E,4,21,0.7,28.232,M,-13.60,M,02,1002*43
$GPGGA,060114.00,3028.1078083,N,11432.5598496,E,4,23,0.7,27.914,M,-13.60,M,03,1002*4E
$GPGGA,060115.00,3028.1133544,N,11432.5443360,E,4,22,0.8,27.610,M,-13.60,M,01,1002*41
$GPGGA,060116.00,3028.1188942,N,11432.5288599,E,4,20,0.8,27.263,M,-13.60,M,02,1002*48
$GPGGA,060117.00,3028.1244625,N,11432.5133564,E,4,20,0.8,26.927,M,-13.60,M,02,1002*4F
$GPGGA,060118.00,3028.1300570,N,11432.4977480,E,4,19,0.7,26.616,M,-13.60,M,03,1002*49
$GPGGA,060119.00,3028.1356576,N,11432.4819862,E,4,21,0.7,26.305,M,-13.60,M,02,1002*49
$GPGGA,060120.00,3028.1412973,N,11432.4660722,E,4,21,0.7,26.053,M,-13.60,M,02,1002*46
$GPGGA,060121.00,3028.1469944,N,11432.4500039,E,4,21,0.8,25.847,M,-13.60,M,02,1002*46
$GPGGA,060122.00,3028.1527520,N,11432.4337752,E,4,22,0.6,25.609,M,-13.60,M,03,1002*40
$GPGGA,060123.00,3028.1585725,N,11432.4173873,E,4,22,0.7,25.367,M,-13.60,M,03,1002*4C
$GPGGA,060124.00,3028.1644611,N,11432.4009072,E,4,20,0.7,25.155,M,-13.60,M,02,1002*46
$GPGGA,060125.00,3028.1703624,N,11432.3844624,E,4,19,0.6,24.999,M,-13.60,M,02,1002*42
$GPGGA,060126.00,3028.1762575,N,11432.3679784,E,4,23,0.7,24.897,M,-13.60,M,02,1002*4D
$GPGGA,060127.00,3028.1821803,N,11432.3513951,E,4,23,0.7,24.839,M,-13.60,M,03,1002*44
$GPGGA,060128.00,3028.1881206,N,11432.3346966,E,4,24,0.6,24.792,M,-13.60,M,02,1002*45
$GPGGA,060129.00,3028.1940368,N,11432.3178523,E,4,22,0.7,24.708,M,-13.60,M,02,1002*47
$GPGGA,060130.00,3028.1999054,N,11432.3009676,E,4,26,0.6,24.631,M,-13.60,M,02,1002*4D
$GPGGA,060131.00,3028.2056573,N,11432.2842330,E,4,28,0.6,24.567,M,-13.60,M,03,1002*4B
$GPGGA,060132.00,3028.2113516,N,11432.2674490,E,4,28,0.6,24.535,M,-13.60,M,02,1002*4B
$GPGGA,060133.00,3028.2169516,N,11432.2505676,E,4,25,0.6,24.523,M,-13.60,M,02,1002*42
$GPGGA,060134.00,3028.2223892,N,11432.2338496,E,4,23,0.7,24.508,M,-13.60,M,02,1002*43
$GPGGA,060135.00,3028.2276247,N,11432.2174158,E,4,23,0.6,24.527,M,-13.60,M,03,1002*40
$GPGGA,060136.00,3028.2326612,N,11432.2012859,E,4,28,0.6,24.479,M,-13.60,M,02,1002*4A
$GPGGA,060137.00,3028.2375299,N,11432.1853988,E,4,28,0.6,24.383,M,-13.60,M,02,1002*4B
$GPGGA,060138.00,3028.2422779,N,11432.1695318,E,4,28,0.6,24.219,M,-13.60,M,02,1002*4F
$GPGGA,060139.00,3028.2469227,N,11432.1535236,E,4,29,0.6,24.047,M,-13.60,M,02,1002*43
$GPGGA,060140.00,3028.2514731,N,11432.1373317,E,4,26,0.6,23.890,M,-13.60,M,03,1002*49
$GPGGA,060141.00,3028.2559229,N,11432.1209661,E,4,26,0.5,23.773,M,-13.60,M,02,1002*45
$GPGGA,060142.00,3028.2602666,N,11432.1044568,E,4,26,0.6,23.668,M,-13.60,M,02,1002*4D
$GPGGA,060143.00,3028.2644663,N,11432.0878516,E,4,23,0.7,23.595,M,-13.60,M,02,1002*41
$GPGGA,060144.00,3028.2685165,N,11432.0711138,E,4,24,0.6,23.671,M,-13.70,M,02,1002*4C
$GPGGA,060145.00,3028.2724467,N,11432.0542622,E,4,23,0.6,23.666,M,-13.70,M,02,1002*49
$GPGGA,060146.00,3028.2762556,N,11432.0373780,E,4,23,0.7,23.671,M,-13.70,M,02,1002*41
$GPGGA,060147.00,3028.2799091,N,11432.0205843,E,4,23,0.7,23.672,M,-13.70,M,03,1002*48
$GPGGA,060148.00,3028.2834282,N,11432.0037539,E,4,23,0.6,23.664,M,-13.70,M,02,1002*4B
$GPGGA,060149.00,3028.2868494,N,11431.9868035,E,4,26,0.6,23.704,M,-13.70,M,02,1002*41
$GPGGA,060150.00,3028.2901276,N,11431.9697179,E,4,25,0.6,23.725,M,-13.70,M,02,1002*4A
$GPGGA,060151.00,3028.2932928,N,11431.9524948,E,4,24,0.6,23.787,M,-13.70,M,03,1002*42
$GPGGA,060152.00,3028.2963093,N,11431.9351960,E,4,24,0.7,23.841,M,-13.70,M,02,1002*47
$GPGGA,060153.00,3028.2991931,N,11431.9180087,E,4,24,0.7,23.909,M,-13.70,M,02,1002*49
$GPGGA,060154.00,3028.3019380,N,11431.9008809,E,4,25,0.6,23.914,M,-13.70,M,02,1002*45
$GPGGA,060155.00,3028.3045595,N,11431.8837102,E,4,22,0.7,23.994,M,-13.70,M,03,1002*47
$GPGGA,060156.00,3028.3069743,N,11431.8664688,E,4,24,0.7,24.124,M,-13.70,M,02,1002*4D
$GPGGA,060157.00,3028.3092430,N,11431.8492442,E,4,23,0.7,24.251,M,-13.70,M,02,1002*46
$GPGGA,060158.00,3028.3114213,N,11431.8319827,E,4,22,0.8,24.325,M,-13.70,M,02,1002*46
$GPGGA,060159.00,3028.3135185,N,11431.8146513,E,4,21,0.7,24.468,M,-13.70,M,03,1002*49
$GPGGA,060200.00,3028.3154573,N,11431.7973033,E,4,23,0.7,24.575,M,-13.70,M,02,1002*44
$GPGGA,060201.00,3028.3172427,N,11431.7800779,E,4,24,0.6,24.778,M,-13.70,M,02,1002*44
$GPGGA,060202.00,3028.3188784,N,11431.7629882,E,4,24,0.6,24.950,M,-13.70,M,03,1002*43
$GPGGA,060203.00,3028.3203324,N,11431.7461313,E,4,23,0.6,25.115,M,-13.70,M,03,1002*4E
$GPGGA,060204.00,3028.3216161,N,11431.7299867,E,4,09,0.9,25.713,M,-13.70,M,02,1002*41
$GPGGA,060205.00,3028.3227873,N,11431.7132785,E,4,09,9.9,25.482,M,-13.70,M,02,1002*4B
$GPGGA,060206.00,3028.3238244,N,11431.6969377,E,4,00,9.9,25.670,M,-13.70,M,01,1002*43
$GPGGA,060207.00,3028.3247393,N,11431.6805322,E,4,00,9.9,25.886,M,-13.70,M,01,1002*4D
$GPGGA,060208.00,3028.3255248,N,11431.6640578,E,4,00,1.1,26.117,M,-13.70,M,01,1002*42
$GPGGA,060209.00,3028.3261709,N,11431.6475613,E,1,12,1.1,26.364,M,-13.70,M,,*4C
$GPGGA,060210.00,3028.3265991,N,11431.6309683,E,1,12,0.9,26.645,M,-13.70,M,,*45
$GPGGA,060211.00,3028.3269929,N,11431.6142227,E,1,13,0.7,27.111,M,-13.70,M,,*44
$GPGGA,060212.00,3028.3272189,N,11431.5975098,E,1,16,0.9,27.438,M,-13.70,M,,*43
$GPGGA,060213.00,3028.3272558,N,11431.5807418,E,1,14,0.7,27.664,M,-13.70,M,,*45
$GPGGA,060214.00,3028.3272311,N,11431.5639155,E,1,16,0.7,27.857,M,-13.70,M,,*4A
$GPGGA,060215.00,3028.3270585,N,11431.5470222,E,1,18,0.6,28.109,M,-13.70,M,,*4C
$GPGGA,060216.00,3028.3267554,N,11431.5300524,E,1,20,0.6,28.378,M,-13.70,M,,*4B
$GPGGA,060217.00,3028.3263866,N,11431.5130368,E,1,20,0.7,28.720,M,-13.70,M,,*45
$GPGGA,060218.00,3028.3258878,N,11431.4959536,E,1,19,0.8,29.018,M,-13.70,M,,*4E
$GPGGA,060219.00,3028.3252256,N,11431.4788482,E,1,17,0.7,29.357,M,-13.70,M,,*46
$GPGGA,060220.00,3028.3244028,N,11431.4618207,E,1,15,0.7,29.762,M,-13.70,M,03,1002*43
$GPGGA,060221.00,3028.3235053,N,11431.4449684,E,5,17,0.7,30.116,M,-13.70,M,02,1002*4B
$GPGGA,060222.00,3028.3225017,N,11431.4282283,E,5,18,0.6,30.462,M,-13.70,M,02,1002*43
$GPGGA,060223.00,3028.3214124,N,11431.4114508,E,1,21,0.6,30.835,M,-13.70,M,,*48
$GPGGA,060224.00,3028.3201863,N,11431.3947161,E,1,25,0.6,31.184,M,-13.70,M,,*45
$GPGGA,060225.00,3028.3188731,N,11431.3779061,E,5,26,0.6,31.531,M,-13.70,M,02,1002*40
$GPGGA,060226.00,3028.3175200,N,11431.3610231,E,1,26,0.7,31.838,M,-13.70,M,,*4F
$GPGGA,060227.00,3028.3160796,N,11431.3441719,E,1,23,0.7,32.164,M,-13.70,M,,*4F
$GPGGA,060228.00,3028.3145572,N,11431.3271860,E,4,24,0.6,32.793,M,-13.70,M,02,1002*47
$GPGGA,060229.00,3028.3129812,N,11431.3103376,E,4,25,0.6,33.139,M,-13.70,M,02,1002*4B
$GPGGA,060230.00,3028.3113822,N,11431.2934857,E,4,28,0.6,33.513,M,-13.70,M,02,1002*4D
$GPGGA,060231.00,3028.3098093,N,11431.2765898,E,4,25,0.6,33.863,M,-13.70,M,02,1002*42
$GPGGA,060232.00,3028.3082361,N,11431.2596398,E,4,24,0.6,34.221,M,-13.70,M,03,1002*4A
$GPGGA,060233.00,3028.3066398,N,11431.2426376,E,4,23,0.6,34.590,M,-13.70,M,02,1002*46
$GPGGA,060234.00,3028.3050078,N,11431.2256063,E,4,25,0.6,34.979,M,-13.70,M,02,1002*42
$GPGGA,060235.00,3028.3033785,N,11431.2086165,E,4,26,0.6,35.363,M,-13.70,M,02,1002*48
$GPGGA,060236.00,3028.3017568,N,11431.1916847,E,4,24,0.6,35.733,M,-13.70,M,03,1002*44
$GPGGA,060237.00,3028.3001327,N,11431.1747777,E,4,28,0.6,36.128,M,-13.70,M,02,1002*4B
$GPGGA,060238.00,3028.2984961,N,11431.1578835,E,4,23,0.7,36.512,M,-13.70,M,02,1002*49
$GPGGA,060239.00,3028.2968335,N,11431.1409631,E,4,21,0.7,36.900,M,-13.70,M,02,1002*41
$GPGGA,060240.00,3028.2951513,N,11431.1240373,E,4,23,0.6,37.281,M,-13.70,M,03,1002*4E
$GPGGA,060241.00,3028.2934945,N,11431.1071502,E,4,22,0.6,37.609,M,-13.70,M,02,1002*47
$GPGGA,060242.00,3028.2918800,N,11431.0902927,E,4,22,0.7,37.991,M,-13.70,M,02,1002*42
$GPGGA,060243.00,3028.2902815,N,11431.0734261,E,4,24,0.6,38.375,M,-13.70,M,03,1002*47
$GPGGA,060244.00,3028.2886754,N,11431.0565195,E,4,25,0.6,38.753,M,-13.70,M,02,1002*49
$GPGGA,060245.00,3028.2871046,N,11431.0395576,E,4,19,0.7,39.126,M,-13.70,M,02,1002*4F
$GPGGA,060246.00,3028.2856771,N,11431.0225285,E,4,18,0.7,39.541,M,-13.70,M,02,1002*4F
$GPGGA,060247.00,3028.2843546,N,11431.0054300,E,4,19,0.6,39.921,M,-13.70,M,02,1002*4E
$GPGGA,060248.00,3028.2831379,N,11430.9882573,E,4,19,0.7,40.294,M,-13.70,M,02,1002*4D
$GPGGA,060249.00,3028.2819898,N,11430.9710108,E,4,22,0.6,40.703,M,-13.70,M,03,1002*4D
$GPGGA,060250.00,3028.2809261,N,11430.9536895,E,4,24,0.6,41.055,M,-13.70,M,02,1002*41
$GPGGA,060251.00,3028.2799171,N,11430.9363136,E,4,22,0.7,41.417,M,-13.70,M,02,1002*47
$GPGGA,060252.00,3028.2789797,N,11430.9189721,E,4,22,0.7,41.758,M,-13.70,M,02,1002*45
$GPGGA,060253.00,3028.2780973,N,11430.9017320,E,4,22,0.7,42.101,M,-13.70,M,03,1002*42
$GPGGA,060254.00,3028.2772447,N,11430.8845384,E,4,23,0.6,42.368,M,-13.70,M,02,1002*4E
$GPGGA,060255.00,3028.2764487,N,11430.8673701,E,4,23,0.7,42.555,M,-13.70,M,02,1002*4F
$GPGGA,060256.00,3028.2757537,N,11430.8503005,E,1,23,0.6,42.672,M,-13.70,M,01,1002*40
$GPGGA,060257.00,3028.2750889,N,11430.8333301,E,4,23,0.6,44.256,M,-13.70,M,02,1002*4E
$GPGGA,060258.00,3028.2745076,N,11430.8162876,E,4,25,0.6,44.581,M,-13.70,M,02,1002*4B
$GPGGA,060259.00,3028.2739828,N,11430.7993763,E,4,26,0.6,44.512,M,-13.70,M,02,1002*49
$GPGGA,060300.00,3028.2735347,N,11430.7827245,E,4,25,0.6,44.403,M,-13.70,M,03,1002*46
$GPGGA,060301.00,3028.2732078,N,11430.7660700,E,4,26,0.6,42.420,M,-13.70,M,02,1002*43
$GPGGA,060302.00,3028.2729645,N,11430.7495077,E,4,25,0.6,42.164,M,-13.70,M,02,1002*4B
$GPGGA,060303.00,3028.2728315,N,11430.7328984,E,4,24,0.7,41.897,M,-13.70,M,02,1002*49
$GPGGA,060304.00,3028.2727956,N,11430.7162374,E,4,25,0.6,41.513,M,-13.70,M,02,1002*44
$GPGGA,060305.00,3028.2728298,N,11430.6995202,E,4,22,0.7,41.143,M,-13.70,M,02,1002*45
$GPGGA,060306.00,3028.2728848,N,11430.6827341,E,4,22,0.6,40.762,M,-13.70,M,02,1002*4A
$GPGGA,060307.00,3028.2729195,N,11430.6658822,E,4,25,0.6,40.362,M,-13.70,M,02,1002*48
$GPGGA,060308.00,3028.2729685,N,11430.6489311,E,4,23,0.6,40.003,M,-13.70,M,02,1002*46
$GPGGA,060309.00,3028.2731274,N,11430.6318169,E,4,24,0.6,39.643,M,-13.70,M,02,1002*4D
$GPGGA,060310.00,3028.2733495,N,11430.6145208,E,4,23,0.6,39.245,M,-13.70,M,02,1002*45
$GPGGA,060311.00,3028.2736170,N,11430.5970450,E,4,23,0.7,38.871,M,-13.70,M,02,1002*44
$GPGGA,060312.00,3028.2740571,N,11430.5794014,E,4,24,0.6,38.472,M,-13.70,M,02,1002*4A
$GPGGA,060313.00,3028.2746254,N,11430.5616129,E,4,27,0.6,38.073,M,-13.70,M,02,1002*4F
$GPGGA,060314.00,3028.2753082,N,11430.5436789,E,4,28,0.5,37.667,M,-13.70,M,02,1002*49
$GPGGA,060315.00,3028.2760792,N,11430.5255733,E,4,27,0.5,37.259,M,-13.70,M,02,1002*4A
$GPGGA,060316.00,3028.2769002,N,11430.5072897,E,4,22,0.7,36.932,M,-13.80,M,02,1002*47
$GPGGA,060317.00,3028.2778155,N,11430.4888298,E,4,18,0.6,36.558,M,-13.80,M,02,1002*44
$GPGGA,060318.00,3028.2788277,N,11430.4702463,E,4,18,0.6,36.216,M,-13.80,M,02,1002*45
$GPGGA,060319.00,3028.2799063,N,11430.4517366,E,4,18,0.7,35.934,M,-13.80,M,02,1002*4E
$GPGGA,060320.00,3028.2809986,N,11430.4332999,E,4,22,0.7,35.685,M,-13.80,M,02,1002*47
$GPGGA,060321.00,3028.2821600,N,11430.4147852,E,4,23,0.6,35.482,M,-13.80,M,03,1002*4F
$GPGGA,060322.00,3028.2834137,N,11430.3961556,E,4,24,0.6,35.315,M,-13.80,M,01,1002*45
$GPGGA,060323.00,3028.2847781,N,11430.3774362,E,4,30,0.6,35.237,M,-13.80,M,02,1002*47
$GPGGA,060324.00,3028.2862670,N,11430.3588300,E,4,30,0.5,35.173,M,-13.80,M,02,1002*4D
$GPGGA,060325.00,3028.2878252,N,11430.3405629,E,4,30,0.5,35.138,M,-13.80,M,02,1002*46
$GPGGA,060326.00,3028.2894521,N,11430.3226676,E,4,26,0.6,35.154,M,-13.80,M,02,1002*47
$GPGGA,060327.00,3028.2911248,N,11430.3051124,E,4,24,0.6,35.147,M,-13.80,M,02,1002*40
$GPGGA,060328.00,3028.2928186,N,11430.2877940,E,4,21,0.7,35.185,M,-13.80,M,02,1002*49
$GPGGA,060329.00,3028.2945676,N,11430.2706956,E,4,22,0.6,35.312,M,-13.80,M,02,1002*4B
$GPGGA,060330.00,3028.2963599,N,11430.2538312,E,4,18,0.7,35.531,M,-13.80,M,02,1002*4F
$GPGGA,060331.00,3028.2982114,N,11430.2372200,E,4,16,0.7,35.748,M,-13.80,M,02,1002*48
$GPGGA,060332.00,3028.3001249,N,11430.2208334,E,4,19,0.8,35.920,M,-13.80,M,02,1002*49
$GPGGA,060333.00,3028.3020820,N,11430.2046284,E,4,20,0.7,36.250,M,-13.80,M,02,1002*46
$GPGGA,060334.00,3028.3040733,N,11430.1885274,E,4,20,0.7,36.507,M,-13.80,M,02,1002*44
$GPGGA,060335.00,3028.3060642,N,11430.1725173,E,4,22,0.6,36.771,M,-13.80,M,02,1002*41
$GPGGA,060336.00,3028.3081152,N,11430.1565738,E,4,23,0.7,37.031,M,-13.80,M,02,1002*46
$GPGGA,060337.00,3028.3102300,N,11430.1406331,E,4,22,0.7,37.295,M,-13.80,M,02,1002*4C
$GPGGA,060338.00,3028.3124191,N,11430.1246647,E,4,24,0.7,37.553,M,-13.80,M,02,1002*40
$GPGGA,060339.00,3028.3146832,N,11430.1087119,E,4,23,0.7,37.787,M,-13.80,M,02,1002*4A
$GPGGA,060340.00,3028.3170268,N,11430.0927610,E,4,24,0.7,38.094,M,-13.80,M,02,1002*45
$GPGGA,060341.00,3028.3194840,N,11430.0767776,E,4,24,0.7,38.353,M,-13.80,M,02,1002*4D
$GPGGA,060342.00,3028.3219797,N,11430.0607827,E,4,23,0.7,38.627,M,-13.80,M,02,1002*40
$GPGGA,060343.00,3028.3244978,N,11430.0447420,E,4,25,0.6,38.911,M,-13.80,M,02,1002*46
$GPGGA,060344.00,3028.3270817,N,11430.0286494,E,4,26,0.7,39.144,M,-13.80,M,02,1002*41
$GPGGA,060345.00,3028.3297020,N,11430.0125120,E,4,23,0.7,39.476,M,-13.80,M,03,1002*45
$GPGGA,060346.00,3028.3323908,N,11429.9963639,E,4,22,0.6,39.767,M,-13.80,M,02,1002*4D
$GPGGA,060347.00,3028.3351536,N,11429.9802417,E,4,23,0.6,40.045,M,-13.80,M,02,1002*48
$GPGGA,060348.00,3028.3379940,N,11429.9641408,E,4,24,0.6,40.275,M,-13.80,M,02,1002*41
$GPGGA,060349.00,3028.3409358,N,11429.9480710,E,4,23,0.6,40.538,M,-13.80,M,02,1002*4F
$GPGGA,060350.00,3028.3439862,N,11429.9319976,E,4,23,0.6,40.806,M,-13.80,M,01,1002*4C
$GPGGA,060351.00,3028.3470749,N,11429.9159034,E,4,23,0.7,41.097,M,-13.80,M,02,1002*4C
$GPGGA,060352.00,3028.3501788,N,11429.8999964,E,4,23,0.7,41.333,M,-13.80,M,02,1002*41
$GPGGA,060353.00,3028.3533415,N,11429.8842219,E,4,21,0.7,41.609,M,-13.80,M,02,1002*4E
$GPGGA,060354.00,3028.3565262,N,11429.8684155,E,4,20,0.6,41.922,M,-13.80,M,02,1002*45
$GPGGA,060355.00,3028.3597319,N,11429.8525338,E,4,24,0.7,42.158,M,-13.80,M,02,1002*46
$GPGGA,060356.00,3028.3629637,N,11429.8366296,E,4,25,0.7,42.381,M,-13.80,M,03,1002*48
$GPGGA,060357.00,3028.3661780,N,11429.8207914,E,4,24,0.5,42.538,M,-13.80,M,02,1002*49
$GPGGA,060358.00,3028.3693695,N,11429.8049611,E,4,24,0.7,42.620,M,-13.80,M,02,1002*44
$GPGGA,060359.00,3028.3724730,N,11429.7890873,E,4,25,0.6,42.679,M,-13.80,M,02,1002*43
$GPGGA,060400.00,3028.3754676,N,11429.7732164,E,4,24,0.7,42.691,M,-13.80,M,02,1002*42
$GPGGA,060401.00,3028.3783659,N,11429.7574666,E,4,22,0.7,42.661,M,-13.80,M,03,1002*49
$GPGGA,060402.00,3028.3811769,N,11429.7416836,E,4,22,0.6,42.566,M,-13.80,M,02,1002*46
$GPGGA,060403.00,3028.3839593,N,11429.7257728,E,4,22,0.7,42.422,M,-13.80,M,02,1002*49
$GPGGA,060404.00,3028.3867180,N,11429.7097170,E,4,22,0.7,42.216,M,-13.80,M,02,1002*47
$GPGGA,060405.00,3028.3894131,N,11429.6934920,E,4,19,0.8,41.972,M,-13.80,M,02,1002*41
$GPGGA,060406.00,3028.3920424,N,11429.6770993,E,4,16,0.7,41.670,M,-13.80,M,03,1002*47
$GPGGA,060407.00,3028.3946437,N,11429.6605458,E,4,18,0.7,41.320,M,-13.80,M,04,1002*44
$GPGGA,060408.00,3028.3972345,N,11429.6438304,E,4,20,0.6,40.918,M,-13.80,M,05,1002*47
$GPGGA,060409.00,3028.3998319,N,11429.6269725,E,4,24,0.6,40.466,M,-13.80,M,02,1002*49
$GPGGA,060410.00,3028.4023798,N,11429.6100607,E,4,23,0.6,39.980,M,-13.80,M,03,1002*42
$GPGGA,060411.00,3028.4048700,N,11429.5931084,E,4,21,0.6,39.483,M,-13.80,M,02,1002*46
$GPGGA,060412.00,3028.4072866,N,11429.5762936,E,4,20,0.7,38.995,M,-13.80,M,02,1002*40
$GPGGA,060413.00,3028.4096546,N,11429.5595676,E,4,21,0.7,38.479,M,-13.80,M,02,1002*4B
$GPGGA,060414.00,3028.4120344,N,11429.5427203,E,4,21,0.6,37.976,M,-13.80,M,03,1002*47
$GPGGA,060415.00,3028.4144265,N,11429.5257006,E,4,24,0.6,37.472,M,-13.80,M,02,1002*4D
$GPGGA,060416.00,3028.4168335,N,11429.5085002,E,4,26,0.5,36.977,M,-13.80,M,02,1002*45
$GPGGA,060417.00,3028.4191947,N,11429.4911457,E,4,25,0.6,36.565,M,-13.80,M,02,1002*43
$GPGGA,060418.00,3028.4214818,N,11429.4737206,E,4,26,0.6,36.223,M,-13.80,M,03,1002*46
$GPGGA,060419.00,3028.4236290,N,11429.4563590,E,4,24,0.6,35.942,M,-13.80,M,02,1002*4A
$GPGGA,060420.00,3028.4256332,N,11429.4391057,E,4,24,0.6,35.723,M,-13.80,M,02,1002*43
$GPGGA,060421.00,3028.4275257,N,11429.4219864,E,4,25,0.5,35.580,M,-13.80,M,03,1002*40
$GPGGA,060422.00,3028.4293208,N,11429.4050197,E,4,25,0.7,35.524,M,-13.80,M,02,1002*46
$GPGGA,060423.00,3028.4310423,N,11429.3882259,E,4,26,0.7,35.532,M,-13.80,M,02,1002*47
$GPGGA,060424.00,3028.4326570,N,11429.3716112,E,4,23,0.6,35.623,M,-13.80,M,02,1002*4B
$GPGGA,060425.00,3028.4341637,N,11429.3551762,E,4,24,0.7,35.728,M,-13.80,M,02,1002*47
$GPGGA,060426.00,3028.4355006,N,11429.3388649,E,4,25,0.6,35.933,M,-13.80,M,02,1002*4B
$GPGGA,060427.00,3028.4367862,N,11429.3226273,E,4,25,0.7,36.244,M,-13.80,M,02,1002*40
$GPGGA,060428.00,3028.4380712,N,11429.3064230,E,4,29,0.6,36.539,M,-13.80,M,02,1002*4D
$GPGGA,060429.00,3028.4393677,N,11429.2902955,E,4,29,0.6,36.910,M,-13.80,M,02,1002*4B
$GPGGA,060430.00,3028.4405896,N,11429.2743840,E,4,28,0.6,37.422,M,-13.80,M,02,1002*48
$GPGGA,060431.00,3028.4416730,N,11429.2587358,E,4,27,0.6,38.052,M,-13.90,M,02,1002*42
$GPGGA,060432.00,3028.4426680,N,11429.2432619,E,4,24,0.6,38.588,M,-13.90,M,02,1002*46
$GPGGA,060433.00,3028.4435918,N,11429.2278873,E,4,26,0.6,39.205,M,-13.90,M,03,1002*41
$GPGGA,060434.00,3028.4444727,N,11429.2125985,E,4,27,0.6,39.755,M,-13.90,M,02,1002*41
$GPGGA,060435.00,3028.4453179,N,11429.1973878,E,4,27,0.6,40.281,M,-13.90,M,02,1002*42
$GPGGA,060436.00,3028.4460783,N,11429.1822325,E,4,26,0.6,40.719,M,-13.90,M,02,1002*41
$GPGGA,060437.00,3028.4467646,N,11429.1671236,E,4,25,0.7,41.162,M,-13.90,M,02,1002*4D
$GPGGA,060438.00,3028.4474389,N,11429.1520363,E,4,24,0.6,41.519,M,-13.90,M,03,1002*49
$GPGGA,060439.00,3028.4481048,N,11429.1369134,E,4,24,0.7,41.854,M,-13.90,M,02,1002*43
$GPGGA,060440.00,3028.4487177,N,11429.1217283,E,4,24,0.6,42.108,M,-13.90,M,02,1002*43
$GPGGA,060441.00,3028.4492287,N,11429.1064726,E,4,22,0.7,42.328,M,-13.90,M,02,1002*41
$GPGGA,060442.00,3028.4496876,N,11429.0911190,E,4,20,0.8,42.489,M,-13.90,M,02,1002*42
$GPGGA,060443.00,3028.4501063,N,11429.0756598,E,4,18,0.8,42.611,M,-13.90,M,03,1002*48
$GPGGA,060444.00,3028.4504503,N,11429.0600783,E,4,18,0.9,42.707,M,-13.90,M,03,1002*44
$GPGGA,060445.00,3028.4507229,N,11429.0443535,E,4,16,0.9,42.726,M,-13.90,M,02,1002*4F
$GPGGA,060446.00,3028.4509528,N,11429.0285094,E,4,13,1.0,42.725,M,-13.90,M,02,1002*48
$GPGGA,060447.00,3028.4511545,N,11429.0125054,E,1,10,0.7,42.627,M,-13.90,M,02,1002*4D
$GPGGA,060448.00,3028.4513149,N,11428.9963607,E,4,14,0.9,42.469,M,-13.90,M,02,1002*4D
$GPGGA,060449.00,3028.4514610,N,11428.9802541,E,4,17,0.8,42.276,M,-13.90,M,03,1002*4C
$GPGGA,060450.00,3028.4515960,N,11428.9643221,E,4,21,0.7,42.018,M,-13.90,M,02,1002*46
$GPGGA,060451.00,3028.4516771,N,11428.9485083,E,4,22,0.6,41.730,M,-13.90,M,02,1002*44
$GPGGA,060452.00,3028.4516264,N,11428.9327758,E,4,19,0.8,41.484,M,-13.90,M,02,1002*42
$GPGGA,060453.00,3028.4515114,N,11428.9171245,E,4,21,0.6,41.225,M,-13.90,M,03,1002*45
$GPGGA,060454.00,3028.4513951,N,11428.9016202,E,4,22,0.6,40.956,M,-13.90,M,02,1002*42
$GPGGA,060455.00,3028.4512644,N,11428.8863415,E,4,22,0.8,40.761,M,-13.90,M,02,1002*46
$GPGGA,060456.00,3028.4510357,N,11428.8712801,E,4,19,0.8,40.533,M,-13.90,M,02,1002*4D
$GPGGA,060457.00,3028.4507142,N,11428.8564322,E,4,16,0.8,40.301,M,-13.90,M,03,1002*4C
$GPGGA,060458.00,3028.4503637,N,11428.8417375,E,4,16,0.7,40.066,M,-13.90,M,02,1002*49
$GPGGA,060459.00,3028.4499862,N,11428.8270906,E,4,21,1.1,39.831,M,-13.90,M,02,1002*4A
$GPGGA,060500.00,3028.4495171,N,11428.8123975,E,4,00,2.1,39.605,M,-13.90,M,02,1002*48
$GPGGA,060501.00,3028.4490067,N,11428.7975918,E,4,00,0.7,39.370,M,-13.90,M,02,1002*46
$GPGGA,060502.00,3028.4484453,N,11428.7826346,E,1,21,0.7,39.129,M,-13.90,M,,*4C
$GPGGA,060503.00,3028.4478365,N,11428.7675823,E,1,22,0.8,38.871,M,-13.90,M,,*45
$GPGGA,060504.00,3028.4471555,N,11428.7522260,E,1,19,0.9,38.581,M,-13.90,M,,*49
$GPGGA,060505.00,3028.4464961,N,11428.7367391,E,1,16,1.1,38.311,M,-13.90,M,,*46
$GPGGA,060506.00,3028.4457980,N,11428.7210935,E,1,11,0.9,38.116,M,-13.90,M,02,1002*45
$GPGGA,060507.00,3028.4450087,N,11428.7052900,E,5,13,0.7,37.925,M,-13.90,M,03,1002*41
$GPGGA,060508.00,3028.4441410,N,11428.6893553,E,5,17,0.7,37.763,M,-13.90,M,02,1002*43
$GPGGA,060509.00,3028.4431846,N,11428.6733205,E,5,20,0.7,37.650,M,-13.90,M,02,1002*4E
$GPGGA,060510.00,3028.4423257,N,11428.6572452,E,1,21,0.7,37.552,M,-13.90,M,,*49
$GPGGA,060511.00,3028.4411379,N,11428.6412194,E,1,22,0.7,37.619,M,-13.90,M,,*43
$GPGGA,060512.00,3028.4400116,N,11428.6255253,E,1,21,0.7,37.497,M,-13.90,M,,*41
$GPGGA,060513.00,3028.4388410,N,11428.6099036,E,1,22,0.6,37.576,M,-13.90,M,,*4B
$GPGGA,060514.00,3028.4376224,N,11428.5943829,E,5,18,0.7,37.636,M,-13.90,M,02,1002*4D
$GPGGA,060515.00,3028.4363273,N,11428.5790082,E,5,14,0.6,37.754,M,-13.90,M,03,1002*4A
$GPGGA,060516.00,3028.4349509,N,11428.5638612,E,5,19,0.7,37.907,M,-13.90,M,02,1002*42
$GPGGA,060517.00,3028.4335881,N,11428.5489223,E,5,15,9.9,38.065,M,-13.90,M,02,1002*42
$GPGGA,060518.00,3028.4322566,N,11428.5341660,E,5,00,9.9,38.248,M,-13.90,M,02,1002*46
$GPGGA,060519.00,3028.4309000,N,11428.5196144,E,5,00,2.7,38.438,M,-13.90,M,02,1002*46
$GPGGA,060520.00,3028.4294935,N,11428.5052007,E,5,07,1.3,38.652,M,-13.90,M,,*46
$GPGGA,060521.00,3028.4280595,N,11428.4909628,E,1,09,1.4,38.954,M,-13.90,M,,*4D
$GPGGA,060522.00,3028.4267311,N,11428.4768470,E,1,11,3.6,39.195,M,-13.90,M,,*46
$GPGGA,060523.00,3028.4252500,N,11428.4628373,E,1,06,2.3,39.491,M,-13.90,M,,*45
$GPGGA,060524.00,3028.4237139,N,11428.4491511,E,1,08,1.6,39.806,M,-13.90,M,,*47
$GPGGA,060525.00,3028.4223685,N,11428.4355915,E,1,13,1.6,40.054,M,-13.90,M,,*4F
$GPGGA,060526.00,3028.4206422,N,11428.4224710,E,1,12,1.5,40.576,M,-13.90,M,,*4F
$GPGGA,060527.00,3028.4191607,N,11428.4101845,E,1,13,0.9,41.108,M,-13.90,M,,*4D
$GPGGA,060528.00,3028.4177214,N,11428.3980378,E,1,17,1.1,41.330,M,-13.90,M,,*4B
$GPGGA,060529.00,3028.4163408,N,11428.3862491,E,1,16,0.9,41.551,M,-13.90,M,,*40
$GPGGA,060530.00,3028.4149880,N,11428.3747885,E,1,17,1.1,41.910,M,-13.90,M,,*4C
$GPGGA,060531.00,3028.4136551,N,11428.3636843,E,1,16,0.7,42.342,M,-13.90,M,,*41
$GPGGA,060532.00,3028.4123817,N,11428.3529358,E,1,19,0.7,42.532,M,-13.90,M,,*4B
$GPGGA,060533.00,3028.4111823,N,11428.3426001,E,1,18,0.7,42.749,M,-13.90,M,,*42
$GPGGA,060534.00,3028.4100809,N,11428.3326002,E,1,20,0.7,42.859,M,-13.90,M,,*4C
$GPGGA,060535.00,3028.4090221,N,11428.3229891,E,1,20,0.7,42.998,M,-13.90,M,,*45
$GPGGA,060536.00,3028.4080323,N,11428.3137098,E,1,19,0.6,43.162,M,-13.90,M,,*4E
$GPGGA,060537.00,3028.4070836,N,11428.3048247,E,1,21,0.6,43.331,M,-13.90,M,,*49
$GPGGA,060538.00,3028.4062241,N,11428.2963825,E,1,21,0.6,43.604,M,-13.90,M,,*43
$GPGGA,060539.00,3028.4055308,N,11428.2883521,E,1,22,0.6,43.724,M,-13.90,M,,*4C
$GPGGA,060540.00,3028.4048530,N,11428.2807614,E,1,22,0.6,43.803,M,-13.90,M,,*40
$GPGGA,060541.00,3028.4040327,N,11428.2735637,E,1,22,0.6,43.912,M,-13.90,M,,*47
$GPGGA,060542.00,3028.4030930,N,11428.2667830,E,1,22,0.6,44.018,M,-13.90,M,,*44
$GPGGA,060543.00,3028.4019864,N,11428.2602888,E,5,26,0.6,43.986,M,-13.90,M,02,1002*46
$GPGGA,060544.00,3028.4008780,N,11428.2542920,E,5,26,0.6,43.991,M,-13.90,M,03,1002*47
$GPGGA,060545.00,3028.3997637,N,11428.2483724,E,4,26,0.6,44.782,M,-13.90,M,02,1002*4E
$GPGGA,060546.00,3028.3988994,N,11428.2433272,E,4,30,0.6,44.905,M,-13.90,M,02,1002*4E
$GPGGA,060547.00,3028.3981708,N,11428.2387613,E,4,31,0.6,44.979,M,-13.90,M,02,1002*4C
$GPGGA,060548.00,3028.3976088,N,11428.2347217,E,4,31,0.6,45.040,M,-13.90,M,02,1002*4A
$GPGGA,060549.00,3028.3972179,N,11428.2312539,E,4,31,0.6,45.090,M,-13.90,M,02,1002*46
$GPGGA,060550.00,3028.3969318,N,11428.2284341,E,4,31,0.6,45.134,M,-13.90,M,02,1002*49
$GPGGA,060551.00,3028.3967095,N,11428.2262656,E,4,31,0.6,45.166,M,-13.90,M,02,1002*4C
$GPGGA,060552.00,3028.3965309,N,11428.2245587,E,4,30,0.5,45.195,M,-13.90,M,02,1002*4F
$GPGGA,060553.00,3028.3963321,N,11428.2224989,E,4,32,0.5,45.211,M,-13.90,M,03,1002*4B
$GPGGA,060554.00,3028.3960971,N,11428.2197245,E,4,33,0.5,45.256,M,-13.90,M,02,1002*43
$GPGGA,060555.00,3028.3958802,N,11428.2170329,E,4,33,0.5,45.280,M,-13.90,M,02,1002*45
$GPGGA,060556.00,3028.3956916,N,11428.2148721,E,4,32,0.5,45.311,M,-13.90,M,02,1002*43
$GPGGA,060557.00,3028.3955165,N,11428.2129006,E,4,32,0.5,45.334,M,-13.90,M,02,1002*4F
$GPGGA,060558.00,3028.3953287,N,11428.2110510,E,4,31,0.5,45.357,M,-13.90,M,02,1002*47
$GPGGA,060559.00,3028.3951675,N,11428.2095259,E,4,28,0.6,45.369,M,-13.90,M,02,1002*4D
$GPGGA,060600.00,3028.3950542,N,11428.2084293,E,4,28,0.6,45.362,M,-13.90,M,02,1002*49
$GPGGA,060601.00,3028.3949928,N,11428.2078223,E,4,25,0.6,45.358,M,-13.90,M,03,1002*4D
$GPGGA,060602.00,3028.3949697,N,11428.2076212,E,4,28,0.5,45.308,M,-13.90,M,02,1002*43
$GPGGA,060603.00,3028.3949848,N,11428.2076248,E,4,29,0.5,45.297,M,-13.90,M,02,1002*47
$GPGGA,060604.00,3028.3949757,N,11428.2075674,E,4,29,0.5,45.314,M,-13.90,M,02,1002*43
$GPGGA,060605.00,3028.3949228,N,11428.2070449,E,4,29,0.5,45.329,M,-13.90,M,02,1002*48
$GPGGA,060606.00,3028.3947953,N,11428.2057233,E,4,26,0.6,45.340,M,-13.90,M,02,1002*4F
$GPGGA,060607.00,3028.3946670,N,11428.2043121,E,4,22,0.6,45.369,M,-13.90,M,02,1002*4B
$GPGGA,060608.00,3028.3945686,N,11428.2032432,E,4,21,0.6,45.372,M,-13.90,M,02,1002*46
$GPGGA,060609.00,3028.3945263,N,11428.2027496,E,4,21,0.6,45.379,M,-13.90,M,02,1002*49
$GPGGA,060610.00,3028.3945242,N,11428.2027334,E,4,24,0.6,45.381,M,-13.90,M,02,1002*4F
$GPGGA,060611.00,3028.3945296,N,11428.2027351,E,4,26,0.6,45.393,M,-13.90,M,02,1002*45
$GPGGA,060612.00,3028.3945321,N,11428.2027331,E,4,30,0.6,45.402,M,-13.90,M,02,1002*45
$GPGGA,060613.00,3028.3945322,N,11428.2027330,E,4,30,0.6,45.405,M,-13.90,M,02,1002*41
$GPGGA,060614.00,3028.3945318,N,11428.2027313,E,4,30,0.6,45.409,M,-13.90,M,02,1002*42
$GPGGA,060615.00,3028.3945284,N,11428.2027329,E,4,30,0.6,45.424,M,-13.90,M,02,1002*41
$GPGGA,060616.00,3028.3945338,N,11428.2027448,E,4,28,0.6,45.414,M,-13.90,M,02,1002*4E
$GPGGA,060617.00,3028.3945345,N,11428.2027479,E,4,28,0.6,45.418,M,-13.90,M,02,1002*4B
$GPGGA,060618.00,3028.3945350,N,11428.2027458,E,4,30,0.6,45.428,M,-13.90,M,02,1002*49
$GPGGA,060619.00,3028.3945354,N,11428.2027466,E,4,30,0.6,45.432,M,-13.90,M,02,1002*4A
$GPGGA,060620.00,3028.3945327,N,11428.2027459,E,4,30,0.6,45.439,M,-13.90,M,02,1002*43
$GPGGA,060621.00,3028.3945327,N,11428.2027436,E,4,30,0.6,45.437,M,-13.90,M,02,1002*45
$GPGGA,060622.00,3028.3945319,N,11428.2027414,E,4,30,0.6,45.444,M,-13.90,M,02,1002*4F
$GPGGA,060623.00,3028.3945326,N,11428.2027372,E,4,30,0.6,45.451,M,-13.90,M,03,1002*40
$GPGGA,060624.00,3028.3945307,N,11428.2027343,E,4,29,0.6,45.453,M,-13.90,M,02,1002*4D
$GPGGA,060625.00,3028.3945281,N,11428.2027326,E,4,29,0.6,45.455,M,-13.90,M,02,1002*46
$GPGGA,060626.00,3028.3945314,N,11428.2027310,E,4,28,0.6,45.457,M,-13.90,M,02,1002*4E
$GPGGA,060627.00,3028.3945332,N,11428.2027362,E,4,30,0.6,45.450,M,-13.90,M,02,1002*40
$GPGGA,060628.00,3028.3945251,N,11428.2026445,E,4,30,0.6,45.455,M,-13.90,M,02,1002*4D
$GPGGA,060629.00,3028.3944797,N,11428.2021411,E,4,29,0.6,45.451,M,-13.90,M,02,1002*48
$GPGGA,060630.00,3028.3943757,N,11428.2011515,E,4,23,0.6,45.474,M,-13.90,M,02,1002*40
$GPGGA,060631.00,3028.3942795,N,11428.2001541,E,4,17,0.6,45.527,M,-13.90,M,01,1002*4D
$GPGGA,060632.00,3028.3942163,N,11428.1994983,E,4,17,0.9,45.560,M,-13.90,M,02,1002*4A
$GPGGA,060633.00,3028.3941981,N,11428.1992340,E,4,12,0.9,45.532,M,-13.90,M,02,1002*4D
$GPGGA,060634.00,3028.3941740,N,11428.1991894,E,4,14,0.9,45.548,M,-13.90,M,02,1002*43
$GPGGA,060635.00,3028.3942190,N,11428.1991285,E,1,18,0.6,45.551,M,-13.90,M,02,1002*4E
$GPGGA,060636.00,3028.3942030,N,11428.1990562,E,4,20,0.6,45.442,M,-13.90,M,02,1002*44
$GPGGA,060637.00,3028.3941995,N,11428.1989935,E,4,25,0.6,45.359,M,-13.90,M,02,1002*4E
$GPGGA,060638.00,3028.3942000,N,11428.1989577,E,4,26,0.6,45.305,M,-13.90,M,02,1002*47
$GPGGA,060639.00,3028.3941754,N,11428.1990729,E,1,26,0.6,45.334,M,-13.90,M,02,1002*45
$GPGGA,060640.00,3028.3941910,N,11428.1992009,E,4,27,0.6,45.598,M,-13.90,M,02,1002*46
$GPGGA,060641.00,3028.3941835,N,11428.1994173,E,4,27,0.6,45.923,M,-13.90,M,02,1002*47
$GPGGA,060642.00,3028.3941715,N,11428.1996674,E,4,26,0.6,46.270,M,-13.90,M,02,1002*44
$GPGGA,060643.00,3028.3941537,N,11428.1998544,E,4,28,0.6,46.538,M,-13.90,M,03,1002*4D
$GPGGA,060644.00,3028.3941548,N,11428.1996086,E,4,28,0.6,46.285,M,-13.90,M,02,1002*47
$GPGGA,060645.00,3028.3941492,N,11428.1997107,E,4,28,0.6,46.371,M,-13.90,M,02,1002*43
$GPGGA,060646.00,3028.3941461,N,11428.1997554,E,4,21,0.6,46.487,M,-13.90,M,02,1002*49
$GPGGA,060647.00,3028.3941402,N,11428.1998406,E,4,19,0.6,46.614,M,-13.90,M,02,1002*47
$GPGGA,060648.00,3028.3941359,N,11428.1999163,E,4,23,0.6,46.731,M,-13.90,M,02,1002*49
$GPGGA,060649.00,3028.3941208,N,11428.1999781,E,4,26,0.6,46.877,M,-13.90,M,02,1002*4F
$GPGGA,060650.00,3028.3941090,N,11428.2000282,E,4,25,0.6,46.997,M,-13.90,M,02,1002*44
$GPGGA,060651.00,3028.3941060,N,11428.2000715,E,4,26,0.6,47.063,M,-13.90,M,02,1002*41
$GPGGA,060652.00,3028.3941033,N,11428.2001142,E,4,27,0.6,47.117,M,-13.90,M,01,1002*41
$GPGGA,060653.00,3028.3941032,N,11428.2001268,E,4,26,0.6,47.138,M,-13.90,M,02,1002*45
$GPGGA,060654.00,3028.3940998,N,11428.2000566,E,4,27,0.6,47.027,M,-13.90,M,03,1002*4D
$GPGGA,060655.00,3028.3941017,N,11428.2000678,E,4,27,0.6,47.029,M,-13.90,M,02,1002*40
$GPGGA,060656.00,3028.3941006,N,11428.2000738,E,4,27,0.5,47.051,M,-13.90,M,02,1002*4A
$GPGGA,060657.00,3028.3941010,N,11428.2000937,E,4,26,0.6,47.067,M,-13.90,M,02,1002*4A
$GPGGA,060658.00,3028.3941003,N,11428.2001104,E,4,25,0.6,47.093,M,-13.90,M,02,1002*46
$GPGGA,060659.00,3028.3941017,N,11428.2001327,E,4,24,0.5,47.115,M,-13.90,M,02,1002*4C
$GPGGA,060700.00,3028.3940968,N,11428.2001475,E,4,25,0.5,47.139,M,-13.90,M,02,1002*4E
$GPGGA,060701.00,3028.3940970,N,11428.2001660,E,4,27,0.5,47.164,M,-13.90,M,02,1002*4A
$GPGGA,060702.00,3028.3940936,N,11428.2001875,E,4,29,0.6,47.180,M,-13.90,M,02,1002*46
$GPGGA,060703.00,3028.3940887,N,11428.2001944,E,4,28,0.6,47.208,M,-13.90,M,02,1002*4D
$GPGGA,060704.00,3028.3940904,N,11428.2002152,E,4,26,0.6,47.214,M,-13.90,M,03,1002*4E
$GPGGA,060705.00,3028.3940893,N,11428.2002186,E,4,26,0.6,47.238,M,-13.90,M,03,1002*47
$GPGGA,060706.00,3028.3940915,N,11428.2002266,E,4,27,0.6,47.250,M,-13.90,M,04,1002*4E
$GPGGA,060707.00,3028.3940828,N,11428.2002397,E,4,25,0.6,47.265,M,-13.90,M,02,1002*4D
$GPGGA,060708.00,3028.3940860,N,11428.2002576,E,4,25,0.6,47.281,M,-13.90,M,01,1002*4E
$GPGGA,060709.00,3028.3940845,N,11428.2002709,E,4,25,0.6,47.291,M,-13.90,M,02,1002*40
$GPGGA,060710.00,3028.3940882,N,11428.2002753,E,4,27,0.6,47.319,M,-13.90,M,02,1002*4F
$GPGGA,060711.00,3028.3940876,N,11428.2002947,E,4,26,0.5,47.326,M,-13.90,M,02,1002*40
$GPGGA,060712.00,3028.3940843,N,11428.2003033,E,4,28,0.5,47.341,M,-13.90,M,02,1002*41
$GPGGA,060713.00,3028.3940863,N,11428.2003194,E,4,28,0.6,47.353,M,-13.90,M,02,1002*4E
$GPGGA,060714.00,3028.3940892,N,11428.2003373,E,4,27,0.6,47.367,M,-13.90,M,01,1002*47
$GPGGA,060715.00,3028.3940833,N,11428.2003340,E,4,27,0.6,47.389,M,-13.90,M,02,1002*4E
$GPGGA,060716.00,3028.3940875,N,11428.2003462,E,4,27,0.6,47.394,M,-13.90,M,03,1002*45
$GPGGA,060717.00,3028.3940842,N,11428.2003438,E,4,26,0.6,47.413,M,-13.90,M,02,1002*47
$GPGGA,060718.00,3028.3940808,N,11428.2003574,E,4,26,0.6,47.410,M,-13.90,M,02,1002*4C
$GPGGA,060719.00,3028.3940811,N,11428.2003528,E,4,26,0.6,47.420,M,-13.90,M,02,1002*4F
$GPGGA,060720.00,3028.3940804,N,11428.2003557,E,4,23,0.6,47.424,M,-13.90,M,02,1002*48
$GPGGA,060721.00,3028.3940762,N,11428.2003506,E,4,24,0.6,47.424,M,-13.90,M,02,1002*45
$GPGGA,060722.00,3028.3940854,N,11428.2003589,E,4,24,0.6,47.409,M,-13.90,M,02,1002*44
$GPGGA,060723.00,3028.3940809,N,11428.2003574,E,4,24,0.6,47.405,M,-13.90,M,02,1002*43
$GPGGA,060724.00,3028.3940827,N,11428.2003541,E,4,25,0.6,47.408,M,-13.90,M,02,1002*42
$GPGGA,060725.00,3028.3940784,N,11428.2003497,E,4,27,0.6,47.409,M,-13.90,M,02,1002*4C
$GPGGA,060726.00,3028.3940753,N,11428.2002547,E,4,26,0.5,47.408,M,-13.90,M,02,1002*4B
$GPGGA,060727.00,3028.3940362,N,11428.1997650,E,4,23,0.6,47.410,M,-13.90,M,03,1002*41
$GPGGA,060728.00,3028.3939680,N,11428.1987422,E,4,19,0.8,47.420,M,-13.90,M,02,1002*4A
$GPGGA,060729.00,3028.3938748,N,11428.1975303,E,4,11,1.1,47.441,M,-13.90,M,02,1002*41
$GPGGA,060730.00,3028.3938065,N,11428.1966802,E,4,00,0.9,47.449,M,-13.90,M,02,1002*48
$GPGGA,060731.00,3028.3938187,N,11428.1966182,E,1,11,0.8,47.452,M,-13.90,M,,*4A
$GPGGA,060732.00,3028.3938058,N,11428.1966255,E,1,15,0.6,47.457,M,-13.90,M,,*4C
$GPGGA,060733.00,3028.3938361,N,11428.1963475,E,1,21,0.6,47.514,M,-13.90,M,,*44
$GPGGA,060734.00,3028.3935886,N,11428.1967396,E,1,22,0.6,47.416,M,-13.90,M,,*42
$GPGGA,060735.00,3028.3937071,N,11428.1966299,E,1,23,0.6,47.478,M,-13.90,M,,*47
$GPGGA,060736.00,3028.3937037,N,11428.1966256,E,1,24,0.5,47.481,M,-13.90,M,,*47
$GPGGA,060737.00,3028.3937092,N,11428.1966236,E,1,25,0.5,47.404,M,-13.90,M,,*43
$GPGGA,060738.00,3028.3937077,N,11428.1966227,E,1,25,0.5,47.391,M,-13.90,M,,*4C
$GPGGA,060739.00,3028.3937116,N,11428.1966203,E,1,26,0.5,47.394,M,-13.90,M,,*4B
$GPGGA,060740.00,3028.3937095,N,11428.1966230,E,1,26,0.5,47.386,M,-13.90,M,,*4C
$GPGGA,060741.00,3028.3937096,N,11428.1966325,E,1,25,0.5,47.387,M,-13.90,M,,*49
$GPGGA,060742.00,3028.3937082,N,11428.1966224,E,1,25,0.5,47.385,M,-13.90,M,,*4D
$GPGGA,060743.00,3028.3937094,N,11428.1966281,E,1,24,0.5,47.378,M,-13.90,M,,*47
$GPGGA,060744.00,3028.3937082,N,11428.1966291,E,1,25,0.5,47.379,M,-13.90,M,,*46
$GPGGA,060745.00,3028.3937089,N,11428.1966288,E,1,24,0.5,47.381,M,-13.90,M,,*42
$GPGGA,060746.00,3028.3937051,N,11428.1966333,E,1,24,0.5,47.383,M,-13.90,M,,*47
$GPGGA,060747.00,3028.3937052,N,11428.1966249,E,1,24,0.5,47.386,M,-13.90,M,,*4C
$GPGGA,060748.00,3028.3937061,N,11428.1966341,E,1,24,0.5,47.384,M,-13.90,M,,*48
$GPGGA,060749.00,3028.3937068,N,11428.1966362,E,1,28,0.5,47.382,M,-13.90,M,01,1002*49
$GPGGA,060750.00,3028.3937115,N,11428.1966441,E,1,27,0.6,47.378,M,-13.90,M,02,1002*46
$GPGGA,060751.00,3028.3937063,N,11428.1966421,E,1,25,0.6,47.383,M,-13.90,M,02,1002*47
$GPGGA,060752.00,3028.3937043,N,11428.1966352,E,1,26,0.6,47.384,M,-13.90,M,02,1002*41
$GPGGA,060753.00,3028.3937068,N,11428.1966399,E,1,25,0.6,47.386,M,-13.90,M,02,1002*4F
$GPGGA,060754.00,3028.3937031,N,11428.1966383,E,1,24,0.6,47.386,M,-13.90,M,02,1002*4E
$GPGGA,060755.00,3028.3937039,N,11428.1966331,E,1,24,0.5,47.391,M,-13.90,M,02,1002*4B
$GPGGA,060756.00,3028.3937038,N,11428.1966435,E,1,25,0.6,47.379,M,-13.90,M,02,1002*4E
$GPGGA,060757.00,3028.3937016,N,11428.1966319,E,1,26,0.5,47.386,M,-13.90,M,02,1002*4A
$GPGGA,060758.00,3028.3937051,N,11428.1966289,E,1,27,0.5,47.384,M,-13.90,M,02,1002*4D
$GPGGA,060759.00,3028.3937054,N,11428.1965950,E,1,27,0.6,47.383,M,-13.90,M,03,1002*40
$GPGGA,060800.00,3028.3936751,N,11428.1965369,E,1,23,0.6,47.356,M,-13.90,M,02,1002*4D
$GPGGA,060801.00,3028.3936426,N,11428.1961004,E,1,20,0.6,47.344,M,-13.90,M,02,1002*43
$GPGGA,060802.00,3028.3935509,N,11428.1949983,E,1,16,0.9,47.341,M,-13.90,M,02,1002*4C
$GPGGA,060803.00,3028.3934307,N,11428.1930318,E,1,06,1.2,47.356,M,-13.90,M,02,1002*4F
$GPGGA,060804.00,3028.3932360,N,11428.1903142,E,1,00,1.8,47.377,M,-13.90,M,02,1002*4D
$GPGGA,060805.00,3028.3929520,N,11428.1870248,E,1,11,1.2,47.385,M,-13.90,M,03,1002*4E
$GPGGA,060806.00,3028.3925372,N,11428.1832064,E,1,15,0.6,47.420,M,-13.90,M,03,1002*43
$GPGGA,060807.00,3028.3920175,N,11428.1790267,E,1,21,0.6,47.525,M,-13.90,M,03,1002*47
$GPGGA,060808.00,3028.3913196,N,11428.1741147,E,1,22,0.6,47.545,M,-13.90,M,03,1002*4D
$GPGGA,060809.00,3028.3906236,N,11428.1687354,E,1,22,0.6,47.568,M,-13.90,M,03,1002*45
$GPGGA,060810.00,3028.3897879,N,11428.1629378,E,1,22,0.6,47.520,M,-13.90,M,04,1002*44
$GPGGA,060811.00,3028.3889222,N,11428.1566458,E,1,22,0.6,47.516,M,-13.90,M,03,1002*41
$GPGGA,060812.00,3028.3881992,N,11428.1498917,E,1,33,0.6,47.474,M,-13.90,M,02,1002*48
$GPGGA,060813.00,3028.3875780,N,11428.1410844,E,4,34,0.6,45.409,M,-13.90,M,02,1002*42
$GPGGA,060814.00,3028.3866513,N,11428.1335456,E,4,34,0.6,45.350,M,-13.90,M,02,1002*4B
$GPGGA,060815.00,3028.3857215,N,11428.1256849,E,4,34,0.6,45.276,M,-13.90,M,03,1002*4B
$GPGGA,060816.00,3028.3848416,N,11428.1177164,E,4,34,0.5,45.168,M,-13.90,M,02,1002*4B
$GPGGA,060817.00,3028.3840764,N,11428.1096839,E,4,33,0.5,45.085,M,-13.90,M,02,1002*4E
$GPGGA,060818.00,3028.3834024,N,11428.1014716,E,4,33,0.5,44.982,M,-13.90,M,02,1002*46
$GPGGA,060819.00,3028.3828438,N,11428.0931000,E,4,33,0.5,44.867,M,-13.90,M,02,1002*46
$GPGGA,060820.00,3028.3823343,N,11428.0847356,E,4,32,0.5,44.740,M,-13.90,M,02,1002*47
$GPGGA,060821.00,3028.3819938,N,11428.0763566,E,4,30,0.5,44.585,M,-13.90,M,02,1002*4C
$GPGGA,060822.00,3028.3818385,N,11428.0680268,E,4,31,0.5,44.475,M,-13.90,M,02,1002*48
$GPGGA,060823.00,3028.3817414,N,11428.0597444,E,4,32,0.5,44.387,M,-13.90,M,03,1002*4C
$GPGGA,060824.00,3028.3817743,N,11428.0512911,E,4,32,0.5,44.186,M,-13.90,M,02,1002*48
$GPGGA,060825.00,3028.3819541,N,11428.0425880,E,4,33,0.5,43.953,M,-13.90,M,02,1002*4D
$GPGGA,060826.00,3028.3821891,N,11428.0335743,E,4,32,0.5,43.675,M,-13.90,M,02,1002*49
$GPGGA,060827.00,3028.3824081,N,11428.0242177,E,4,32,0.5,43.342,M,-13.90,M,02,1002*45
$GPGGA,060828.00,3028.3825159,N,11428.0145774,E,4,30,0.5,43.048,M,-13.90,M,02,1002*45
$GPGGA,060829.00,3028.3824900,N,11428.0047647,E,4,31,0.5,42.717,M,-13.90,M,02,1002*4E
$GPGGA,060830.00,3028.3824312,N,11427.9947173,E,4,31,0.5,42.337,M,-13.90,M,01,1002*45
$GPGGA,060831.00,3028.3823682,N,11427.9845269,E,4,31,0.5,41.997,M,-13.90,M,02,1002*44
$GPGGA,060832.00,3028.3822617,N,11427.9742654,E,4,32,0.5,41.666,M,-13.90,M,02,1002*4A
$GPGGA,060833.00,3028.3820760,N,11427.9639069,E,4,32,0.5,41.394,M,-13.90,M,02,1002*45
$GPGGA,060834.00,3028.3818139,N,11427.9534047,E,4,32,0.5,41.132,M,-13.90,M,02,1002*4F
$GPGGA,060835.00,3028.3814840,N,11427.9426551,E,4,32,0.5,40.891,M,-13.90,M,02,1002*44
$GPGGA,060836.00,3028.3811601,N,11427.9316114,E,4,32,0.5,40.627,M,-13.90,M,02,1002*4B
$GPGGA,060837.00,3028.3808558,N,11427.9202386,E,4,32,0.5,40.375,M,-13.90,M,02,1002*42
$GPGGA,060838.00,3028.3805694,N,11427.9085312,E,4,31,0.5,40.119,M,-13.90,M,02,1002*48
$GPGGA,060839.00,3028.3802809,N,11427.8965017,E,4,32,0.5,39.983,M,-13.90,M,02,1002*42
$GPGGA,060840.00,3028.3800146,N,11427.8841731,E,4,30,0.5,39.921,M,-13.90,M,02,1002*42
$GPGGA,060841.00,3028.3798103,N,11427.8716278,E,4,29,0.5,39.818,M,-13.90,M,02,1002*4A
$GPGGA,060842.00,3028.3796873,N,11427.8592291,E,4,31,0.5,39.778,M,-13.90,M,02,1002*40
$GPGGA,060843.00,3028.3796045,N,11427.8470108,E,4,29,0.5,39.765,M,-13.90,M,02,1002*47
$GPGGA,060844.00,3028.3795336,N,11427.8348917,E,4,28,0.5,39.781,M,-13.90,M,03,1002*44
$GPGGA,060845.00,3028.3794800,N,11427.8227568,E,4,29,0.6,39.817,M,-13.90,M,02,1002*45
$GPGGA,060846.00,3028.3794444,N,11427.8105342,E,4,29,0.6,39.928,M,-13.90,M,03,1002*4B
$GPGGA,060847.00,3028.3794268,N,11427.7982100,E,4,29,0.5,40.096,M,-13.90,M,02,1002*4E
$GPGGA,060848.00,3028.3794273,N,11427.7858033,E,4,31,0.5,40.285,M,-13.90,M,02,1002*45
$GPGGA,060849.00,3028.3794582,N,11427.7733088,E,4,30,0.5,40.459,M,-13.90,M,01,1002*4A
$GPGGA,060850.00,3028.3794812,N,11427.7606926,E,4,28,0.6,40.663,M,-13.90,M,02,1002*4E
$GPGGA,060851.00,3028.3794810,N,11427.7479356,E,4,28,0.5,40.895,M,-13.90,M,02,1002*4E
$GPGGA,060852.00,3028.3794535,N,11427.7350451,E,4,30,0.5,41.180,M,-13.90,M,02,1002*4E
$GPGGA,060853.00,3028.3794024,N,11427.7220230,E,4,29,0.5,41.439,M,-13.90,M,02,1002*42
$GPGGA,060854.00,3028.3793196,N,11427.7088658,E,4,29,0.6,41.679,M,-13.90,M,02,1002*45
$GPGGA,060855.00,3028.3792030,N,11427.6955779,E,4,29,0.6,42.009,M,-14.00,M,02,1002*4E
$GPGGA,060856.00,3028.3790794,N,11427.6821824,E,4,29,0.5,42.275,M,-14.00,M,02,1002*49
$GPGGA,060857.00,3028.3790000,N,11427.6687941,E,4,28,0.5,42.529,M,-14.00,M,01,1002*4E
$GPGGA,060858.00,3028.3789290,N,11427.6554402,E,4,30,0.5,42.751,M,-14.00,M,02,1002*42
$GPGGA,060859.00,3028.3788342,N,11427.6420351,E,4,27,0.6,42.983,M,-14.00,M,02,1002*4B
$GPGGA,060900.00,3028.3787132,N,11427.6285251,E,4,28,0.5,43.239,M,-14.00,M,03,1002*42
$GPGGA,060901.00,3028.3785615,N,11427.6148993,E,4,29,0.5,43.463,M,-14.00,M,02,1002*4D
$GPGGA,060902.00,3028.3783715,N,11427.6011463,E,4,29,0.5,43.710,M,-14.00,M,02,1002*41
$GPGGA,060903.00,3028.3780987,N,11427.5872993,E,4,29,0.6,43.958,M,-14.00,M,02,1002*4B
$GPGGA,060904.00,3028.3777912,N,11427.5734648,E,4,28,0.6,44.177,M,-14.00,M,02,1002*4F
$GPGGA,060905.00,3028.3774559,N,11427.5596623,E,4,28,0.5,44.426,M,-14.00,M,03,1002*4A
$GPGGA,060906.00,3028.3770870,N,11427.5458320,E,4,29,0.5,44.658,M,-14.00,M,02,1002*45
$GPGGA,060907.00,3028.3766605,N,11427.5320690,E,4,31,0.5,44.872,M,-14.00,M,02,1002*46
$GPGGA,060908.00,3028.3761971,N,11427.5184278,E,4,31,0.5,45.065,M,-14.00,M,02,1002*43
$GPGGA,060909.00,3028.3756915,N,11427.5048601,E,4,32,0.5,45.272,M,-14.00,M,02,1002*48
$GPGGA,060910.00,3028.3751222,N,11427.4913262,E,4,29,0.5,45.354,M,-14.00,M,03,1002*41
$GPGGA,060911.00,3028.3745075,N,11427.4777998,E,4,28,0.6,45.435,M,-14.00,M,02,1002*44
$GPGGA,060912.00,3028.3738717,N,11427.4642664,E,4,28,0.6,45.511,M,-14.00,M,02,1002*42
$GPGGA,060913.00,3028.3732179,N,11427.4508087,E,4,28,0.6,45.545,M,-14.00,M,02,1002*40
$GPGGA,060914.00,3028.3725305,N,11427.4373210,E,4,28,0.5,45.568,M,-14.00,M,02,1002*42
$GPGGA,060915.00,3028.3717875,N,11427.4236907,E,4,27,0.5,45.506,M,-14.00,M,03,1002*45
$GPGGA,060916.00,3028.3709629,N,11427.4098827,E,4,29,0.5,45.417,M,-14.00,M,02,1002*45
$GPGGA,060917.00,3028.3700547,N,11427.3959079,E,4,29,0.5,45.320,M,-14.00,M,02,1002*45
$GPGGA,060918.00,3028.3690728,N,11427.3817596,E,4,30,0.5,45.206,M,-14.00,M,02,1002*4B
$GPGGA,060919.00,3028.3681260,N,11427.3674282,E,4,30,0.5,45.040,M,-14.00,M,02,1002*4A
$GPGGA,060920.00,3028.3672870,N,11427.3529902,E,4,30,0.5,44.826,M,-14.00,M,03,1002*47
$GPGGA,060921.00,3028.3665858,N,11427.3385853,E,4,30,0.5,44.525,M,-14.00,M,02,1002*40
$GPGGA,060922.00,3028.3659515,N,11427.3241073,E,4,31,0.5,44.223,M,-14.00,M,02,1002*4B
$GPGGA,060923.00,3028.3652296,N,11427.3094847,E,4,32,0.5,43.938,M,-14.00,M,02,1002*4D
$GPGGA,060924.00,3028.3644167,N,11427.2947080,E,4,32,0.5,43.665,M,-14.00,M,02,1002*42
$GPGGA,060925.00,3028.3635124,N,11427.2797947,E,4,30,0.5,43.380,M,-14.00,M,02,1002*4F
$GPGGA,060926.00,3028.3625413,N,11427.2648791,E,4,30,0.5,43.098,M,-14.00,M,02,1002*40
$GPGGA,060927.00,3028.3615565,N,11427.2501981,E,4,27,0.5,42.848,M,-14.00,M,02,1002*41
$GPGGA,060928.00,3028.3604998,N,11427.2357366,E,4,14,0.8,42.603,M,-14.00,M,02,1002*4A
$GPGGA,060929.00,3028.3593687,N,11427.2213020,E,1,14,9.9,42.314,M,-14.00,M,02,1002*49
$GPGGA,060930.00,3028.3582539,N,11427.2069736,E,1,00,0.9,42.063,M,-14.00,M,02,1002*47
$GPGGA,060931.00,3028.3571242,N,11427.1926764,E,1,19,0.6,41.800,M,-14.00,M,,*4F
$GPGGA,060932.00,3028.3559788,N,11427.1784588,E,1,28,0.5,41.526,M,-14.00,M,,*4B
$GPGGA,060933.00,3028.3548466,N,11427.1644646,E,1,28,0.5,41.269,M,-14.00,M,,*49
$GPGGA,060934.00,3028.3534417,N,11427.1506808,E,1,29,0.5,40.840,M,-14.00,M,,*43
$GPGGA,060935.00,3028.3521256,N,11427.1367696,E,1,30,0.5,40.592,M,-14.00,M,,*47
$GPGGA,060936.00,3028.3507751,N,11427.1228452,E,1,30,0.5,40.310,M,-14.00,M,,*4E
$GPGGA,060937.00,3028.3493784,N,11427.1088887,E,1,28,0.5,40.098,M,-14.00,M,,*4D
$GPGGA,060938.00,3028.3479920,N,11427.0949431,E,1,28,0.5,39.776,M,-14.00,M,,*4B
