% (x/y/z-ecef=WGS84,Q=1:fix,2:float,3:sbas,4:dgps,5:single,6:ppp,ns=# of satellites)
%  GPST                   x-ecef(m)      y-ecef(m)      z-ecef(m)   Q  ns   sdx(m)   sdy(m)   sdz(m)  sdxy(m)  sdyz(m)  sdzx(m) age(s)  ratio
2020/07/03 05:08:35  -2286273.8688   5003418.3554   3217135.1552   1  25   0.0000   0.0000   0.0000   0.0000   0.0000   0.0000   0.00    0.0
2020/07/03 05:08:36  -2286273.8705   5003418.3522   3217135.1550   1  25   0.0000   0.0000   0.0000   0.0000   0.0000   0.0000   0.00    0.0
2020/07/03 05:08:37  -2286273.8698   5003418.3541   3217135.1565   1  25   0.0000   0.0000   0.0000   0.0000   0.0000   0.0000   0.00    0.0
2020/07/03 05:08:38  -2286273.8694   5003418.3544   3217135.1544   1  25   0.0000   0.0000   0.0000   0.0000   0.0000   0.0000   0.00    0.0
2020/07/03 05:08:39  -2286273.8698   5003418.3518   3217135.1541   1  25   0.0000   0.0000   0.0000   0.0000   0.0000   0.0000   0.00    0.0
2020/07/03 05:08:40  -2286273.8755   5003418.3574   3217135.1592   1  25   0.0000   0.0000   0.0000   0.0000   0.0000   0.0000   0.00    0.0
2020/07/03 05:08:41  -2286273.8720   5003418.3569   3217135.1565   1  25   0.0000   0.0000   0.0000   0.0000   0.0000   0.0000   0.00    0.0
2020/07/03 05:08:42  -2286273.8723   5003418.3569   3217135.1562   1  25   0.0000   0.0000   0.0000   0.0000   0.0000   0.0000   0.00    0.0
2020/07/03 05:08:43  -2286273.8736   5003418.3554   3217135.1577   1  25   0.0000   0.0000   0.0000   0.0000   0.0000   0.0000   0.00    0.0
2020/07/03 05:08:44  -2286273.8664   5003418.3504   3217135.1508   1  25   0.0000   0.0000   0.0000   0.0000   0.0000   0.0000   0.00    0.0
2020/07/03 05:08:45  -2286273.8640   5003418.3487   3217135.1511   1  25   0.0000   0.0000   0.0000   0.0000   0.0000   0.0000   0.00    0.0
2020/07/03 05:08:46  -2286273.8758   5003418.3596   3217135.1575   1  25   0.0000   0.0000   0.0000   0.0000   0.0000   0.0000   0.00    0.0
2020/07/03 05:08:47  -2286273.8759   5003418.3605   3217135.1580   1  25   0.0000   0.0000   0.0000   0.0000   0.0000   0.0000   0.00    0.0
2020/07/03 05:08:48  -2286273.8758   5003418.3588   3217135.1587   1  25   0.0000   0.0000   0.0000   0.0000   0.0000   0.0000   0.00    0.0
2020/07/03 05:08:49  -2286273.8797   5003418.3611   3217135.1603   1  25   0.0000   0.0000   0.0000   0.0000   0.0000   0.0000   0.00    0.0
2020/07/03 05:08:50  -2286273.8708   5003418.3568   3217135.1556   1  25   0.0000   0.0000   0.0000   0.0000   0.0000   0.0000   0.00    0.0
2020/07/03 05:08:51  -2286273.8715   5003418.3582   3217135.1529   1  25   0.0000   0.0000   0.0000   0.0000   0.0000   0.0000   0.00    0.0
2020/07/03 05:08:52  -2286273.8743   5003418.3601   3217135.1578   1  25   0.0000   0.0000   0.0000   0.0000   0.0000   0.0000   0.00    0.0
2020/07/03 05:08:53  -2286273.8726   5003418.3584   3217135.1577   1  25   0.0000   0.0000   0.0000   0.0000   0.0000   0.0000   0.00    0.0
2020/07/03 05:08:54  -2286273.8739   5003418.3603   3217135.1578   1  25   0.0000   0.0000   0.0000   0.0000   0.0000   0.0000   0.00    0.0
2020/07/03 05:08:55  -2286273.8765   5003418.3638   3217135.1603   1  25   0.0000   0.0000   0.0000   0.0000   0.0000   0.0000   0.00    0.0
2020/07/03 05:08:56  -2286273.8771   5003418.3617   3217135.1593   1  25   0.0000   0.0000   0.0000   0.0000   0.0000   0.0000   0.00    0.0
2020/07/03 05:08:57  -2286273.8770   5003418.3595   3217135.1607   1  25   0.0000   0.0000   0.0000   0.0000   0.0000   0.0000   0.00    0.0
2020/07/03 05:08:58  -2286273.8827   5003418.3645   3217135.1648   1  25   0.0000   0.0000   0.0000   0.0000   0.0000   0.0000   0.00    0.0
2020/07/03 05:08:59  -2286273.8787   5003418.3654   3217135.1604   1  25   0.0000   0.0000   0.0000   0.0000   0.0000   0.0000   0.00    0.0
2020/07/03 05:09:00  -2286273.8803   5003418.3666   3217135.1632   1  25   0.0000   0.0000   0.0000   0.0000   0.0000   0.0000   0.00    0.0
2020/07/03 05:09:01  -2286273.8743   5003418.3652   3217135.1618   1  25   0.0000   0.0000   0.0000   0.0000   0.0000   0.0000   0.00    0.0
2020/07/03 05:09:02  -2286273.8743   5003418.3596   3217135.1586   1  26   0.0000   0.0000   0.0000   0.0000   0.0000   0.0000   0.00    0.0
2020/07/03 05:09:03  -2286273.8814   5003418.3657   3217135.1619   1  26   0.0000   0.0000   0.0000   0.0000   0.0000   0.0000   0.00    0.0
2020/07/03 05:09:04  -2286273.8803   5003418.3678   3217135.1634   1  27   0.0000   0.0000   0.0000   0.0000   0.0000   0.0000   0.00    0.0
2020/07/03 05:09:05  -2286273.8803   5003418.3671   3217135.1645   1  27   0.0000   0.0000   0.0000   0.0000   0.0000   0.0000   0.00    0.0
2020/07/03 05:09:06  -2286273.8816   5003418.3653   3217135.1643   1  27   0.0000   0.0000   0.0000   0.0000   0.0000   0.0000   0.00    0.0
2020/07/03 05:09:07  -2286273.8772   5003418.3669   3217135.1610   1  27   0.0000   0.0000   0.0000   0.0000   0.0000   0.0000   0.00    0.0
2020/07/03 05:09:08  -2286273.8742   5003418.3626   3217135.1561   1  27   0.0000   0.0000   0.0000   0.0000   0.0000   0.0000   0.00    0.0
2020/07/03 05:09:09  -2286273.8756   5003418.3645   3217135.1579   1  27   0.0000   0.0000   0.0000   0.0000   0.0000   0.0000   0.00    0.0
2020/07/03 05:09:10  -2286273.8752   5003418.3614   3217135.1572   1  27   0.0000   0.0000   0.0000   0.0000   0.0000   0.0000   0.00    0.0
2020/07/03 05:09:11  -2286273.8740   5003418.3617   3217135.1594   1  26   0.0000   0.0000   0.0000   0.0000   0.0000   0.0000   0.00    0.0
2020/07/03 05:09:12  -2286273.8820   5003418.3700   3217135.1667   1  26   0.0000   0.0000   0.0000   0.0000   0.0000   0.0000   0.00    0.0
2020/07/03 05:09:13  -2286273.8781   5003418.3684   3217135.1621   1  26   0.0000   0.0000   0.0000   0.0000   0.0000   0.0000   0.00    0.0
2020/07/03 05:09:14  -2286273.8799   5003418.3688   3217135.1621   1  26   0.0000   0.0000   0.0000   0.0000   0.0000   0.0000   0.00    0.0
2020/07/03 05:09:15  -2286273.8818   5003418.3691   3217135.1662   1  26   0.0000   0.0000   0.0000   0.0000   0.0000   0.0000   0.00    0.0
2020/07/03 05:09:16  -2286273.8798   5003418.3678   3217135.1617   1  26   0.0000   0.0000   0.0000   0.0000   0.0000   0.0000   0.00    0.0
2020/07/03 05:09:17  -2286273.8829   5003418.3692   3217135.1613   1  26   0.0000   0.0000   0.0000   0.0000   0.0000   0.0000   0.00    0.0
2020/07/03 05:09:18  -2286273.8786   5003418.3659   3217135.1596   1  27   0.0000   0.0000   0.0000   0.0000   0.0000   0.0000   0.00    0.0
2020/07/03 05:09:19  -2286273.8814   5003418.3680   3217135.1642   1  27   0.0000   0.0000   0.0000   0.0000   0.0000   0.0000   0.00    0.0
2020/07/03 05:09:20  -2286273.8838   5003418.3704   3217135.1667   1  27   0.0000   0.0000   0.0000   0.0000   0.0000   0.0000   0.00    0.0
2020/07/03 05:09:21  -2286273.8907   5003418.3745   3217135.1693   1  27   0.0000   0.0000   0.0000   0.0000   0.0000   0.0000   0.00    0.0
2020/07/03 05:09:22  -2286273.8845   5003418.3681   3217135.1639   1  27   0.0000   0.0000   0.0000   0.0000   0.0000   0.0000   0.00    0.0
2020/07/03 05:09:23  -2286273.8788   5003418.3688   3217135.1609   1  27   0.0000   0.0000   0.0000   0.0000   0.0000   0.0000   0.00    0.0
2020/07/03 05:09:24  -2286273.8774   5003418.3666   3217135.1614   1  27   0.0000   0.0000   0.0000   0.0000   0.0000   0.0000   0.00    0.0
2020/07/03 05:09:25  -2286273.8791   5003418.3659   3217135.1612   1  27   0.0000   0.0000   0.0000   0.0000   0.0000   0.0000   0.00    0.0
2020/07/03 05:09:26  -2286273.8845   5003418.3734   3217135.1635   1  27   0.0000   0.0000   0.0000   0.0000   0.0000   0.0000   0.00    0.0
2020/07/03 05:09:27  -2286273.8830   5003418.3676   3217135.1656   1  27   0.0000   0.0000   0.0000   0.0000   0.0000   0.0000   0.00    0.0
2020/07/03 05:09:28  -2286273.8811   5003418.3662   3217135.1633   1  27   0.0000   0.0000   0.0000   0.0000   0.0000   0.0000   0.00    0.0
2020/07/03 05:09:29  -2286273.8806   5003418.3669   3217135.1645   1  26   0.0000   0.0000   0.0000   0.0000   0.0000   0.0000   0.00    0.0
2020/07/03 05:09:30  -2286273.8867   5003418.3733   3217135.1661   1  26   0.0000   0.0000   0.0000   0.0000   0.0000   0.0000   0.00    0.0
2020/07/03 05:09:31  -2286273.8839   5003418.3722   3217135.1638   1  26   0.0000   0.0000   0.0000   0.0000   0.0000   0.0000   0.00    0.0
2020/07/03 05:09:32  -2286273.8840   5003418.3717   3217135.1625   1  26   0.0000   0.0000   0.0000   0.0000   0.0000   0.0000   0.00    0.0
2020/07/03 05:09:33  -2286273.8886   5003418.3705   3217135.1651   1  26   0.0000   0.0000   0.0000   0.0000   0.0000   0.0000   0.00    0.0
2020/07/03 05:09:34  -2286273.8856   5003418.3691   3217135.1634   1  26   0.0000   0.0000   0.0000   0.0000   0.0000   0.0000   0.00    0.0
2020/07/03 05:09:35  -2286273.8852   5003418.3689   3217135.1641   1  26   0.0000   0.0000   0.0000   0.0000   0.0000   0.0000   0.00    0.0
2020/07/03 05:09:36  -2286273.8820   5003418.3696   3217135.1633   1  26   0.0000   0.0000   0.0000   0.0000   0.0000   0.0000   0.00    0.0
2020/07/03 05:09:37  -2286273.8819   5003418.3699   3217135.1629   1  26   0.0000   0.0000   0.0000   0.0000   0.0000   0.0000   0.00    0.0
2020/07/03 05:09:38  -2286273.8818   5003418.3666   3217135.1642   1  26   0.0000   0.0000   0.0000   0.0000   0.0000   0.0000   0.00    0.0
2020/07/03 05:09:39  -2286273.8823   5003418.3679   3217135.1637   1  26   0.0000   0.0000   0.0000   0.0000   0.0000   0.0000   0.00    0.0
2020/07/03 05:09:40  -2286273.8817   5003418.3669   3217135.1617   1  26   0.0000   0.0000   0.0000   0.0000   0.0000   0.0000   0.00    0.0
2020/07/03 05:09:41  -2286273.8805   5003418.3686   3217135.1600   1  26   0.0000   0.0000   0.0000   0.0000   0.0000   0.0000   0.00    0.0
2020/07/03 05:09:42  -2286273.8820   5003418.3657   3217135.1615   1  26   0.0000   0.0000   0.0000   0.0000   0.0000   0.0000   0.00    0.0
2020/07/03 05:09:43  -2286273.8890   5003418.3712   3217135.1658   1  26   0.0000   0.0000   0.0000   0.0000   0.0000   0.0000   0.00    0.0
2020/07/03 05:09:44  -2286273.8858   5003418.3678   3217135.1634   1  26   0.0000   0.0000   0.0000   0.0000   0.0000   0.0000   0.00    0.0
2020/07/03 05:09:45  -2286273.8884   5003418.3693   3217135.1691   1  26   0.0000   0.0000   0.0000   0.0000   0.0000   0.0000   0.00    0.0
2020/07/03 05:09:46  -2286273.8860   5003418.3706   3217135.1649   1  27   0.0000   0.0000   0.0000   0.0000   0.0000   0.0000   0.00    0.0
2020/07/03 05:09:47  -2286273.8820   5003418.3669   3217135.1635   1  26   0.0000   0.0000   0.0000   0.0000   0.0000   0.0000   0.00    0.0
2020/07/03 05:09:48  -2286273.8796   5003418.3675   3217135.1643   1  26   0.0000   0.0000   0.0000   0.0000   0.0000   0.0000   0.00    0.0
2020/07/03 05:09:49  -2286273.8837   5003418.3683   3217135.1641   1  26   0.0000   0.0000   0.0000   0.0000   0.0000   0.0000   0.00    0.0
2020/07/03 05:09:50  -2286273.8827   5003418.3653   3217135.1636   1  25   0.0000   0.0000   0.0000   0.0000   0.0000   0.0000   0.00    0.0
2020/07/03 05:09:51  -2286273.8819   5003418.3648   3217135.1628   1  26   0.0000   0.0000   0.0000   0.0000   0.0000   0.0000   0.00    0.0
2020/07/03 05:09:52  -2286273.8767   5003418.3526   3217135.1775   1  26   0.0000   0.0000   0.0000   0.0000   0.0000   0.0000   0.00    0.0
2020/07/03 05:09:53  -2286273.8294   5003418.2502   3217135.3770   1  25   0.0000   0.0000   0.0000   0.0000   0.0000   0.0000   0.00    0.0
2020/07/03 05:09:54  -2286273.6425   5003417.8870   3217136.0366   1  24   0.0000   0.0000   0.0000   0.0000   0.0000   0.0000   0.00    0.0
2020/07/03 05:09:55  -2286273.4096   5003417.3101   3217137.1474   1  23   0.0000   0.0000   0.0000   0.0000   0.0000   0.0000   0.00    0.0
2020/07/03 05:09:56  -2286273.1823   5003416.5831   3217138.4446   1  24   0.0000   0.0000   0.0000   0.0000   0.0000   0.0000   0.00    0.0
2020/07/03 05:09:57  -2286273.0333   5003415.7373   3217139.8407   1  25   0.0000   0.0000   0.0000   0.0000   0.0000   0.0000   0.00    0.0
2020/07/03 05:09:58  -2286272.9794   5003414.8611   3217141.2540   1  25   0.0000   0.0000   0.0000   0.0000   0.0000   0.0000   0.00    0.0
2020/07/03 05:09:59  -2286273.0585   5003414.0194   3217142.5714   1  24   0.0000   0.0000   0.0000   0.0000   0.0000   0.0000   0.00    0.0
2020/07/03 05:10:00  -2286273.1191   5003413.2214   3217143.7614   1  24   0.0000   0.0000   0.0000   0.0000   0.0000   0.0000   0.00    0.0
2020/07/03 05:10:01  -2286273.3133   5003412.4219   3217144.9323   1  26   0.0000   0.0000   0.0000   0.0000   0.0000   0.0000   0.00    0.0
2020/07/03 05:10:02  -2286273.5984   5003411.4496   3217146.2685   1  25   0.0000   0.0000   0.0000   0.0000   0.0000   0.0000   0.00    0.0
2020/07/03 05:10:03  -2286274.1971   5003410.2535   3217147.7036   1  24   0.0000   0.0000   0.0000   0.0000   0.0000   0.0000   0.00    0.0
2020/07/03 05:10:04  -2286275.2244   5003409.0388   3217148.9475   1  23   0.0000   0.0000   0.0000   0.0000   0.0000   0.0000   0.00    0.0
2020/07/03 05:10:05  -2286276.5282   5003407.9020   3217149.8247   1  23   0.0000   0.0000   0.0000   0.0000   0.0000   0.0000   0.00    0.0
2020/07/03 05:10:06  -2286277.9351   5003406.9842   3217150.3893   1  22   0.0000   0.0000   0.0000   0.0000   0.0000   0.0000   0.00    0.0
2020/07/03 05:10:07  -2286279.0787   5003406.2992   3217150.7230   1  22   0.0000   0.0000   0.0000   0.0000   0.0000   0.0000   0.00    0.0
2020/07/03 05:10:08  -2286279.6310   5003405.9737   3217150.8695   1  22   0.0000   0.0000   0.0000   0.0000   0.0000   0.0000   0.00    0.0
2020/07/03 05:10:09  -2286280.0995   5003405.7064   3217150.9714   1  23   0.0000   0.0000   0.0000   0.0000   0.0000   0.0000   0.00    0.0
2020/07/03 05:10:10  -2286281.1728   5003405.1282   3217151.1819   1  22   0.0000   0.0000   0.0000   0.0000   0.0000   0.0000   0.00    0.0
2020/07/03 05:10:11  -2286282.9000   5003404.2649   3217151.3989   1  20   0.0000   0.0000   0.0000   0.0000   0.0000   0.0000   0.00    0.0
2020/07/03 05:10:12  -2286285.2263   5003403.1004   3217151.6955   1  22   0.0000   0.0000   0.0000   0.0000   0.0000   0.0000   0.00    0.0
2020/07/03 05:10:13  -2286287.5292   5003401.8360   3217152.1592   1  22   0.0000   0.0000   0.0000   0.0000   0.0000   0.0000   0.00    0.0
2020/07/03 05:10:14  -2286289.6603   5003400.5451   3217152.7713   1  25   0.0000   0.0000   0.0000   0.0000   0.0000   0.0000   0.00    0.0
2020/07/03 05:10:15  -2286292.0161   5003398.8574   3217153.7628   1  25   0.0000   0.0000   0.0000   0.0000   0.0000   0.0000   0.00    0.0
2020/07/03 05:10:16  -2286294.4006   5003396.7410   3217155.2900   1  26   0.0000   0.0000   0.0000   0.0000   0.0000   0.0000   0.00    0.0
2020/07/03 05:10:17  -2286296.5769   5003394.3448   3217157.6289   1  26   0.0000   0.0000   0.0000   0.0000   0.0000   0.0000   0.00    0.0
2020/07/03 05:10:18  -2286298.2201   5003391.7886   3217160.5715   1  24   0.0000   0.0000   0.0000   0.0000   0.0000   0.0000   0.00    0.0
2020/07/03 05:10:19  -2286299.1248   5003389.2646   3217164.0191   1  25   0.0000   0.0000   0.0000   0.0000   0.0000   0.0000   0.00    0.0
2020/07/03 05:10:20  -2286299.2461   5003386.8196   3217167.7894   1  27   0.0000   0.0000   0.0000   0.0000   0.0000   0.0000   0.00    0.0
2020/07/03 05:10:21  -2286298.9745   5003384.4006   3217171.8264   1  27   0.0000   0.0000   0.0000   0.0000   0.0000   0.0000   0.00    0.0
2020/07/03 05:10:22  -2286298.5089   5003382.0410   3217175.9737   1  27   0.0000   0.0000   0.0000   0.0000   0.0000   0.0000   0.00    0.0
2020/07/03 05:10:23  -2286297.9170   5003379.8585   3217179.9127   1  26   0.0000   0.0000   0.0000   0.0000   0.0000   0.0000   0.00    0.0
2020/07/03 05:10:24  -2286297.2606   5003377.8800   3217183.5744   1  27   0.0000   0.0000   0.0000   0.0000   0.0000   0.0000   0.00    0.0
2020/07/03 05:10:25  -2286296.5466   5003376.0877   3217186.9417   1  28   0.0000   0.0000   0.0000   0.0000   0.0000   0.0000   0.00    0.0
2020/07/03 05:10:26  -2286295.8246   5003374.5034   3217189.9836   1  27   0.0000   0.0000   0.0000   0.0000   0.0000   0.0000   0.00    0.0
2020/07/03 05:10:27  -2286295.1802   5003373.2344   3217192.4776   1  27   0.0000   0.0000   0.0000   0.0000   0.0000   0.0000   0.00    0.0
2020/07/03 05:10:28  -2286294.5890   5003372.1705   3217194.6035   1  27   0.0000   0.0000   0.0000   0.0000   0.0000   0.0000   0.00    0.0
2020/07/03 05:10:29  -2286294.0312   5003371.2425   3217196.5135   1  27   0.0000   0.0000   0.0000   0.0000   0.0000   0.0000   0.00    0.0
2020/07/03 05:10:30  -2286293.5122   5003370.3980   3217198.2495   1  28   0.0000   0.0000   0.0000   0.0000   0.0000   0.0000   0.00    0.0
2020/07/03 05:10:31  -2286293.0885   5003369.5397   3217199.9258   1  28   0.0000   0.0000   0.0000   0.0000   0.0000   0.0000   0.00    0.0
2020/07/03 05:10:32  -2286292.7351   5003368.6429   3217201.6040   1  28   0.0000   0.0000   0.0000   0.0000   0.0000   0.0000   0.00    0.0
2020/07/03 05:10:33  -2286292.4968   5003367.7004   3217203.2636   1  28   0.0000   0.0000   0.0000   0.0000   0.0000   0.0000   0.00    0.0
2020/07/03 05:10:34  -2286292.4236   5003366.7102   3217204.9099   1  27   0.0000   0.0000   0.0000   0.0000   0.0000   0.0000   0.00    0.0
2020/07/03 05:10:35  -2286292.5193   5003365.7064   3217206.4818   1  27   0.0000   0.0000   0.0000   0.0000   0.0000   0.0000   0.00    0.0
2020/07/03 05:10:36  -2286292.9285   5003364.6820   3217207.8739   1  28   0.0000   0.0000   0.0000   0.0000   0.0000   0.0000   0.00    0.0
2020/07/03 05:10:37  -2286293.6391   5003363.6406   3217209.0599   1  28   0.0000   0.0000   0.0000   0.0000   0.0000   0.0000   0.00    0.0
2020/07/03 05:10:38  -2286294.5897   5003362.5945   3217210.0424   1  28   0.0000   0.0000   0.0000   0.0000   0.0000   0.0000   0.00    0.0
2020/07/03 05:10:39  -2286295.8290   5003361.6036   3217210.7455   1  28   0.0000   0.0000   0.0000   0.0000   0.0000   0.0000   0.00    0.0
2020/07/03 05:10:40  -2286297.2976   5003360.6997   3217211.1269   1  28   0.0000   0.0000   0.0000   0.0000   0.0000   0.0000   0.00    0.0
2020/07/03 05:10:41  -2286298.9118   5003359.9590   3217211.1731   1  28   0.0000   0.0000   0.0000   0.0000   0.0000   0.0000   0.00    0.0
2020/07/03 05:10:42  -2286300.5894   5003359.4240   3217210.8863   1  28   0.0000   0.0000   0.0000   0.0000   0.0000   0.0000   0.00    0.0
2020/07/03 05:10:43  -2286302.2889   5003358.9690   3217210.4427   1  28   0.0000   0.0000   0.0000   0.0000   0.0000   0.0000   0.00    0.0
2020/07/03 05:10:44  -2286303.7413   5003358.5750   3217210.0575   1  28   0.0000   0.0000   0.0000   0.0000   0.0000   0.0000   0.00    0.0
2020/07/03 05:10:45  -2286304.4447   5003358.3917   3217209.8658   1  28   0.0000   0.0000   0.0000   0.0000   0.0000   0.0000   0.00    0.0
2020/07/03 05:10:46  -2286304.5064   5003358.3897   3217209.8511   1  28   0.0000   0.0000   0.0000   0.0000   0.0000   0.0000   0.00    0.0
2020/07/03 05:10:47  -2286304.4827   5003358.3675   3217209.8311   1  28   0.0000   0.0000   0.0000   0.0000   0.0000   0.0000   0.00    0.0
2020/07/03 05:10:48  -2286304.4826   5003358.3669   3217209.8320   1  28   0.0000   0.0000   0.0000   0.0000   0.0000   0.0000   0.00    0.0
2020/07/03 05:10:49  -2286304.4834   5003358.3678   3217209.8322   1  28   0.0000   0.0000   0.0000   0.0000   0.0000   0.0000   0.00    0.0
2020/07/03 05:10:50  -2286304.4911   5003358.3809   3217209.8439   1  29   0.0000   0.0000   0.0000   0.0000   0.0000   0.0000   0.00    0.0
2020/07/03 05:10:51  -2286304.4869   5003358.3786   3217209.8385   1  29   0.0000   0.0000   0.0000   0.0000   0.0000   0.0000   0.00    0.0
2020/07/03 05:10:52  -2286304.4830   5003358.3728   3217209.8346   1  29   0.0000   0.0000   0.0000   0.0000   0.0000   0.0000   0.00    0.0
2020/07/03 05:10:53  -2286304.4876   5003358.3744   3217209.8426   1  29   0.0000   0.0000   0.0000   0.0000   0.0000   0.0000   0.00    0.0
2020/07/03 05:10:54  -2286304.4861   5003358.3765   3217209.8425   1  29   0.0000   0.0000   0.0000   0.0000   0.0000   0.0000   0.00    0.0
2020/07/03 05:10:55  -2286304.4836   5003358.3771   3217209.8433   1  29   0.0000   0.0000   0.0000   0.0000   0.0000   0.0000   0.00    0.0
2020/07/03 05:10:56  -2286304.4846   5003358.3804   3217209.8434   1  29   0.0000   0.0000   0.0000   0.0000   0.0000   0.0000   0.00    0.0
2020/07/03 05:10:57  -2286304.4834   5003358.3760   3217209.8411   1  29   0.0000   0.0000   0.0000   0.0000   0.0000   0.0000   0.00    0.0
2020/07/03 05:10:58  -2286304.4880   5003358.3787   3217209.8476   1  29   0.0000   0.0000   0.0000   0.0000   0.0000   0.0000   0.00    0.0
2020/07/03 05:10:59  -2286304.4849   5003358.3772   3217209.8481   1  29   0.0000   0.0000   0.0000   0.0000   0.0000   0.0000   0.00    0.0
2020/07/03 05:11:00  -2286304.5174   5003358.3682   3217209.8391   1  29   0.0000   0.0000   0.0000   0.0000   0.0000   0.0000   0.00    0.0
2020/07/03 05:11:01  -2286304.8340   5003358.2758   3217209.7564   1  29   0.0000   0.0000   0.0000   0.0000   0.0000   0.0000   0.00    0.0
2020/07/03 05:11:02  -2286305.8551   5003357.9197   3217209.6310   1  29   0.0000   0.0000   0.0000   0.0000   0.0000   0.0000   0.00    0.0
2020/07/03 05:11:03  -2286307.9254   5003357.0916   3217209.5355   1  29   0.0000   0.0000   0.0000   0.0000   0.0000   0.0000   0.00    0.0
2020/07/03 05:11:04  -2286311.1584   5003355.8233   3217209.3485   1  29   0.0000   0.0000   0.0000   0.0000   0.0000   0.0000   0.00    0.0
2020/07/03 05:11:05  -2286315.3692   5003354.1871   3217209.0239   1  29   0.0000   0.0000   0.0000   0.0000   0.0000   0.0000   0.00    0.0
2020/07/03 05:11:06  -2286320.3410   5003352.2785   3217208.6145   1  29   0.0000   0.0000   0.0000   0.0000   0.0000   0.0000   0.00    0.0
2020/07/03 05:11:07  -2286325.9249   5003350.1940   3217208.0841   1  29   0.0000   0.0000   0.0000   0.0000   0.0000   0.0000   0.00    0.0
2020/07/03 05:11:08  -2286332.0407   5003347.8995   3217207.3646   1  29   0.0000   0.0000   0.0000   0.0000   0.0000   0.0000   0.00    0.0
2020/07/03 05:11:09  -2286338.6746   5003345.4921   3217206.5426   1  29   0.0000   0.0000   0.0000   0.0000   0.0000   0.0000   0.00    0.0
2020/07/03 05:11:10  -2286345.7642   5003342.8871   3217205.6370   1  29   0.0000   0.0000   0.0000   0.0000   0.0000   0.0000   0.00    0.0
2020/07/03 05:11:11  -2286360.8178   5003337.3964   3217203.8690   1  29   0.0000   0.0000   0.0000   0.0000   0.0000   0.0000   0.00    0.0
2020/07/03 05:11:12  -2286368.2796   5003334.5192   3217203.3439   1  29   0.0000   0.0000   0.0000   0.0000   0.0000   0.0000   0.00    0.0
2020/07/03 05:11:13  -2286376.1992   5003331.3129   3217203.0827   1  29   0.0000   0.0000   0.0000   0.0000   0.0000   0.0000   0.00    0.0
2020/07/03 05:11:14  -2286385.8472   5003328.3464   3217200.9157   1  28   0.0000   0.0000   0.0000   0.0000   0.0000   0.0000   0.00    0.0
2020/07/03 05:11:15  -2286394.2408   5003325.3311   3217199.8691   1  29   0.0000   0.0000   0.0000   0.0000   0.0000   0.0000   0.00    0.0
2020/07/03 05:11:16  -2286402.7727   5003322.3052   3217198.7177   1  29   0.0000   0.0000   0.0000   0.0000   0.0000   0.0000   0.00    0.0
2020/07/03 05:11:17  -2286411.4985   5003319.2792   3217197.4532   1  29   0.0000   0.0000   0.0000   0.0000   0.0000   0.0000   0.00    0.0
2020/07/03 05:11:18  -2286420.4072   5003316.2116   3217196.0844   1  29   0.0000   0.0000   0.0000   0.0000   0.0000   0.0000   0.00    0.0
2020/07/03 05:11:19  -2286429.4828   5003313.0768   3217194.6699   1  29   0.0000   0.0000   0.0000   0.0000   0.0000   0.0000   0.00    0.0
2020/07/03 05:11:20  -2286438.7474   5003309.8576   3217193.2564   1  29   0.0000   0.0000   0.0000   0.0000   0.0000   0.0000   0.00    0.0
2020/07/03 05:11:21  -2286448.1334   5003306.5462   3217191.8326   1  29   0.0000   0.0000   0.0000   0.0000   0.0000   0.0000   0.00    0.0
2020/07/03 05:11:22  -2286457.5800   5003303.1975   3217190.4411   1  29   0.0000   0.0000   0.0000   0.0000   0.0000   0.0000   0.00    0.0
2020/07/03 05:11:23  -2286467.0821   5003299.7817   3217189.0513   1  29   0.0000   0.0000   0.0000   0.0000   0.0000   0.0000   0.00    0.0
2020/07/03 05:11:24  -2286476.6599   5003296.3461   3217187.6797   1  29   0.0000   0.0000   0.0000   0.0000   0.0000   0.0000   0.00    0.0
2020/07/03 05:11:25  -2286486.3403   5003292.8550   3217186.2941   1  29   0.0000   0.0000   0.0000   0.0000   0.0000   0.0000   0.00    0.0
2020/07/03 05:11:26  -2286496.2066   5003289.3000   3217184.8599   1  29   0.0000   0.0000   0.0000   0.0000   0.0000   0.0000   0.00    0.0
2020/07/03 05:11:27  -2286506.2600   5003285.6849   3217183.3688   1  29   0.0000   0.0000   0.0000   0.0000   0.0000   0.0000   0.00    0.0
2020/07/03 05:11:28  -2286516.4783   5003282.0448   3217181.8453   1  29   0.0000   0.0000   0.0000   0.0000   0.0000   0.0000   0.00    0.0
2020/07/03 05:11:29  -2286526.8303   5003278.3663   3217180.3102   1  29   0.0000   0.0000   0.0000   0.0000   0.0000   0.0000   0.00    0.0
2020/07/03 05:11:30  -2286537.2496   5003274.6604   3217178.7481   1  29   0.0000   0.0000   0.0000   0.0000   0.0000   0.0000   0.00    0.0
2020/07/03 05:11:31  -2286547.7251   5003270.9364   3217177.1706   1  29   0.0000   0.0000   0.0000   0.0000   0.0000   0.0000   0.00    0.0
2020/07/03 05:11:32  -2286558.1637   5003267.2363   3217175.5860   1  29   0.0000   0.0000   0.0000   0.0000   0.0000   0.0000   0.00    0.0
2020/07/03 05:11:33  -2286568.5167   5003263.5657   3217174.0042   1  29   0.0000   0.0000   0.0000   0.0000   0.0000   0.0000   0.00    0.0
2020/07/03 05:11:34  -2286578.8516   5003259.8957   3217172.4581   1  29   0.0000   0.0000   0.0000   0.0000   0.0000   0.0000   0.00    0.0
2020/07/03 05:11:35  -2286589.2020   5003256.1966   3217170.9478   1  29   0.0000   0.0000   0.0000   0.0000   0.0000   0.0000   0.00    0.0
2020/07/03 05:11:36  -2286599.6225   5003252.4677   3217169.4302   1  29   0.0000   0.0000   0.0000   0.0000   0.0000   0.0000   0.00    0.0
2020/07/03 05:11:37  -2286610.1525   5003248.6901   3217167.8829   1  29   0.0000   0.0000   0.0000   0.0000   0.0000   0.0000   0.00    0.0
2020/07/03 05:11:38  -2286620.8427   5003244.8664   3217166.3289   1  29   0.0000   0.0000   0.0000   0.0000   0.0000   0.0000   0.00    0.0
2020/07/03 05:11:39  -2286631.6812   5003240.9709   3217164.7361   1  29   0.0000   0.0000   0.0000   0.0000   0.0000   0.0000   0.00    0.0
2020/07/03 05:11:40  -2286642.6575   5003237.0500   3217163.1304   1  29   0.0000   0.0000   0.0000   0.0000   0.0000   0.0000   0.00    0.0
2020/07/03 05:11:41  -2286653.7649   5003233.0843   3217161.4972   1  29   0.0000   0.0000   0.0000   0.0000   0.0000   0.0000   0.00    0.0
2020/07/03 05:11:42  -2286664.9284   5003229.0842   3217159.8520   1  29   0.0000   0.0000   0.0000   0.0000   0.0000   0.0000   0.00    0.0
2020/07/03 05:11:43  -2286675.9366   5003225.1514   3217158.2223   1  29   0.0000   0.0000   0.0000   0.0000   0.0000   0.0000   0.00    0.0
2020/07/03 05:11:44  -2286686.7732   5003221.2752   3217156.6165   1  29   0.0000   0.0000   0.0000   0.0000   0.0000   0.0000   0.00    0.0
2020/07/03 05:11:45  -2286697.6755   5003217.3866   3217154.9950   1  29   0.0000   0.0000   0.0000   0.0000   0.0000   0.0000   0.00    0.0
2020/07/03 05:11:46  -2286708.7205   5003213.4209   3217153.3329   1  29   0.0000   0.0000   0.0000   0.0000   0.0000   0.0000   0.00    0.0
2020/07/03 05:11:47  -2286719.8798   5003209.3853   3217151.6684   1  28   0.0000   0.0000   0.0000   0.0000   0.0000   0.0000   0.00    0.0
2020/07/03 05:11:48  -2286730.9409   5003205.3766   3217150.0396   1  29   0.0000   0.0000   0.0000   0.0000   0.0000   0.0000   0.00    0.0
2020/07/03 05:11:49  -2286741.6752   5003201.4445   3217148.4344   1  28   0.0000   0.0000   0.0000   0.0000   0.0000   0.0000   0.00    0.0
2020/07/03 05:11:50  -2286752.0881   5003197.6564   3217146.8789   1  28   0.0000   0.0000   0.0000   0.0000   0.0000   0.0000   0.00    0.0
2020/07/03 05:11:51  -2286762.1451   5003193.9764   3217145.3703   1  28   0.0000   0.0000   0.0000   0.0000   0.0000   0.0000   0.00    0.0
2020/07/03 05:11:52  -2286771.8474   5003190.4180   3217143.9636   1  26   0.0000   0.0000   0.0000   0.0000   0.0000   0.0000   0.00    0.0
2020/07/03 05:11:53  -2286781.1731   5003186.9537   3217142.6716   1  27   0.0000   0.0000   0.0000   0.0000   0.0000   0.0000   0.00    0.0
2020/07/03 05:11:54  -2286790.0843   5003183.6082   3217141.4966   1  29   0.0000   0.0000   0.0000   0.0000   0.0000   0.0000   0.00    0.0
2020/07/03 05:11:55  -2286798.4093   5003180.4562   3217140.4344   1  27   0.0000   0.0000   0.0000   0.0000   0.0000   0.0000   0.00    0.0
2020/07/03 05:11:56  -2286806.1539   5003177.5238   3217139.4706   1  27   0.0000   0.0000   0.0000   0.0000   0.0000   0.0000   0.00    0.0
2020/07/03 05:11:57  -2286813.4181   5003174.8143   3217138.5034   1  28   0.0000   0.0000   0.0000   0.0000   0.0000   0.0000   0.00    0.0
2020/07/03 05:11:58  -2286820.0404   5003172.3832   3217137.5949   1  28   0.0000   0.0000   0.0000   0.0000   0.0000   0.0000   0.00    0.0
2020/07/03 05:11:59  -2286825.7956   5003170.3060   3217136.7834   1  29   0.0000   0.0000   0.0000   0.0000   0.0000   0.0000   0.00    0.0
2020/07/03 05:12:00  -2286830.8549   5003168.4674   3217136.1007   1  29   0.0000   0.0000   0.0000   0.0000   0.0000   0.0000   0.00    0.0
2020/07/03 05:12:01  -2286835.6258   5003166.5286   3217135.8690   1  29   0.0000   0.0000   0.0000   0.0000   0.0000   0.0000   0.00    0.0
2020/07/03 05:12:02  -2286840.1797   5003164.1190   3217136.6676   1  29   0.0000   0.0000   0.0000   0.0000   0.0000   0.0000   0.00    0.0
2020/07/03 05:12:03  -2286844.3530   5003161.2005   3217138.5663   1  29   0.0000   0.0000   0.0000   0.0000   0.0000   0.0000   0.00    0.0
2020/07/03 05:12:04  -2286847.8417   5003157.9111   3217141.5725   1  29   0.0000   0.0000   0.0000   0.0000   0.0000   0.0000   0.00    0.0
2020/07/03 05:12:05  -2286850.3459   5003154.4129   3217145.6340   1  29   0.0000   0.0000   0.0000   0.0000   0.0000   0.0000   0.00    0.0
2020/07/03 05:12:06  -2286851.6954   5003150.8486   3217150.6069   1  29   0.0000   0.0000   0.0000   0.0000   0.0000   0.0000   0.00    0.0
2020/07/03 05:12:07  -2286852.5299   5003147.2039   3217156.0912   1  29   0.0000   0.0000   0.0000   0.0000   0.0000   0.0000   0.00    0.0
2020/07/03 05:12:08  -2286853.4479   5003143.3625   3217161.8934   1  29   0.0000   0.0000   0.0000   0.0000   0.0000   0.0000   0.00    0.0
2020/07/03 05:12:09  -2286854.3942   5003139.2653   3217168.0371   1  29   0.0000   0.0000   0.0000   0.0000   0.0000   0.0000   0.00    0.0
2020/07/03 05:12:10  -2286855.3918   5003134.9602   3217174.5506   1  27   0.0000   0.0000   0.0000   0.0000   0.0000   0.0000   0.00    0.0
2020/07/03 05:12:11  -2286856.4153   5003130.4292   3217181.3573   1  28   0.0000   0.0000   0.0000   0.0000   0.0000   0.0000   0.00    0.0
2020/07/03 05:12:12  -2286857.4464   5003125.7903   3217188.3193   1  27   0.0000   0.0000   0.0000   0.0000   0.0000   0.0000   0.00    0.0
2020/07/03 05:12:13  -2286858.4894   5003121.2186   3217195.1850   1  27   0.0000   0.0000   0.0000   0.0000   0.0000   0.0000   0.00    0.0
2020/07/03 05:12:14  -2286859.5209   5003116.8554   3217201.7364   1  27   0.0000   0.0000   0.0000   0.0000   0.0000   0.0000   0.00    0.0
2020/07/03 05:12:15  -2286860.5065   5003112.8207   3217207.6455   1  28   0.0000   0.0000   0.0000   0.0000   0.0000   0.0000   0.00    0.0
2020/07/03 05:12:16  -2286861.5726   5003109.1707   3217212.8837   1  27   0.0000   0.0000   0.0000   0.0000   0.0000   0.0000   0.00    0.0
2020/07/03 05:12:17  -2286862.8416   5003105.7190   3217217.5857   1  29   0.0000   0.0000   0.0000   0.0000   0.0000   0.0000   0.00    0.0
2020/07/03 05:12:18  -2286864.6952   5003102.3700   3217221.8303   1  28   0.0000   0.0000   0.0000   0.0000   0.0000   0.0000   0.00    0.0
2020/07/03 05:12:19  -2286867.2570   5003098.9683   3217225.4850   1  28   0.0000   0.0000   0.0000   0.0000   0.0000   0.0000   0.00    0.0
2020/07/03 05:12:20  -2286870.7418   5003095.4708   3217228.4706   1  29   0.0000   0.0000   0.0000   0.0000   0.0000   0.0000   0.00    0.0
2020/07/03 05:12:21  -2286875.2221   5003092.2594   3217230.3288   1  29   0.0000   0.0000   0.0000   0.0000   0.0000   0.0000   0.00    0.0
2020/07/03 05:12:22  -2286880.5912   5003089.5133   3217230.8646   1  28   0.0000   0.0000   0.0000   0.0000   0.0000   0.0000   0.00    0.0
2020/07/03 05:12:23  -2286886.6017   5003087.1899   3217230.2076   1  27   0.0000   0.0000   0.0000   0.0000   0.0000   0.0000   0.00    0.0
2020/07/03 05:12:24  -2286893.2206   5003084.8122   3217229.2169   1  26   0.0000   0.0000   0.0000   0.0000   0.0000   0.0000   0.00    0.0
2020/07/03 05:12:25  -2286900.4429   5003082.2245   3217228.2054   1  27   0.0000   0.0000   0.0000   0.0000   0.0000   0.0000   0.00    0.0
2020/07/03 05:12:26  -2286908.1806   5003079.3756   3217227.1741   1  28   0.0000   0.0000   0.0000   0.0000   0.0000   0.0000   0.00    0.0
2020/07/03 05:12:27  -2286916.3997   5003076.3755   3217226.0937   1  27   0.0000   0.0000   0.0000   0.0000   0.0000   0.0000   0.00    0.0
2020/07/03 05:12:28  -2286925.0528   5003073.1530   3217225.0465   1  28   0.0000   0.0000   0.0000   0.0000   0.0000   0.0000   0.00    0.0
2020/07/03 05:12:29  -2286934.2257   5003069.6985   3217223.9925   1  28   0.0000   0.0000   0.0000   0.0000   0.0000   0.0000   0.00    0.0
2020/07/03 05:12:30  -2286943.8872   5003066.0969   3217222.8758   1  28   0.0000   0.0000   0.0000   0.0000   0.0000   0.0000   0.00    0.0
2020/07/03 05:12:31  -2286954.0062   5003062.4765   3217221.5795   1  28   0.0000   0.0000   0.0000   0.0000   0.0000   0.0000   0.00    0.0
2020/07/03 05:12:32  -2286964.4908   5003058.7312   3217220.1805   1  27   0.0000   0.0000   0.0000   0.0000   0.0000   0.0000   0.00    0.0
2020/07/03 05:12:33  -2286975.2319   5003054.8156   3217218.8357   1  27   0.0000   0.0000   0.0000   0.0000   0.0000   0.0000   0.00    0.0
2020/07/03 05:12:34  -2286986.1106   5003050.8814   3217217.4956   1  29   0.0000   0.0000   0.0000   0.0000   0.0000   0.0000   0.00    0.0
2020/07/03 05:12:35  -2286997.1151   5003046.9553   3217216.1051   1  28   0.0000   0.0000   0.0000   0.0000   0.0000   0.0000   0.00    0.0
2020/07/03 05:12:36  -2287008.1728   5003043.0560   3217214.6101   1  28   0.0000   0.0000   0.0000   0.0000   0.0000   0.0000   0.00    0.0
2020/07/03 05:12:37  -2287019.2368   5003039.1918   3217213.0465   1  28   0.0000   0.0000   0.0000   0.0000   0.0000   0.0000   0.00    0.0
2020/07/03 05:12:38  -2287030.2772   5003035.3693   3217211.4765   1  29   0.0000   0.0000   0.0000   0.0000   0.0000   0.0000   0.00    0.0
2020/07/03 05:12:39  -2287041.2834   5003031.4943   3217209.9743   1  29   0.0000   0.0000   0.0000   0.0000   0.0000   0.0000   0.00    0.0
2020/07/03 05:12:40  -2287052.3853   5003027.5542   3217208.5109   1  29   0.0000   0.0000   0.0000   0.0000   0.0000   0.0000   0.00    0.0
2020/07/03 05:12:41  -2287063.6529   5003023.5297   3217207.0451   1  28   0.0000   0.0000   0.0000   0.0000   0.0000   0.0000   0.00    0.0
2020/07/03 05:12:42  -2287075.0816   5003019.3639   3217205.7350   1  26   0.0000   0.0000   0.0000   0.0000   0.0000   0.0000   0.00    0.0
2020/07/03 05:12:43  -2287086.6148   5003015.0775   3217204.5984   1  27   0.0000   0.0000   0.0000   0.0000   0.0000   0.0000   0.00    0.0
2020/07/03 05:12:44  -2287098.0779   5003010.7135   3217203.5602   1  29   0.0000   0.0000   0.0000   0.0000   0.0000   0.0000   0.00    0.0
2020/07/03 05:12:45  -2287109.4857   5003006.2922   3217202.6634   1  29   0.0000   0.0000   0.0000   0.0000   0.0000   0.0000   0.00    0.0
2020/07/03 05:12:46  -2287120.9895   5003001.8500   3217201.7111   1  29   0.0000   0.0000   0.0000   0.0000   0.0000   0.0000   0.00    0.0
2020/07/03 05:12:47  -2287132.5867   5002997.2797   3217200.8870   1  29   0.0000   0.0000   0.0000   0.0000   0.0000   0.0000   0.00    0.0
2020/07/03 05:12:48  -2287144.2781   5002992.5550   3217200.2503   1  29   0.0000   0.0000   0.0000   0.0000   0.0000   0.0000   0.00    0.0
2020/07/03 05:12:49  -2287156.1261   5002987.7713   3217199.6435   1  29   0.0000   0.0000   0.0000   0.0000   0.0000   0.0000   0.00    0.0
2020/07/03 05:12:50  -2287168.1829   5002982.9302   3217198.9583   1  29   0.0000   0.0000   0.0000   0.0000   0.0000   0.0000   0.00    0.0
2020/07/03 05:12:51  -2287180.4669   5002978.0902   3217198.1620   1  29   0.0000   0.0000   0.0000   0.0000   0.0000   0.0000   0.00    0.0
2020/07/03 05:12:52  -2287192.9840   5002973.2553   3217197.1520   1  29   0.0000   0.0000   0.0000   0.0000   0.0000   0.0000   0.00    0.0
2020/07/03 05:12:53  -2287205.7383   5002968.3843   3217195.9845   1  28   0.0000   0.0000   0.0000   0.0000   0.0000   0.0000   0.00    0.0
2020/07/03 05:12:54  -2287218.7281   5002963.4833   3217194.6874   1  28   0.0000   0.0000   0.0000   0.0000   0.0000   0.0000   0.00    0.0
2020/07/03 05:12:55  -2287231.9292   5002958.5198   3217193.2764   1  26   0.0000   0.0000   0.0000   0.0000   0.0000   0.0000   0.00    0.0
2020/07/03 05:12:56  -2287245.3609   5002953.5861   3217191.6938   1  25   0.0000   0.0000   0.0000   0.0000   0.0000   0.0000   0.00    0.0
2020/07/03 05:12:57  -2287259.0091   5002948.6601   3217189.8913   1  25   0.0000   0.0000   0.0000   0.0000   0.0000   0.0000   0.00    0.0
2020/07/03 05:12:58  -2287272.8707   5002943.7061   3217187.9281   1  26   0.0000   0.0000   0.0000   0.0000   0.0000   0.0000   0.00    0.0
2020/07/03 05:12:59  -2287286.9492   5002938.6864   3217185.8459   1  27   0.0000   0.0000   0.0000   0.0000   0.0000   0.0000   0.00    0.0
2020/07/03 05:13:00  -2287301.2592   5002933.5775   3217183.7618   1  24   0.0000   0.0000   0.0000   0.0000   0.0000   0.0000   0.00    0.0
2020/07/03 05:13:01  -2287315.7792   5002928.3594   3217181.6665   1  26   0.0000   0.0000   0.0000   0.0000   0.0000   0.0000   0.00    0.0
2020/07/03 05:13:02  -2287330.5267   5002923.0478   3217179.5192   1  27   0.0000   0.0000   0.0000   0.0000   0.0000   0.0000   0.00    0.0
2020/07/03 05:13:03  -2287345.4948   5002917.6463   3217177.3137   1  27   0.0000   0.0000   0.0000   0.0000   0.0000   0.0000   0.00    0.0
2020/07/03 05:13:04  -2287360.6862   5002912.1356   3217175.0598   1  28   0.0000   0.0000   0.0000   0.0000   0.0000   0.0000   0.00    0.0
2020/07/03 05:13:05  -2287376.1074   5002906.5475   3217172.7434   1  28   0.0000   0.0000   0.0000   0.0000   0.0000   0.0000   0.00    0.0
2020/07/03 05:13:06  -2287391.6989   5002900.9334   3217170.3489   1  27   0.0000   0.0000   0.0000   0.0000   0.0000   0.0000   0.00    0.0
2020/07/03 05:13:07  -2287407.3246   5002895.2803   3217167.9213   1  25   0.0000   0.0000   0.0000   0.0000   0.0000   0.0000   0.00    0.0
2020/07/03 05:13:08  -2287423.0014   5002889.5867   3217165.4570   1  25   0.0000   0.0000   0.0000   0.0000   0.0000   0.0000   0.00    0.0
2020/07/03 05:13:09  -2287438.7515   5002883.8442   3217162.9790   1  26   0.0000   0.0000   0.0000   0.0000   0.0000   0.0000   0.00    0.0
2020/07/03 05:13:10  -2287454.6030   5002878.0968   3217160.4645   1  27   0.0000   0.0000   0.0000   0.0000   0.0000   0.0000   0.00    0.0
2020/07/03 05:13:11  -2287470.5209   5002872.2973   3217157.9322   1  27   0.0000   0.0000   0.0000   0.0000   0.0000   0.0000   0.00    0.0
2020/07/03 05:13:12  -2287486.3438   5002866.4651   3217155.4168   1  27   0.0000   0.0000   0.0000   0.0000   0.0000   0.0000   0.00    0.0
2020/07/03 05:13:13  -2287502.0288   5002860.6722   3217152.9421   1  28   0.0000   0.0000   0.0000   0.0000   0.0000   0.0000   0.00    0.0
2020/07/03 05:13:14  -2287517.6010   5002854.9068   3217150.4787   1  27   0.0000   0.0000   0.0000   0.0000   0.0000   0.0000   0.00    0.0
2020/07/03 05:13:15  -2287533.0967   5002849.1540   3217147.9927   1  24   0.0000   0.0000   0.0000   0.0000   0.0000   0.0000   0.00    0.0
2020/07/03 05:13:16  -2287548.5629   5002843.3813   3217145.5307   1  27   0.0000   0.0000   0.0000   0.0000   0.0000   0.0000   0.00    0.0
2020/07/03 05:13:17  -2287564.0163   5002837.5756   3217143.1265   1  28   0.0000   0.0000   0.0000   0.0000   0.0000   0.0000   0.00    0.0
2020/07/03 05:13:18  -2287579.4566   5002831.7478   3217140.6889   1  28   0.0000   0.0000   0.0000   0.0000   0.0000   0.0000   0.00    0.0
2020/07/03 05:13:19  -2287594.8991   5002825.9378   3217138.1905   1  26   0.0000   0.0000   0.0000   0.0000   0.0000   0.0000   0.00    0.0
2020/07/03 05:13:20  -2287610.3365   5002820.1209   3217135.7043   1  25   0.0000   0.0000   0.0000   0.0000   0.0000   0.0000   0.00    0.0
2020/07/03 05:13:21  -2287625.7732   5002814.2871   3217133.2112   1  27   0.0000   0.0000   0.0000   0.0000   0.0000   0.0000   0.00    0.0
2020/07/03 05:13:22  -2287641.2414   5002808.4248   3217130.7062   1  27   0.0000   0.0000   0.0000   0.0000   0.0000   0.0000   0.00    0.0
2020/07/03 05:13:23  -2287656.7865   5002802.5536   3217128.2000   1  27   0.0000   0.0000   0.0000   0.0000   0.0000   0.0000   0.00    0.0
2020/07/03 05:13:24  -2287672.4196   5002796.6392   3217125.6746   1  28   0.0000   0.0000   0.0000   0.0000   0.0000   0.0000   0.00    0.0
2020/07/03 05:13:25  -2287688.1377   5002790.6872   3217123.1197   1  28   0.0000   0.0000   0.0000   0.0000   0.0000   0.0000   0.00    0.0
2020/07/03 05:13:26  -2287703.9506   5002784.7117   3217120.5320   1  29   0.0000   0.0000   0.0000   0.0000   0.0000   0.0000   0.00    0.0
2020/07/03 05:13:27  -2287719.8478   5002778.6824   3217117.9754   1  29   0.0000   0.0000   0.0000   0.0000   0.0000   0.0000   0.00    0.0
2020/07/03 05:13:28  -2287735.8004   5002772.5899   3217115.4401   1  29   0.0000   0.0000   0.0000   0.0000   0.0000   0.0000   0.00    0.0
2020/07/03 05:13:29  -2287751.8111   5002766.4620   3217112.8905   1  29   0.0000   0.0000   0.0000   0.0000   0.0000   0.0000   0.00    0.0
2020/07/03 05:13:30  -2287767.8925   5002760.3541   3217110.3312   1  28   0.0000   0.0000   0.0000   0.0000   0.0000   0.0000   0.00    0.0
2020/07/03 05:13:31  -2287784.0190   5002754.2768   3217107.7535   1  29   0.0000   0.0000   0.0000   0.0000   0.0000   0.0000   0.00    0.0
2020/07/03 05:13:32  -2287800.1867   5002748.1691   3217105.1347   1  28   0.0000   0.0000   0.0000   0.0000   0.0000   0.0000   0.00    0.0
2020/07/03 05:13:33  -2287816.3958   5002742.0260   3217102.5036   1  28   0.0000   0.0000   0.0000   0.0000   0.0000   0.0000   0.00    0.0
2020/07/03 05:13:34  -2287832.6487   5002735.8570   3217099.8875   1  27   0.0000   0.0000   0.0000   0.0000   0.0000   0.0000   0.00    0.0
2020/07/03 05:13:35  -2287848.9427   5002729.6760   3217097.2626   1  28   0.0000   0.0000   0.0000   0.0000   0.0000   0.0000   0.00    0.0
2020/07/03 05:13:36  -2287865.2852   5002723.4939   3217094.5894   1  26   0.0000   0.0000   0.0000   0.0000   0.0000   0.0000   0.00    0.0
2020/07/03 05:13:37  -2287881.6458   5002717.3151   3217091.9535   1  27   0.0000   0.0000   0.0000   0.0000   0.0000   0.0000   0.00    0.0
2020/07/03 05:13:38  -2287897.9159   5002711.1025   3217089.4000   1  26   0.0000   0.0000   0.0000   0.0000   0.0000   0.0000   0.00    0.0
2020/07/03 05:13:39  -2287914.0332   5002704.9521   3217086.8641   1  26   0.0000   0.0000   0.0000   0.0000   0.0000   0.0000   0.00    0.0
2020/07/03 05:13:40  -2287929.9632   5002698.9158   3217084.3002   1  28   0.0000   0.0000   0.0000   0.0000   0.0000   0.0000   0.00    0.0
2020/07/03 05:13:41  -2287945.7099   5002692.9807   3217081.7132   1  26   0.0000   0.0000   0.0000   0.0000   0.0000   0.0000   0.00    0.0
2020/07/03 05:13:42  -2287961.2644   5002687.1236   3217079.1038   1  25   0.0000   0.0000   0.0000   0.0000   0.0000   0.0000   0.00    0.0
2020/07/03 05:13:43  -2287976.6345   5002681.3637   3217076.4983   1  28   0.0000   0.0000   0.0000   0.0000   0.0000   0.0000   0.00    0.0
2020/07/03 05:13:44  -2287991.8211   5002675.6450   3217073.9823   1  31   0.0000   0.0000   0.0000   0.0000   0.0000   0.0000   0.00    0.0
2020/07/03 05:13:45  -2288006.8073   5002669.9819   3217071.5436   1  31   0.0000   0.0000   0.0000   0.0000   0.0000   0.0000   0.00    0.0
2020/07/03 05:13:46  -2288021.6124   5002664.3996   3217069.1237   1  31   0.0000   0.0000   0.0000   0.0000   0.0000   0.0000   0.00    0.0
2020/07/03 05:13:47  -2288036.2298   5002658.8646   3217066.7357   1  31   0.0000   0.0000   0.0000   0.0000   0.0000   0.0000   0.00    0.0
2020/07/03 05:13:48  -2288050.7442   5002653.3850   3217064.3288   1  31   0.0000   0.0000   0.0000   0.0000   0.0000   0.0000   0.00    0.0
2020/07/03 05:13:49  -2288065.1834   5002647.9519   3217061.9248   1  31   0.0000   0.0000   0.0000   0.0000   0.0000   0.0000   0.00    0.0
2020/07/03 05:13:50  -2288079.4636   5002642.5897   3217059.6341   1  29   0.0000   0.0000   0.0000   0.0000   0.0000   0.0000   0.00    0.0
2020/07/03 05:13:51  -2288093.5083   5002637.2333   3217057.3824   1  27   0.0000   0.0000   0.0000   0.0000   0.0000   0.0000   0.00    0.0
2020/07/03 05:13:52  -2288107.2805   5002631.9928   3217055.1972   1  27   0.0000   0.0000   0.0000   0.0000   0.0000   0.0000   0.00    0.0
2020/07/03 05:13:53  -2288120.7250   5002626.8499   3217053.1184   1  29   0.0000   0.0000   0.0000   0.0000   0.0000   0.0000   0.00    0.0
2020/07/03 05:13:54  -2288133.8330   5002621.8069   3217051.1034   1  31   0.0000   0.0000   0.0000   0.0000   0.0000   0.0000   0.00    0.0
2020/07/03 05:13:55  -2288146.6246   5002616.9081   3217049.1658   1  31   0.0000   0.0000   0.0000   0.0000   0.0000   0.0000   0.00    0.0
2020/07/03 05:13:56  -2288159.0445   5002612.1505   3217047.2826   1  31   0.0000   0.0000   0.0000   0.0000   0.0000   0.0000   0.00    0.0
2020/07/03 05:13:57  -2288171.0572   5002607.5724   3217045.4572   1  31   0.0000   0.0000   0.0000   0.0000   0.0000   0.0000   0.00    0.0
2020/07/03 05:13:58  -2288182.5322   5002603.2625   3217043.6956   1  29   0.0000   0.0000   0.0000   0.0000   0.0000   0.0000   0.00    0.0
2020/07/03 05:13:59  -2288193.3423   5002599.2195   3217042.0312   1  31   0.0000   0.0000   0.0000   0.0000   0.0000   0.0000   0.00    0.0
2020/07/03 05:14:00  -2288203.4009   5002595.4623   3217040.4579   1  31   0.0000   0.0000   0.0000   0.0000   0.0000   0.0000   0.00    0.0
2020/07/03 05:14:01  -2288212.6778   5002591.9973   3217038.9700   1  31   0.0000   0.0000   0.0000   0.0000   0.0000   0.0000   0.00    0.0
2020/07/03 05:14:02  -2288221.1419   5002588.8476   3217037.6225   1  31   0.0000   0.0000   0.0000   0.0000   0.0000   0.0000   0.00    0.0
2020/07/03 05:14:03  -2288228.7530   5002586.0428   3217036.4041   1  30   0.0000   0.0000   0.0000   0.0000   0.0000   0.0000   0.00    0.0
2020/07/03 05:14:04  -2288235.3472   5002583.6070   3217035.3478   1  31   0.0000   0.0000   0.0000   0.0000   0.0000   0.0000   0.00    0.0
2020/07/03 05:14:05  -2288240.6425   5002581.6503   3217034.5007   1  31   0.0000   0.0000   0.0000   0.0000   0.0000   0.0000   0.00    0.0
2020/07/03 05:14:06  -2288244.4315   5002580.2503   3217033.9035   1  31   0.0000   0.0000   0.0000   0.0000   0.0000   0.0000   0.00    0.0
2020/07/03 05:14:07  -2288246.8181   5002579.3614   3217033.5232   1  31   0.0000   0.0000   0.0000   0.0000   0.0000   0.0000   0.00    0.0
2020/07/03 05:14:08  -2288248.7091   5002578.6637   3217033.2412   1  31   0.0000   0.0000   0.0000   0.0000   0.0000   0.0000   0.00    0.0
2020/07/03 05:14:09  -2288250.2475   5002578.0962   3217033.0130   1  31   0.0000   0.0000   0.0000   0.0000   0.0000   0.0000   0.00    0.0
2020/07/03 05:14:10  -2288251.2924   5002577.7120   3217032.8565   1  31   0.0000   0.0000   0.0000   0.0000   0.0000   0.0000   0.00    0.0
2020/07/03 05:14:11  -2288251.8200   5002577.5132   3217032.7770   1  31   0.0000   0.0000   0.0000   0.0000   0.0000   0.0000   0.00    0.0
2020/07/03 05:14:12  -2288251.9061   5002577.4803   3217032.7650   1  31   0.0000   0.0000   0.0000   0.0000   0.0000   0.0000   0.00    0.0
2020/07/03 05:14:13  -2288251.9084   5002577.4832   3217032.7687   1  31   0.0000   0.0000   0.0000   0.0000   0.0000   0.0000   0.00    0.0
2020/07/03 05:14:14  -2288251.9078   5002577.4901   3217032.7703   1  31   0.0000   0.0000   0.0000   0.0000   0.0000   0.0000   0.00    0.0
2020/07/03 05:14:15  -2288251.9103   5002577.4928   3217032.7743   1  31   0.0000   0.0000   0.0000   0.0000   0.0000   0.0000   0.00    0.0
2020/07/03 05:14:16  -2288251.9091   5002577.4914   3217032.7713   1  31   0.0000   0.0000   0.0000   0.0000   0.0000   0.0000   0.00    0.0
2020/07/03 05:14:17  -2288251.9058   5002577.4891   3217032.7714   1  31   0.0000   0.0000   0.0000   0.0000   0.0000   0.0000   0.00    0.0
2020/07/03 05:14:18  -2288251.9061   5002577.4902   3217032.7714   1  31   0.0000   0.0000   0.0000   0.0000   0.0000   0.0000   0.00    0.0
2020/07/03 05:14:19  -2288251.9049   5002577.4899   3217032.7707   1  31   0.0000   0.0000   0.0000   0.0000   0.0000   0.0000   0.00    0.0
2020/07/03 05:14:20  -2288251.9066   5002577.4963   3217032.7735   1  31   0.0000   0.0000   0.0000   0.0000   0.0000   0.0000   0.00    0.0
2020/07/03 05:14:21  -2288251.9064   5002577.4939   3217032.7754   1  31   0.0000   0.0000   0.0000   0.0000   0.0000   0.0000   0.00    0.0
2020/07/03 05:14:22  -2288251.9067   5002577.4904   3217032.7726   1  31   0.0000   0.0000   0.0000   0.0000   0.0000   0.0000   0.00    0.0
2020/07/03 05:14:23  -2288251.9083   5002577.4939   3217032.7720   1  31   0.0000   0.0000   0.0000   0.0000   0.0000   0.0000   0.00    0.0
2020/07/03 05:14:24  -2288251.9104   5002577.4968   3217032.7739   1  31   0.0000   0.0000   0.0000   0.0000   0.0000   0.0000   0.00    0.0
2020/07/03 05:14:25  -2288251.9076   5002577.4940   3217032.7723   1  31   0.0000   0.0000   0.0000   0.0000   0.0000   0.0000   0.00    0.0
2020/07/03 05:14:26  -2288251.9054   5002577.4937   3217032.7725   1  31   0.0000   0.0000   0.0000   0.0000   0.0000   0.0000   0.00    0.0
2020/07/03 05:14:27  -2288251.9088   5002577.4964   3217032.7737   1  31   0.0000   0.0000   0.0000   0.0000   0.0000   0.0000   0.00    0.0
2020/07/03 05:14:28  -2288251.9076   5002577.4978   3217032.7744   1  31   0.0000   0.0000   0.0000   0.0000   0.0000   0.0000   0.00    0.0
2020/07/03 05:14:29  -2288251.9081   5002577.4980   3217032.7757   1  31   0.0000   0.0000   0.0000   0.0000   0.0000   0.0000   0.00    0.0
2020/07/03 05:14:30  -2288251.9134   5002577.5069   3217032.7818   1  31   0.0000   0.0000   0.0000   0.0000   0.0000   0.0000   0.00    0.0
2020/07/03 05:14:31  -2288251.9070   5002577.4996   3217032.7780   1  31   0.0000   0.0000   0.0000   0.0000   0.0000   0.0000   0.00    0.0
2020/07/03 05:14:32  -2288251.9070   5002577.4998   3217032.7776   1  31   0.0000   0.0000   0.0000   0.0000   0.0000   0.0000   0.00    0.0
2020/07/03 05:14:33  -2288251.9089   5002577.5014   3217032.7777   1  31   0.0000   0.0000   0.0000   0.0000   0.0000   0.0000   0.00    0.0
2020/07/03 05:14:34  -2288251.9085   5002577.5004   3217032.7756   1  31   0.0000   0.0000   0.0000   0.0000   0.0000   0.0000   0.00    0.0
2020/07/03 05:14:35  -2288251.9076   5002577.5013   3217032.7769   1  31   0.0000   0.0000   0.0000   0.0000   0.0000   0.0000   0.00    0.0
2020/07/03 05:14:36  -2288251.9085   5002577.5008   3217032.7809   1  31   0.0000   0.0000   0.0000   0.0000   0.0000   0.0000   0.00    0.0
2020/07/03 05:14:37  -2288251.9080   5002577.5013   3217032.7804   1  31   0.0000   0.0000   0.0000   0.0000   0.0000   0.0000   0.00    0.0
2020/07/03 05:14:38  -2288251.9063   5002577.5023   3217032.7782   1  31   0.0000   0.0000   0.0000   0.0000   0.0000   0.0000   0.00    0.0
2020/07/03 05:14:39  -2288251.9086   5002577.5004   3217032.7794   1  31   0.0000   0.0000   0.0000   0.0000   0.0000   0.0000   0.00    0.0
2020/07/03 05:14:40  -2288251.9085   5002577.5012   3217032.7783   1  31   0.0000   0.0000   0.0000   0.0000   0.0000   0.0000   0.00    0.0
2020/07/03 05:14:41  -2288251.9088   5002577.5034   3217032.7787   1  31   0.0000   0.0000   0.0000   0.0000   0.0000   0.0000   0.00    0.0
2020/07/03 05:14:42  -2288251.9081   5002577.5065   3217032.7822   1  31   0.0000   0.0000   0.0000   0.0000   0.0000   0.0000   0.00    0.0
2020/07/03 05:14:43  -2288251.9088   5002577.5060   3217032.7825   1  31   0.0000   0.0000   0.0000   0.0000   0.0000   0.0000   0.00    0.0
2020/07/03 05:14:44  -2288251.9102   5002577.5068   3217032.7822   1  31   0.0000   0.0000   0.0000   0.0000   0.0000   0.0000   0.00    0.0
2020/07/03 05:14:45  -2288251.9237   5002577.5029   3217032.7808   1  31   0.0000   0.0000   0.0000   0.0000   0.0000   0.0000   0.00    0.0
2020/07/03 05:14:46  -2288252.2177   5002577.3975   3217032.7398   1  31   0.0000   0.0000   0.0000   0.0000   0.0000   0.0000   0.00    0.0
2020/07/03 05:14:47  -2288253.2692   5002577.0040   3217032.5829   1  31   0.0000   0.0000   0.0000   0.0000   0.0000   0.0000   0.00    0.0
2020/07/03 05:14:48  -2288255.5024   5002576.1844   3217032.2671   1  31   0.0000   0.0000   0.0000   0.0000   0.0000   0.0000   0.00    0.0
2020/07/03 05:14:49  -2288258.9200   5002574.8860   3217031.7693   1  31   0.0000   0.0000   0.0000   0.0000   0.0000   0.0000   0.00    0.0
2020/07/03 05:14:50  -2288263.4255   5002573.2100   3217031.1098   1  31   0.0000   0.0000   0.0000   0.0000   0.0000   0.0000   0.00    0.0
2020/07/03 05:14:51  -2288268.8496   5002571.1961   3217030.2995   1  31   0.0000   0.0000   0.0000   0.0000   0.0000   0.0000   0.00    0.0
2020/07/03 05:14:52  -2288275.0585   5002568.9035   3217029.3749   1  31   0.0000   0.0000   0.0000   0.0000   0.0000   0.0000   0.00    0.0
2020/07/03 05:14:53  -2288281.9318   5002566.4231   3217028.3558   1  31   0.0000   0.0000   0.0000   0.0000   0.0000   0.0000   0.00    0.0
2020/07/03 05:14:54  -2288289.3781   5002563.7390   3217027.2308   1  31   0.0000   0.0000   0.0000   0.0000   0.0000   0.0000   0.00    0.0
2020/07/03 05:14:55  -2288297.3661   5002560.8658   3217025.9914   1  31   0.0000   0.0000   0.0000   0.0000   0.0000   0.0000   0.00    0.0
2020/07/03 05:14:56  -2288305.8912   5002557.7684   3217024.6361   1  30   0.0000   0.0000   0.0000   0.0000   0.0000   0.0000   0.00    0.0
2020/07/03 05:14:57  -2288314.9787   5002554.4771   3217023.1946   1  30   0.0000   0.0000   0.0000   0.0000   0.0000   0.0000   0.00    0.0
2020/07/03 05:14:58  -2288324.5811   5002550.9647   3217021.6480   1  30   0.0000   0.0000   0.0000   0.0000   0.0000   0.0000   0.00    0.0
2020/07/03 05:14:59  -2288334.6806   5002547.3757   3217020.1327   1  30   0.0000   0.0000   0.0000   0.0000   0.0000   0.0000   0.00    0.0
2020/07/03 05:15:00  -2288345.1953   5002543.5855   3217018.5559   1  31   0.0000   0.0000   0.0000   0.0000   0.0000   0.0000   0.00    0.0
2020/07/03 05:15:01  -2288356.1153   5002539.6710   3217016.9042   1  30   0.0000   0.0000   0.0000   0.0000   0.0000   0.0000   0.00    0.0
2020/07/03 05:15:02  -2288367.4192   5002535.6410   3217015.2090   1  31   0.0000   0.0000   0.0000   0.0000   0.0000   0.0000   0.00    0.0
2020/07/03 05:15:03  -2288379.0645   5002531.5240   3217013.5272   1  31   0.0000   0.0000   0.0000   0.0000   0.0000   0.0000   0.00    0.0
2020/07/03 05:15:04  -2288390.9994   5002527.2430   3217011.7759   1  30   0.0000   0.0000   0.0000   0.0000   0.0000   0.0000   0.00    0.0
2020/07/03 05:15:05  -2288403.2289   5002522.8854   3217010.0231   1  30   0.0000   0.0000   0.0000   0.0000   0.0000   0.0000   0.00    0.0
2020/07/03 05:15:06  -2288415.7380   5002518.4618   3217008.2103   1  31   0.0000   0.0000   0.0000   0.0000   0.0000   0.0000   0.00    0.0
2020/07/03 05:15:07  -2288428.5094   5002513.9625   3217006.3389   1  31   0.0000   0.0000   0.0000   0.0000   0.0000   0.0000   0.00    0.0
2020/07/03 05:15:08  -2288441.5126   5002509.3842   3217004.3921   1  31   0.0000   0.0000   0.0000   0.0000   0.0000   0.0000   0.00    0.0
2020/07/03 05:15:09  -2288454.7551   5002504.6872   3217002.4792   1  31   0.0000   0.0000   0.0000   0.0000   0.0000   0.0000   0.00    0.0
2020/07/03 05:15:10  -2288468.2142   5002499.8793   3217000.6240   1  31   0.0000   0.0000   0.0000   0.0000   0.0000   0.0000   0.00    0.0
2020/07/03 05:15:11  -2288481.8529   5002494.8517   3216998.8451   1  30   0.0000   0.0000   0.0000   0.0000   0.0000   0.0000   0.00    0.0
2020/07/03 05:15:12  -2288495.7144   5002489.7170   3216997.2142   1  30   0.0000   0.0000   0.0000   0.0000   0.0000   0.0000   0.00    0.0
2020/07/03 05:15:13  -2288509.7583   5002484.5081   3216995.6239   1  30   0.0000   0.0000   0.0000   0.0000   0.0000   0.0000   0.00    0.0
2020/07/03 05:15:14  -2288523.9540   5002479.1336   3216993.9891   1  30   0.0000   0.0000   0.0000   0.0000   0.0000   0.0000   0.00    0.0
2020/07/03 05:15:15  -2288538.3592   5002473.7589   3216992.4093   1  30   0.0000   0.0000   0.0000   0.0000   0.0000   0.0000   0.00    0.0
2020/07/03 05:15:16  -2288552.9085   5002468.2539   3216990.8188   1  29   0.0000   0.0000   0.0000   0.0000   0.0000   0.0000   0.00    0.0
2020/07/03 05:15:17  -2288567.6329   5002462.6800   3216989.3152   1  27   0.0000   0.0000   0.0000   0.0000   0.0000   0.0000   0.00    0.0
2020/07/03 05:15:18  -2288582.4879   5002456.9806   3216987.8558   1  27   0.0000   0.0000   0.0000   0.0000   0.0000   0.0000   0.00    0.0
2020/07/03 05:15:19  -2288597.4890   5002451.1768   3216986.4525   1  30   0.0000   0.0000   0.0000   0.0000   0.0000   0.0000   0.00    0.0
2020/07/03 05:15:20  -2288612.6234   5002445.2531   3216985.1008   1  30   0.0000   0.0000   0.0000   0.0000   0.0000   0.0000   0.00    0.0
2020/07/03 05:15:21  -2288627.9096   5002439.2481   3216983.8184   1  30   0.0000   0.0000   0.0000   0.0000   0.0000   0.0000   0.00    0.0
2020/07/03 05:15:22  -2288643.3071   5002433.0972   3216982.6235   1  30   0.0000   0.0000   0.0000   0.0000   0.0000   0.0000   0.00    0.0
2020/07/03 05:15:23  -2288658.8249   5002426.8118   3216981.6045   1  30   0.0000   0.0000   0.0000   0.0000   0.0000   0.0000   0.00    0.0
2020/07/03 05:15:24  -2288674.4329   5002420.4042   3216980.6967   1  29   0.0000   0.0000   0.0000   0.0000   0.0000   0.0000   0.00    0.0
2020/07/03 05:15:25  -2288690.1226   5002413.8904   3216979.8753   1  29   0.0000   0.0000   0.0000   0.0000   0.0000   0.0000   0.00    0.0
2020/07/03 05:15:26  -2288705.7923   5002407.4017   3216979.0963   1  29   0.0000   0.0000   0.0000   0.0000   0.0000   0.0000   0.00    0.0
2020/07/03 05:15:27  -2288721.4231   5002400.8751   3216978.4071   1  30   0.0000   0.0000   0.0000   0.0000   0.0000   0.0000   0.00    0.0
2020/07/03 05:15:28  -2288737.0346   5002394.3406   3216977.7438   1  29   0.0000   0.0000   0.0000   0.0000   0.0000   0.0000   0.00    0.0
2020/07/03 05:15:29  -2288752.6344   5002387.7637   3216977.0830   1  26   0.0000   0.0000   0.0000   0.0000   0.0000   0.0000   0.00    0.0
2020/07/03 05:15:30  -2288768.2396   5002381.1788   3216976.4878   1  26   0.0000   0.0000   0.0000   0.0000   0.0000   0.0000   0.00    0.0
2020/07/03 05:15:31  -2288783.8339   5002374.5441   3216975.9280   1  27   0.0000   0.0000   0.0000   0.0000   0.0000   0.0000   0.00    0.0
2020/07/03 05:15:32  -2288799.4197   5002367.8565   3216975.4677   1  26   0.0000   0.0000   0.0000   0.0000   0.0000   0.0000   0.00    0.0
2020/07/03 05:15:33  -2288814.9769   5002361.0889   3216975.1273   1  21   0.0000   0.0000   0.0000   0.0000   0.0000   0.0000   0.00    0.0
2020/07/03 05:15:34  -2288830.5198   5002354.2854   3216974.8780   1  27   0.0000   0.0000   0.0000   0.0000   0.0000   0.0000   0.00    0.0
