% program   : RTKPOST
% ref pos   :
% (x/y/z-ecef=WGS84,Q=1:fix,2:float,3:sbas,4:dgps,5:single,6:ppp,ns=# of satellites)
%  GPST                 lat(deg)       lon(deg)        h(m)      Q   ns    sdx(m)    sdy(m)    sdz(m)    sdxy(m)   sdyz(m)   sdzx(m)   age(s)  ratio   fixn
2112 137381.000000   22.6824140216  113.7814771768     1.3520    1   10    0.0000    0.0000    0.0000    0.0000    0.0000    0.0000    0.00     0.0      0
2112 137382.000000   22.6824208032  113.7813879852     1.3460    1   10    0.0000    0.0000    0.0000    0.0000    0.0000    0.0000    0.00     0.0      0
2112 137383.000000   22.6824281227  113.7812967837     1.3630    1   10    0.0000    0.0000    0.0000    0.0000    0.0000    0.0000    0.00     0.0      0
2112 137384.000000   22.6824350491  113.7812056187     1.3770    1   10    0.0000    0.0000    0.0000    0.0000    0.0000    0.0000    0.00     0.0      0
2112 137385.000000   22.6824413439  113.7811174924     1.3840    1   10    0.0000    0.0000    0.0000    0.0000    0.0000    0.0000    0.00     0.0      0
2112 137386.000000   22.6824472842  113.7810334029     1.3830    1   10    0.0000    0.0000    0.0000    0.0000    0.0000    0.0000    0.00     0.0      0
2112 137387.000000   22.6824522398  113.7809617848     1.3850    1   10    0.0000    0.0000    0.0000    0.0000    0.0000    0.0000    0.00     0.0      0
2112 137388.000000   22.6824560941  113.7809008294     1.3930    1   10    0.0000    0.0000    0.0000    0.0000    0.0000    0.0000    0.00     0.0      0
2112 137389.000000   22.6824600315  113.7808415175     1.3910    1   10    0.0000    0.0000    0.0000    0.0000    0.0000    0.0000    0.00     0.0      0
2112 137390.000000   22.6824647210  113.7807774532     1.3900    1   10    0.0000    0.0000    0.0000    0.0000    0.0000    0.0000    0.00     0.0      0
2112 137391.000000   22.6824704187  113.7807059357     1.3890    1   10    0.0000    0.0000    0.0000    0.0000    0.0000    0.0000    0.00     0.0      0
2112 137392.000000   22.6824767614  113.7806269802     1.3870    1   10    0.0000    0.0000    0.0000    0.0000    0.0000    0.0000    0.00     0.0      0
2112 137393.000000   22.6824828262  113.7805459023     1.3770    1   10    0.0000    0.0000    0.0000    0.0000    0.0000    0.0000    0.00     0.0      0
2112 137394.000000   22.6824883424  113.7804633193     1.3780    1   10    0.0000    0.0000    0.0000    0.0000    0.0000    0.0000    0.00     0.0      0
2112 137395.000000   22.6824934513  113.7803814380     1.3760    1   10    0.0000    0.0000    0.0000    0.0000    0.0000    0.0000    0.00     0.0      0
2112 137396.000000   22.6824997720  113.7803010965     1.3740    1   10    0.0000    0.0000    0.0000    0.0000    0.0000    0.0000    0.00     0.0      0
2112 137397.000000   22.6825092062  113.7802239570     1.3750    1   10    0.0000    0.0000    0.0000    0.0000    0.0000    0.0000    0.00     0.0      0
2112 137398.000000   22.6825198506  113.7801510944     1.3790    1   10    0.0000    0.0000    0.0000    0.0000    0.0000    0.0000    0.00     0.0      0
2112 137399.000000   22.6825303995  113.7800815184     1.2700    1   10    0.0000    0.0000    0.0000    0.0000    0.0000    0.0000    0.00     0.0      0
2112 137400.000000   22.6825413395  113.7800152189     1.2770    1   10    0.0000    0.0000    0.0000    0.0000    0.0000    0.0000    0.00     0.0      0
2112 137401.000000   22.6825519979  113.7799530708     1.2820    1   10    0.0000    0.0000    0.0000    0.0000    0.0000    0.0000    0.00     0.0      0
2112 137402.000000   22.6825612397  113.7798954647     1.2890    1   10    0.0000    0.0000    0.0000    0.0000    0.0000    0.0000    0.00     0.0      0
2112 137403.000000   22.6825695438  113.7798489086     1.2920    1   10    0.0000    0.0000    0.0000    0.0000    0.0000    0.0000    0.00     0.0      0
2112 137404.000000   22.6825810017  113.7798105310     1.2700    1   10    0.0000    0.0000    0.0000    0.0000    0.0000    0.0000    0.00     0.0      0
2112 137405.000000   22.6825995489  113.7797781270     1.2250    1   10    0.0000    0.0000    0.0000    0.0000    0.0000    0.0000    0.00     0.0      0
2112 137406.000000   22.6826225337  113.7797526141     1.1890    1   10    0.0000    0.0000    0.0000    0.0000    0.0000    0.0000    0.00     0.0      0
2112 137407.000000   22.6826550560  113.7797276490     1.1660    1   10    0.0000    0.0000    0.0000    0.0000    0.0000    0.0000    0.00     0.0      0
2112 137408.000000   22.6826923709  113.7797093087     1.1670    1   10    0.0000    0.0000    0.0000    0.0000    0.0000    0.0000    0.00     0.0      0
2112 137409.000000   22.6827335371  113.7796976236     1.1740    1   10    0.0000    0.0000    0.0000    0.0000    0.0000    0.0000    0.00     0.0      0
2112 137410.000000   22.6827846236  113.7796912935     1.1710    1   10    0.0000    0.0000    0.0000    0.0000    0.0000    0.0000    0.00     0.0      0
2112 137411.000000   22.6828417724  113.7796916030     1.1510    1   10    0.0000    0.0000    0.0000    0.0000    0.0000    0.0000    0.00     0.0      0
2112 137412.000000   22.6829036168  113.7796975926     1.1130    1   10    0.0000    0.0000    0.0000    0.0000    0.0000    0.0000    0.00     0.0      0
2112 137413.000000   22.6829696584  113.7797082938     1.0350    1   10    0.0000    0.0000    0.0000    0.0000    0.0000    0.0000    0.00     0.0      0
2112 137414.000000   22.6830396246  113.7797200850     0.9880    1   10    0.0000    0.0000    0.0000    0.0000    0.0000    0.0000    0.00     0.0      0
2112 137415.000000   22.6831114395  113.7797281865     0.9720    1   10    0.0000    0.0000    0.0000    0.0000    0.0000    0.0000    0.00     0.0      0
2112 137416.000000   22.6831817644  113.7797331517     0.9560    1   10    0.0000    0.0000    0.0000    0.0000    0.0000    0.0000    0.00     0.0      0
2112 137417.000000   22.6832514339  113.7797377522     0.9350    1   10    0.0000    0.0000    0.0000    0.0000    0.0000    0.0000    0.00     0.0      0
2112 137418.000000   22.6833220103  113.7797433068     0.9210    1   10    0.0000    0.0000    0.0000    0.0000    0.0000    0.0000    0.00     0.0      0
2112 137419.000000   22.6833921604  113.7797493718     0.9430    1   10    0.0000    0.0000    0.0000    0.0000    0.0000    0.0000    0.00     0.0      0
2112 137420.000000   22.6834623272  113.7797551929     0.9640    1   10    0.0000    0.0000    0.0000    0.0000    0.0000    0.0000    0.00     0.0      0
2112 137421.000000   22.6835328078  113.7797609365     0.9630    1   10    0.0000    0.0000    0.0000    0.0000    0.0000    0.0000    0.00     0.0      0
2112 137422.000000   22.6836017680  113.7797670134     0.9590    1   10    0.0000    0.0000    0.0000    0.0000    0.0000    0.0000    0.00     0.0      0
2112 137423.000000   22.6836682518  113.7797732776     0.9520    1   10    0.0000    0.0000    0.0000    0.0000    0.0000    0.0000    0.00     0.0      0
2112 137424.000000   22.6837312321  113.7797793681     0.9510    1   10    0.0000    0.0000    0.0000    0.0000    0.0000    0.0000    0.00     0.0      0
2112 137425.000000   22.6837917269  113.7797850502     0.9520    1   10    0.0000    0.0000    0.0000    0.0000    0.0000    0.0000    0.00     0.0      0
2112 137426.000000   22.6838511476  113.7797902126     0.9550    1   10    0.0000    0.0000    0.0000    0.0000    0.0000    0.0000    0.00     0.0      0
2112 137427.000000   22.6839102123  113.7797946773     0.9610    1   10    0.0000    0.0000    0.0000    0.0000    0.0000    0.0000    0.00     0.0      0
2112 137428.000000   22.6839701370  113.7797987115     0.9620    1   10    0.0000    0.0000    0.0000    0.0000    0.0000    0.0000    0.00     0.0      0
2112 137429.000000   22.6840332684  113.7798029466     0.9510    1   10    0.0000    0.0000    0.0000    0.0000    0.0000    0.0000    0.00     0.0      0
2112 137430.000000   22.6841027105  113.7798077450     0.9410    1   10    0.0000    0.0000    0.0000    0.0000    0.0000    0.0000    0.00     0.0      0
2112 137431.000000   22.6841794887  113.7798116062     0.9320    1   10    0.0000    0.0000    0.0000    0.0000    0.0000    0.0000    0.00     0.0      0
2112 137432.000000   22.6842615900  113.7798132218     0.9150    1   10    0.0000    0.0000    0.0000    0.0000    0.0000    0.0000    0.00     0.0      0
2112 137433.000000   22.6843464334  113.7798147063     0.9080    1   10    0.0000    0.0000    0.0000    0.0000    0.0000    0.0000    0.00     0.0      0
2112 137434.000000   22.6844343266  113.7798183807     0.9230    1   10    0.0000    0.0000    0.0000    0.0000    0.0000    0.0000    0.00     0.0      0
2112 137435.000000   22.6845240353  113.7798238076     0.9230    1   10    0.0000    0.0000    0.0000    0.0000    0.0000    0.0000    0.00     0.0      0
2112 137436.000000   22.6846154731  113.7798301953     0.9340    1   10    0.0000    0.0000    0.0000    0.0000    0.0000    0.0000    0.00     0.0      0
2112 137437.000000   22.6847104339  113.7798374491     0.9300    1   10    0.0000    0.0000    0.0000    0.0000    0.0000    0.0000    0.00     0.0      0
2112 137438.000000   22.6848063182  113.7798451865     0.9420    1   10    0.0000    0.0000    0.0000    0.0000    0.0000    0.0000    0.00     0.0      0
2112 137439.000000   22.6849017638  113.7798538222     0.9630    1   10    0.0000    0.0000    0.0000    0.0000    0.0000    0.0000    0.00     0.0      0
2112 137440.000000   22.6849962844  113.7798632354     1.0060    1   10    0.0000    0.0000    0.0000    0.0000    0.0000    0.0000    0.00     0.0      0
2112 137441.000000   22.6850904367  113.7798726116     1.0080    1   10    0.0000    0.0000    0.0000    0.0000    0.0000    0.0000    0.00     0.0      0
2112 137442.000000   22.6851854049  113.7798825450     0.9980    1   10    0.0000    0.0000    0.0000    0.0000    0.0000    0.0000    0.00     0.0      0
2112 137443.000000   22.6852793034  113.7798931689     0.9750    1   10    0.0000    0.0000    0.0000    0.0000    0.0000    0.0000    0.00     0.0      0
2112 137444.000000   22.6853733180  113.7799051313     0.9420    1   10    0.0000    0.0000    0.0000    0.0000    0.0000    0.0000    0.00     0.0      0
2112 137445.000000   22.6854660641  113.7799180949     0.8830    1   10    0.0000    0.0000    0.0000    0.0000    0.0000    0.0000    0.00     0.0      0
2112 137446.000000   22.6855559176  113.7799311169     0.8590    1   10    0.0000    0.0000    0.0000    0.0000    0.0000    0.0000    0.00     0.0      0
2112 137447.000000   22.6856418515  113.7799430709     0.8430    1   10    0.0000    0.0000    0.0000    0.0000    0.0000    0.0000    0.00     0.0      0
2112 137448.000000   22.6857202310  113.7799524434     0.8460    1   10    0.0000    0.0000    0.0000    0.0000    0.0000    0.0000    0.00     0.0      0
2112 137449.000000   22.6857881375  113.7799588497     0.8150    1   10    0.0000    0.0000    0.0000    0.0000    0.0000    0.0000    0.00     0.0      0
2112 137450.000000   22.6858499553  113.7799637843     0.8600    1   10    0.0000    0.0000    0.0000    0.0000    0.0000    0.0000    0.00     0.0      0
2112 137451.000000   22.6859011685  113.7799675921     0.9860    1   10    0.0000    0.0000    0.0000    0.0000    0.0000    0.0000    0.00     0.0      0
2112 137452.000000   22.6859429540  113.7799711199     1.0300    1   10    0.0000    0.0000    0.0000    0.0000    0.0000    0.0000    0.00     0.0      0
2112 137453.000000   22.6859774131  113.7799768174     1.0230    1   10    0.0000    0.0000    0.0000    0.0000    0.0000    0.0000    0.00     0.0      0
2112 137454.000000   22.6860055863  113.7799858583     1.0130    1   10    0.0000    0.0000    0.0000    0.0000    0.0000    0.0000    0.00     0.0      0
2112 137455.000000   22.6860300390  113.7799998647     1.0140    1   10    0.0000    0.0000    0.0000    0.0000    0.0000    0.0000    0.00     0.0      0
2112 137456.000000   22.6860561658  113.7800226030     0.9920    1   10    0.0000    0.0000    0.0000    0.0000    0.0000    0.0000    0.00     0.0      0
2112 137457.000000   22.6860813992  113.7800533344     0.9510    1   10    0.0000    0.0000    0.0000    0.0000    0.0000    0.0000    0.00     0.0      0
2112 137458.000000   22.6861071824  113.7800935183     0.9400    1   10    0.0000    0.0000    0.0000    0.0000    0.0000    0.0000    0.00     0.0      0
2112 137459.000000   22.6861278647  113.7801350545     0.9470    1   10    0.0000    0.0000    0.0000    0.0000    0.0000    0.0000    0.00     0.0      0
2112 137460.000000   22.6861441521  113.7801745472     0.9570    1   10    0.0000    0.0000    0.0000    0.0000    0.0000    0.0000    0.00     0.0      0
2112 137461.000000   22.6861550576  113.7802149316     0.9760    1   10    0.0000    0.0000    0.0000    0.0000    0.0000    0.0000    0.00     0.0      0
2112 137462.000000   22.6861584946  113.7802594209     1.0160    1   10    0.0000    0.0000    0.0000    0.0000    0.0000    0.0000    0.00     0.0      0
2112 137463.000000   22.6861558630  113.7803025181     1.0630    1   10    0.0000    0.0000    0.0000    0.0000    0.0000    0.0000    0.00     0.0      0
2112 137464.000000   22.6861527085  113.7803458063     1.1040    1   10    0.0000    0.0000    0.0000    0.0000    0.0000    0.0000    0.00     0.0      0
2112 137465.000000   22.6861531799  113.7803930935     1.1330    1   10    0.0000    0.0000    0.0000    0.0000    0.0000    0.0000    0.00     0.0      0
2112 137466.000000   22.6861591877  113.7804434918     1.1510    1   10    0.0000    0.0000    0.0000    0.0000    0.0000    0.0000    0.00     0.0      0
2112 137467.000000   22.6861665807  113.7804981517     1.1650    1   10    0.0000    0.0000    0.0000    0.0000    0.0000    0.0000    0.00     0.0      0
2112 137468.000000   22.6861729901  113.7805547820     1.1710    1   10    0.0000    0.0000    0.0000    0.0000    0.0000    0.0000    0.00     0.0      0
2112 137469.000000   22.6861770391  113.7806144121     1.1710    1   10    0.0000    0.0000    0.0000    0.0000    0.0000    0.0000    0.00     0.0      0
2112 137470.000000   22.6861773005  113.7806742226     1.1720    1   10    0.0000    0.0000    0.0000    0.0000    0.0000    0.0000    0.00     0.0      0
2112 137471.000000   22.6861751696  113.7807360679     1.1890    1   10    0.0000    0.0000    0.0000    0.0000    0.0000    0.0000    0.00     0.0      0
2112 137472.000000   22.6861731018  113.7808038304     1.2040    1   10    0.0000    0.0000    0.0000    0.0000    0.0000    0.0000    0.00     0.0      0
2112 137473.000000   22.6861722279  113.7808757216     1.2140    1   10    0.0000    0.0000    0.0000    0.0000    0.0000    0.0000    0.00     0.0      0
2112 137474.000000   22.6861715991  113.7809516011     1.2290    1   10    0.0000    0.0000    0.0000    0.0000    0.0000    0.0000    0.00     0.0      0
2112 137475.000000   22.6861694312  113.7810304864     1.2270    1   10    0.0000    0.0000    0.0000    0.0000    0.0000    0.0000    0.00     0.0      0
2112 137476.000000   22.6861648712  113.7811134629     1.2330    1   10    0.0000    0.0000    0.0000    0.0000    0.0000    0.0000    0.00     0.0      0
2112 137477.000000   22.6861586550  113.7811986320     1.2150    1   10    0.0000    0.0000    0.0000    0.0000    0.0000    0.0000    0.00     0.0      0
2112 137478.000000   22.6861520608  113.7812855647     1.1870    1   10    0.0000    0.0000    0.0000    0.0000    0.0000    0.0000    0.00     0.0      0
2112 137479.000000   22.6861454285  113.7813730609     1.1810    1   10    0.0000    0.0000    0.0000    0.0000    0.0000    0.0000    0.00     0.0      0
2112 137480.000000   22.6861379295  113.7814583503     1.1540    1   10    0.0000    0.0000    0.0000    0.0000    0.0000    0.0000    0.00     0.0      0
2112 137481.000000   22.6861302850  113.7815422951     1.1440    1   10    0.0000    0.0000    0.0000    0.0000    0.0000    0.0000    0.00     0.0      0
2112 137482.000000   22.6861239915  113.7816244795     1.1580    1   10    0.0000    0.0000    0.0000    0.0000    0.0000    0.0000    0.00     0.0      0
2112 137483.000000   22.6861186089  113.7817024389     1.2250    1   10    0.0000    0.0000    0.0000    0.0000    0.0000    0.0000    0.00     0.0      0
2112 137484.000000   22.6861139989  113.7817758526     1.2530    1   10    0.0000    0.0000    0.0000    0.0000    0.0000    0.0000    0.00     0.0      0
2112 137485.000000   22.6861108234  113.7818431715     1.2500    1   10    0.0000    0.0000    0.0000    0.0000    0.0000    0.0000    0.00     0.0      0
2112 137486.000000   22.6861111831  113.7819070553     1.2530    1   10    0.0000    0.0000    0.0000    0.0000    0.0000    0.0000    0.00     0.0      0
2112 137487.000000   22.6861140141  113.7819635013     1.2650    1   10    0.0000    0.0000    0.0000    0.0000    0.0000    0.0000    0.00     0.0      0
2112 137488.000000   22.6861169217  113.7820116402     1.2580    1   10    0.0000    0.0000    0.0000    0.0000    0.0000    0.0000    0.00     0.0      0
2112 137489.000000   22.6861191021  113.7820461229     1.2450    1   10    0.0000    0.0000    0.0000    0.0000    0.0000    0.0000    0.00     0.0      0
2112 137490.000000   22.6861192120  113.7820738650     1.2350    1   10    0.0000    0.0000    0.0000    0.0000    0.0000    0.0000    0.00     0.0      0
2112 137491.000000   22.6861184697  113.7821002299     1.2240    1   10    0.0000    0.0000    0.0000    0.0000    0.0000    0.0000    0.00     0.0      0
2112 137492.000000   22.6861209158  113.7821333736     1.2140    1   10    0.0000    0.0000    0.0000    0.0000    0.0000    0.0000    0.00     0.0      0
2112 137493.000000   22.6861289690  113.7821756787     1.2040    1   10    0.0000    0.0000    0.0000    0.0000    0.0000    0.0000    0.00     0.0      0
2112 137494.000000   22.6861386927  113.7822207141     1.1850    1   10    0.0000    0.0000    0.0000    0.0000    0.0000    0.0000    0.00     0.0      0
2112 137495.000000   22.6861464121  113.7822698051     1.1690    1   10    0.0000    0.0000    0.0000    0.0000    0.0000    0.0000    0.00     0.0      0
2112 137496.000000   22.6861514298  113.7823234101     1.1480    1   10    0.0000    0.0000    0.0000    0.0000    0.0000    0.0000    0.00     0.0      0
2112 137497.000000   22.6861552783  113.7823779064     1.1200    1   10    0.0000    0.0000    0.0000    0.0000    0.0000    0.0000    0.00     0.0      0
2112 137498.000000   22.6861590448  113.7824344746     1.0970    1   10    0.0000    0.0000    0.0000    0.0000    0.0000    0.0000    0.00     0.0      0
2112 137499.000000   22.6861620033  113.7824915447     1.0720    1   10    0.0000    0.0000    0.0000    0.0000    0.0000    0.0000    0.00     0.0      0
2112 137500.000000   22.6861641940  113.7825466028     1.0490    1   10    0.0000    0.0000    0.0000    0.0000    0.0000    0.0000    0.00     0.0      0
2112 137501.000000   22.6861655055  113.7825996658     1.0280    1   10    0.0000    0.0000    0.0000    0.0000    0.0000    0.0000    0.00     0.0      0
2112 137502.000000   22.6861652155  113.7826512538     0.9910    1   10    0.0000    0.0000    0.0000    0.0000    0.0000    0.0000    0.00     0.0      0
2112 137503.000000   22.6861637078  113.7827011261     0.9560    1   10    0.0000    0.0000    0.0000    0.0000    0.0000    0.0000    0.00     0.0      0
2112 137504.000000   22.6861616025  113.7827497312     0.9330    1   10    0.0000    0.0000    0.0000    0.0000    0.0000    0.0000    0.00     0.0      0
2112 137505.000000   22.6861590246  113.7827965841     0.9220    1   10    0.0000    0.0000    0.0000    0.0000    0.0000    0.0000    0.00     0.0      0
2112 137506.000000   22.6861564840  113.7828417523     0.9140    1   10    0.0000    0.0000    0.0000    0.0000    0.0000    0.0000    0.00     0.0      0
2112 137507.000000   22.6861543000  113.7828850163     0.9100    1   10    0.0000    0.0000    0.0000    0.0000    0.0000    0.0000    0.00     0.0      0
2112 137508.000000   22.6861528835  113.7829261850     0.9120    1   10    0.0000    0.0000    0.0000    0.0000    0.0000    0.0000    0.00     0.0      0
2112 137509.000000   22.6861520315  113.7829641098     0.9120    1   10    0.0000    0.0000    0.0000    0.0000    0.0000    0.0000    0.00     0.0      0
2112 137510.000000   22.6861512110  113.7829970992     0.9060    1   10    0.0000    0.0000    0.0000    0.0000    0.0000    0.0000    0.00     0.0      0
2112 137511.000000   22.6861502730  113.7830294025     0.9010    1   10    0.0000    0.0000    0.0000    0.0000    0.0000    0.0000    0.00     0.0      0
2112 137512.000000   22.6861495125  113.7830620454     0.9020    1   10    0.0000    0.0000    0.0000    0.0000    0.0000    0.0000    0.00     0.0      0
2112 137513.000000   22.6861487633  113.7830966448     0.9120    1   10    0.0000    0.0000    0.0000    0.0000    0.0000    0.0000    0.00     0.0      0
2112 137514.000000   22.6861477429  113.7831353769     0.9300    1   10    0.0000    0.0000    0.0000    0.0000    0.0000    0.0000    0.00     0.0      0
2112 137515.000000   22.6861462704  113.7831717136     0.9390    1   10    0.0000    0.0000    0.0000    0.0000    0.0000    0.0000    0.00     0.0      0
2112 137516.000000   22.6861448969  113.7832029353     0.9450    1   10    0.0000    0.0000    0.0000    0.0000    0.0000    0.0000    0.00     0.0      0
2112 137517.000000   22.6861438787  113.7832300797     0.9640    1   10    0.0000    0.0000    0.0000    0.0000    0.0000    0.0000    0.00     0.0      0
2112 137518.000000   22.6861432652  113.7832494898     0.9810    1   10    0.0000    0.0000    0.0000    0.0000    0.0000    0.0000    0.00     0.0      0
2112 137519.000000   22.6861428765  113.7832617468     0.9990    1   10    0.0000    0.0000    0.0000    0.0000    0.0000    0.0000    0.00     0.0      0
2112 137520.000000   22.6861426926  113.7832672512     1.0040    1   10    0.0000    0.0000    0.0000    0.0000    0.0000    0.0000    0.00     0.0      0
2112 137521.000000   22.6861426594  113.7832683320     1.0040    1   10    0.0000    0.0000    0.0000    0.0000    0.0000    0.0000    0.00     0.0      0
2112 137522.000000   22.6861426698  113.7832683165     1.0050    1   10    0.0000    0.0000    0.0000    0.0000    0.0000    0.0000    0.00     0.0      0
2112 137523.000000   22.6861426774  113.7832683052     1.0050    1   10    0.0000    0.0000    0.0000    0.0000    0.0000    0.0000    0.00     0.0      0
2112 137524.000000   22.6861426821  113.7832683004     1.0040    1   10    0.0000    0.0000    0.0000    0.0000    0.0000    0.0000    0.00     0.0      0
2112 137525.000000   22.6861426851  113.7832682996     1.0030    1   10    0.0000    0.0000    0.0000    0.0000    0.0000    0.0000    0.00     0.0      0
2112 137526.000000   22.6861426873  113.7832683001     1.0010    1   10    0.0000    0.0000    0.0000    0.0000    0.0000    0.0000    0.00     0.0      0
2112 137527.000000   22.6861426832  113.7832683028     0.9990    1   10    0.0000    0.0000    0.0000    0.0000    0.0000    0.0000    0.00     0.0      0
2112 137528.000000   22.6861426775  113.7832683019     0.9980    1   10    0.0000    0.0000    0.0000    0.0000    0.0000    0.0000    0.00     0.0      0
2112 137529.000000   22.6861426725  113.7832682998     0.9970    1   10    0.0000    0.0000    0.0000    0.0000    0.0000    0.0000    0.00     0.0      0
2112 137530.000000   22.6861426697  113.7832682966     0.9970    1   10    0.0000    0.0000    0.0000    0.0000    0.0000    0.0000    0.00     0.0      0
2112 137531.000000   22.6861426664  113.7832682975     0.9960    1   10    0.0000    0.0000    0.0000    0.0000    0.0000    0.0000    0.00     0.0      0
2112 137532.000000   22.6861426634  113.7832682996     0.9960    1   10    0.0000    0.0000    0.0000    0.0000    0.0000    0.0000    0.00     0.0      0
2112 137533.000000   22.6861426577  113.7832683043     0.9970    1   10    0.0000    0.0000    0.0000    0.0000    0.0000    0.0000    0.00     0.0      0
2112 137534.000000   22.6861426574  113.7832683085     0.9970    1   10    0.0000    0.0000    0.0000    0.0000    0.0000    0.0000    0.00     0.0      0
2112 137535.000000   22.6861426609  113.7832683125     0.9980    1   10    0.0000    0.0000    0.0000    0.0000    0.0000    0.0000    0.00     0.0      0
2112 137536.000000   22.6861426696  113.7832683136     0.9990    1   10    0.0000    0.0000    0.0000    0.0000    0.0000    0.0000    0.00     0.0      0
2112 137537.000000   22.6861426776  113.7832683112     0.9990    1   10    0.0000    0.0000    0.0000    0.0000    0.0000    0.0000    0.00     0.0      0
2112 137538.000000   22.6861426873  113.7832683043     1.0000    1   10    0.0000    0.0000    0.0000    0.0000    0.0000    0.0000    0.00     0.0      0
2112 137539.000000   22.6861426990  113.7832682974     1.0010    1   10    0.0000    0.0000    0.0000    0.0000    0.0000    0.0000    0.00     0.0      0
2112 137540.000000   22.6861427123  113.7832682916     1.0020    1   10    0.0000    0.0000    0.0000    0.0000    0.0000    0.0000    0.00     0.0      0
2112 137541.000000   22.6861427215  113.7832682857     1.0020    1   10    0.0000    0.0000    0.0000    0.0000    0.0000    0.0000    0.00     0.0      0
2112 137542.000000   22.6861427263  113.7832682825     1.0020    1   10    0.0000    0.0000    0.0000    0.0000    0.0000    0.0000    0.00     0.0      0
2112 137543.000000   22.6861427282  113.7832682854     1.0020    1   10    0.0000    0.0000    0.0000    0.0000    0.0000    0.0000    0.00     0.0      0
2112 137544.000000   22.6861427296  113.7832682921     1.0020    1   10    0.0000    0.0000    0.0000    0.0000    0.0000    0.0000    0.00     0.0      0
2112 137545.000000   22.6861427288  113.7832683005     1.0020    1   10    0.0000    0.0000    0.0000    0.0000    0.0000    0.0000    0.00     0.0      0
2112 137546.000000   22.6861427187  113.7832688070     1.0010    1   10    0.0000    0.0000    0.0000    0.0000    0.0000    0.0000    0.00     0.0      0
2112 137547.000000   22.6861424784  113.7832755284     1.0020    1   10    0.0000    0.0000    0.0000    0.0000    0.0000    0.0000    0.00     0.0      0
2112 137548.000000   22.6861417401  113.7832996332     1.0110    1   10    0.0000    0.0000    0.0000    0.0000    0.0000    0.0000    0.00     0.0      0
2112 137549.000000   22.6861416778  113.7833357732     1.0260    1   10    0.0000    0.0000    0.0000    0.0000    0.0000    0.0000    0.00     0.0      0
2112 137550.000000   22.6861424390  113.7833725254     1.0380    1   10    0.0000    0.0000    0.0000    0.0000    0.0000    0.0000    0.00     0.0      0
2112 137551.000000   22.6861416611  113.7834091985     1.0460    1   10    0.0000    0.0000    0.0000    0.0000    0.0000    0.0000    0.00     0.0      0
2112 137552.000000   22.6861400173  113.7834397707     1.0570    1   10    0.0000    0.0000    0.0000    0.0000    0.0000    0.0000    0.00     0.0      0
2112 137553.000000   22.6861384347  113.7834627927     1.0660    1   10    0.0000    0.0000    0.0000    0.0000    0.0000    0.0000    0.00     0.0      0
2112 137554.000000   22.6861370042  113.7834812804     1.0770    1   10    0.0000    0.0000    0.0000    0.0000    0.0000    0.0000    0.00     0.0      0
2112 137555.000000   22.6861355558  113.7834982362     1.0880    1   10    0.0000    0.0000    0.0000    0.0000    0.0000    0.0000    0.00     0.0      0
2112 137556.000000   22.6861342798  113.7835136955     1.0960    1   10    0.0000    0.0000    0.0000    0.0000    0.0000    0.0000    0.00     0.0      0
2112 137557.000000   22.6861330081  113.7835294239     1.1070    1   10    0.0000    0.0000    0.0000    0.0000    0.0000    0.0000    0.00     0.0      0
2112 137558.000000   22.6861317241  113.7835456264     1.1160    1   10    0.0000    0.0000    0.0000    0.0000    0.0000    0.0000    0.00     0.0      0
2112 137559.000000   22.6861301748  113.7835647241     1.1290    1   10    0.0000    0.0000    0.0000    0.0000    0.0000    0.0000    0.00     0.0      0
2112 137560.000000   22.6861277611  113.7835948325     1.1480    1   10    0.0000    0.0000    0.0000    0.0000    0.0000    0.0000    0.00     0.0      0
2112 137561.000000   22.6861246059  113.7836332386     1.1800    1   10    0.0000    0.0000    0.0000    0.0000    0.0000    0.0000    0.00     0.0      0
2112 137562.000000   22.6861213123  113.7836762112     1.2250    1   10    0.0000    0.0000    0.0000    0.0000    0.0000    0.0000    0.00     0.0      0
2112 137563.000000   22.6861181698  113.7837206469     1.2990    1   10    0.0000    0.0000    0.0000    0.0000    0.0000    0.0000    0.00     0.0      0
2112 137564.000000   22.6861149544  113.7837678553     1.3540    1   10    0.0000    0.0000    0.0000    0.0000    0.0000    0.0000    0.00     0.0      0
2112 137565.000000   22.6861123013  113.7838131419     1.4060    1   10    0.0000    0.0000    0.0000    0.0000    0.0000    0.0000    0.00     0.0      0
2112 137566.000000   22.6861103051  113.7838543911     1.4680    1   10    0.0000    0.0000    0.0000    0.0000    0.0000    0.0000    0.00     0.0      0
2112 137567.000000   22.6861088321  113.7838915976     1.5180    1   10    0.0000    0.0000    0.0000    0.0000    0.0000    0.0000    0.00     0.0      0
2112 137568.000000   22.6861075274  113.7839309596     1.5360    1   10    0.0000    0.0000    0.0000    0.0000    0.0000    0.0000    0.00     0.0      0
2112 137569.000000   22.6861071394  113.7839701246     1.5380    1   10    0.0000    0.0000    0.0000    0.0000    0.0000    0.0000    0.00     0.0      0
2112 137570.000000   22.6861076070  113.7840062374     1.5130    1   10    0.0000    0.0000    0.0000    0.0000    0.0000    0.0000    0.00     0.0      0
2112 137571.000000   22.6861085353  113.7840394686     1.4780    1   10    0.0000    0.0000    0.0000    0.0000    0.0000    0.0000    0.00     0.0      0
2112 137572.000000   22.6861095731  113.7840706564     1.4460    1   10    0.0000    0.0000    0.0000    0.0000    0.0000    0.0000    0.00     0.0      0
2112 137573.000000   22.6861105908  113.7841024887     1.4150    1   10    0.0000    0.0000    0.0000    0.0000    0.0000    0.0000    0.00     0.0      0
2112 137574.000000   22.6861115113  113.7841356285     1.3750    1   10    0.0000    0.0000    0.0000    0.0000    0.0000    0.0000    0.00     0.0      0
2112 137575.000000   22.6861124400  113.7841670896     1.3140    1   10    0.0000    0.0000    0.0000    0.0000    0.0000    0.0000    0.00     0.0      0
2112 137576.000000   22.6861129879  113.7841965991     1.2760    1   10    0.0000    0.0000    0.0000    0.0000    0.0000    0.0000    0.00     0.0      0
2112 137577.000000   22.6861130176  113.7842242583     1.2690    1   10    0.0000    0.0000    0.0000    0.0000    0.0000    0.0000    0.00     0.0      0
2112 137578.000000   22.6861129337  113.7842507334     1.2770    1   10    0.0000    0.0000    0.0000    0.0000    0.0000    0.0000    0.00     0.0      0
2112 137579.000000   22.6861128628  113.7842783664     1.2680    1   10    0.0000    0.0000    0.0000    0.0000    0.0000    0.0000    0.00     0.0      0
2112 137580.000000   22.6861124679  113.7843126577     1.2240    1   10    0.0000    0.0000    0.0000    0.0000    0.0000    0.0000    0.00     0.0      0
2112 137581.000000   22.6861116850  113.7843557082     1.1140    1   10    0.0000    0.0000    0.0000    0.0000    0.0000    0.0000    0.00     0.0      0
2112 137582.000000   22.6861112557  113.7843994242     0.9900    1   10    0.0000    0.0000    0.0000    0.0000    0.0000    0.0000    0.00     0.0      0
2112 137583.000000   22.6861112802  113.7844436388     0.8980    1   10    0.0000    0.0000    0.0000    0.0000    0.0000    0.0000    0.00     0.0      0
2112 137584.000000   22.6861113783  113.7844879396     0.8190    1   10    0.0000    0.0000    0.0000    0.0000    0.0000    0.0000    0.00     0.0      0
2112 137585.000000   22.6861111862  113.7845315908     0.7660    1   10    0.0000    0.0000    0.0000    0.0000    0.0000    0.0000    0.00     0.0      0
2112 137586.000000   22.6861105490  113.7845731191     0.7240    1   10    0.0000    0.0000    0.0000    0.0000    0.0000    0.0000    0.00     0.0      0
2112 137587.000000   22.6861095899  113.7846167281     0.6890    1   10    0.0000    0.0000    0.0000    0.0000    0.0000    0.0000    0.00     0.0      0
2112 137588.000000   22.6861091488  113.7846602490     0.6650    1   10    0.0000    0.0000    0.0000    0.0000    0.0000    0.0000    0.00     0.0      0
2112 137589.000000   22.6861093098  113.7847020351     0.6530    1   10    0.0000    0.0000    0.0000    0.0000    0.0000    0.0000    0.00     0.0      0
2112 137590.000000   22.6861094558  113.7847409662     0.6470    1   10    0.0000    0.0000    0.0000    0.0000    0.0000    0.0000    0.00     0.0      0
2112 137591.000000   22.6861094277  113.7847791207     0.6450    1   10    0.0000    0.0000    0.0000    0.0000    0.0000    0.0000    0.00     0.0      0
2112 137592.000000   22.6861094358  113.7848189871     0.6470    1   10    0.0000    0.0000    0.0000    0.0000    0.0000    0.0000    0.00     0.0      0
2112 137593.000000   22.6861095594  113.7848589400     0.6520    1   10    0.0000    0.0000    0.0000    0.0000    0.0000    0.0000    0.00     0.0      0
2112 137594.000000   22.6861096886  113.7848989365     0.6630    1   10    0.0000    0.0000    0.0000    0.0000    0.0000    0.0000    0.00     0.0      0
2112 137595.000000   22.6861097845  113.7849369171     0.6740    1   10    0.0000    0.0000    0.0000    0.0000    0.0000    0.0000    0.00     0.0      0
2112 137596.000000   22.6861095940  113.7849774819     0.6860    1   10    0.0000    0.0000    0.0000    0.0000    0.0000    0.0000    0.00     0.0      0
2112 137597.000000   22.6861097976  113.7850224389     0.7060    1   10    0.0000    0.0000    0.0000    0.0000    0.0000    0.0000    0.00     0.0      0
2112 137598.000000   22.6861107730  113.7850650325     0.7240    1   10    0.0000    0.0000    0.0000    0.0000    0.0000    0.0000    0.00     0.0      0
2112 137599.000000   22.6861117430  113.7851118727     0.7480    1   10    0.0000    0.0000    0.0000    0.0000    0.0000    0.0000    0.00     0.0      0
2112 137600.000000   22.6861122953  113.7851738459     0.7700    1   10    0.0000    0.0000    0.0000    0.0000    0.0000    0.0000    0.00     0.0      0
2112 137601.000000   22.6861119344  113.7852491803     0.8130    1   10    0.0000    0.0000    0.0000    0.0000    0.0000    0.0000    0.00     0.0      0
2112 137602.000000   22.6861113798  113.7853251837     0.8750    1   10    0.0000    0.0000    0.0000    0.0000    0.0000    0.0000    0.00     0.0      0
2112 137603.000000   22.6861109641  113.7853969982     0.9810    1   10    0.0000    0.0000    0.0000    0.0000    0.0000    0.0000    0.00     0.0      0
2112 137604.000000   22.6861106218  113.7854617115     1.0260    1   10    0.0000    0.0000    0.0000    0.0000    0.0000    0.0000    0.00     0.0      0
2112 137605.000000   22.6861093266  113.7855190733     1.0120    1   10    0.0000    0.0000    0.0000    0.0000    0.0000    0.0000    0.00     0.0      0
2112 137606.000000   22.6861085107  113.7855708914     0.9960    1   10    0.0000    0.0000    0.0000    0.0000    0.0000    0.0000    0.00     0.0      0
2112 137607.000000   22.6861105171  113.7856209234     0.9760    1   10    0.0000    0.0000    0.0000    0.0000    0.0000    0.0000    0.00     0.0      0
2112 137608.000000   22.6861151926  113.7856612261     0.9570    1   10    0.0000    0.0000    0.0000    0.0000    0.0000    0.0000    0.00     0.0      0
2112 137609.000000   22.6861192950  113.7856841890     0.9460    1   10    0.0000    0.0000    0.0000    0.0000    0.0000    0.0000    0.00     0.0      0
2112 137610.000000   22.6861236167  113.7856994670     0.9360    1   10    0.0000    0.0000    0.0000    0.0000    0.0000    0.0000    0.00     0.0      0
2112 137611.000000   22.6861282137  113.7857132875     0.9250    1   10    0.0000    0.0000    0.0000    0.0000    0.0000    0.0000    0.00     0.0      0
2112 137612.000000   22.6861333753  113.7857317856     0.9150    1   10    0.0000    0.0000    0.0000    0.0000    0.0000    0.0000    0.00     0.0      0
2112 137613.000000   22.6861369949  113.7857557828     0.9020    1   10    0.0000    0.0000    0.0000    0.0000    0.0000    0.0000    0.00     0.0      0
2112 137614.000000   22.6861387865  113.7857806100     0.8950    1   10    0.0000    0.0000    0.0000    0.0000    0.0000    0.0000    0.00     0.0      0
2112 137615.000000   22.6861397931  113.7858098478     0.8880    1   10    0.0000    0.0000    0.0000    0.0000    0.0000    0.0000    0.00     0.0      0
2112 137616.000000   22.6861393872  113.7858508106     0.8860    1   10    0.0000    0.0000    0.0000    0.0000    0.0000    0.0000    0.00     0.0      0
2112 137617.000000   22.6861368779  113.7859011041     0.8990    1   10    0.0000    0.0000    0.0000    0.0000    0.0000    0.0000    0.00     0.0      0
2112 137618.000000   22.6861338132  113.7859550947     0.9230    1   10    0.0000    0.0000    0.0000    0.0000    0.0000    0.0000    0.00     0.0      0
2112 137619.000000   22.6861329074  113.7860119177     0.9530    1   10    0.0000    0.0000    0.0000    0.0000    0.0000    0.0000    0.00     0.0      0
2112 137620.000000   22.6861340231  113.7860714066     0.9790    1   10    0.0000    0.0000    0.0000    0.0000    0.0000    0.0000    0.00     0.0      0
2112 137621.000000   22.6861359158  113.7861307929     0.9830    1   10    0.0000    0.0000    0.0000    0.0000    0.0000    0.0000    0.00     0.0      0
2112 137622.000000   22.6861380997  113.7861928578     0.9810    1   10    0.0000    0.0000    0.0000    0.0000    0.0000    0.0000    0.00     0.0      0
2112 137623.000000   22.6861398563  113.7862553412     0.9790    1   10    0.0000    0.0000    0.0000    0.0000    0.0000    0.0000    0.00     0.0      0
2112 137624.000000   22.6861409086  113.7863164360     0.9950    1   10    0.0000    0.0000    0.0000    0.0000    0.0000    0.0000    0.00     0.0      0
2112 137625.000000   22.6861412152  113.7863762454     1.0140    1   10    0.0000    0.0000    0.0000    0.0000    0.0000    0.0000    0.00     0.0      0
2112 137626.000000   22.6861404149  113.7864379183     1.0400    1   10    0.0000    0.0000    0.0000    0.0000    0.0000    0.0000    0.00     0.0      0
2112 137627.000000   22.6861387103  113.7865009332     1.0800    1   10    0.0000    0.0000    0.0000    0.0000    0.0000    0.0000    0.00     0.0      0
2112 137628.000000   22.6861382918  113.7865635240     1.0940    1   10    0.0000    0.0000    0.0000    0.0000    0.0000    0.0000    0.00     0.0      0
2112 137629.000000   22.6861397428  113.7866275330     1.0820    1   10    0.0000    0.0000    0.0000    0.0000    0.0000    0.0000    0.00     0.0      0
2112 137630.000000   22.6861419861  113.7866952876     1.0720    1   10    0.0000    0.0000    0.0000    0.0000    0.0000    0.0000    0.00     0.0      0
2112 137631.000000   22.6861441155  113.7867659417     1.0750    1   10    0.0000    0.0000    0.0000    0.0000    0.0000    0.0000    0.00     0.0      0
2112 137632.000000   22.6861453882  113.7868379803     1.0860    1   10    0.0000    0.0000    0.0000    0.0000    0.0000    0.0000    0.00     0.0      0
2112 137633.000000   22.6861463253  113.7869101854     1.1030    1   10    0.0000    0.0000    0.0000    0.0000    0.0000    0.0000    0.00     0.0      0
2112 137634.000000   22.6861467541  113.7869820648     1.1110    1   10    0.0000    0.0000    0.0000    0.0000    0.0000    0.0000    0.00     0.0      0
2112 137635.000000   22.6861467837  113.7870533210     1.1370    1   10    0.0000    0.0000    0.0000    0.0000    0.0000    0.0000    0.00     0.0      0
2112 137636.000000   22.6861473167  113.7871230579     1.1690    1   10    0.0000    0.0000    0.0000    0.0000    0.0000    0.0000    0.00     0.0      0
2112 137637.000000   22.6861485706  113.7871898113     1.1870    1   10    0.0000    0.0000    0.0000    0.0000    0.0000    0.0000    0.00     0.0      0
2112 137638.000000   22.6861498760  113.7872509184     1.1930    1   10    0.0000    0.0000    0.0000    0.0000    0.0000    0.0000    0.00     0.0      0
2112 137639.000000   22.6861512904  113.7873058348     1.1860    1   10    0.0000    0.0000    0.0000    0.0000    0.0000    0.0000    0.00     0.0      0
2112 137640.000000   22.6861527521  113.7873535673     1.1880    1   10    0.0000    0.0000    0.0000    0.0000    0.0000    0.0000    0.00     0.0      0
2112 137641.000000   22.6861540440  113.7873926588     1.1970    1   10    0.0000    0.0000    0.0000    0.0000    0.0000    0.0000    0.00     0.0      0
2112 137642.000000   22.6861552643  113.7874257406     1.2030    1   10    0.0000    0.0000    0.0000    0.0000    0.0000    0.0000    0.00     0.0      0
2112 137643.000000   22.6861565448  113.7874551513     1.2040    1   10    0.0000    0.0000    0.0000    0.0000    0.0000    0.0000    0.00     0.0      0
2112 137644.000000   22.6861575359  113.7874806095     1.2010    1   10    0.0000    0.0000    0.0000    0.0000    0.0000    0.0000    0.00     0.0      0
2112 137645.000000   22.6861581401  113.7874990115     1.1970    1   10    0.0000    0.0000    0.0000    0.0000    0.0000    0.0000    0.00     0.0      0
2112 137646.000000   22.6861584270  113.7875070688     1.1960    1   10    0.0000    0.0000    0.0000    0.0000    0.0000    0.0000    0.00     0.0      0
2112 137647.000000   22.6861584984  113.7875097161     1.1970    1   10    0.0000    0.0000    0.0000    0.0000    0.0000    0.0000    0.00     0.0      0
2112 137648.000000   22.6861584760  113.7875097133     1.1990    1   10    0.0000    0.0000    0.0000    0.0000    0.0000    0.0000    0.00     0.0      0
2112 137649.000000   22.6861584555  113.7875097174     1.2010    1   10    0.0000    0.0000    0.0000    0.0000    0.0000    0.0000    0.00     0.0      0
2112 137650.000000   22.6861584441  113.7875097234     1.2030    1   10    0.0000    0.0000    0.0000    0.0000    0.0000    0.0000    0.00     0.0      0
2112 137651.000000   22.6861584405  113.7875097232     1.2030    1   10    0.0000    0.0000    0.0000    0.0000    0.0000    0.0000    0.00     0.0      0
2112 137652.000000   22.6861584431  113.7875097169     1.2030    1   10    0.0000    0.0000    0.0000    0.0000    0.0000    0.0000    0.00     0.0      0
2112 137653.000000   22.6861584461  113.7875097108     1.2020    1   10    0.0000    0.0000    0.0000    0.0000    0.0000    0.0000    0.00     0.0      0
2112 137654.000000   22.6861584413  113.7875097102     1.2020    1   10    0.0000    0.0000    0.0000    0.0000    0.0000    0.0000    0.00     0.0      0
2112 137655.000000   22.6861584354  113.7875097148     1.2000    1   10    0.0000    0.0000    0.0000    0.0000    0.0000    0.0000    0.00     0.0      0
2112 137656.000000   22.6861584328  113.7875097234     1.1990    1   10    0.0000    0.0000    0.0000    0.0000    0.0000    0.0000    0.00     0.0      0
2112 137657.000000   22.6861584298  113.7875097288     1.1970    1   10    0.0000    0.0000    0.0000    0.0000    0.0000    0.0000    0.00     0.0      0
2112 137658.000000   22.6861584343  113.7875097275     1.1960    1   10    0.0000    0.0000    0.0000    0.0000    0.0000    0.0000    0.00     0.0      0
2112 137659.000000   22.6861584371  113.7875097284     1.1950    1   10    0.0000    0.0000    0.0000    0.0000    0.0000    0.0000    0.00     0.0      0
2112 137660.000000   22.6861584359  113.7875097278     1.1950    1   10    0.0000    0.0000    0.0000    0.0000    0.0000    0.0000    0.00     0.0      0
2112 137661.000000   22.6861584329  113.7875097263     1.1960    1   10    0.0000    0.0000    0.0000    0.0000    0.0000    0.0000    0.00     0.0      0
2112 137662.000000   22.6861584332  113.7875097244     1.1980    1   10    0.0000    0.0000    0.0000    0.0000    0.0000    0.0000    0.00     0.0      0
2112 137663.000000   22.6861584349  113.7875097230     1.1980    1   10    0.0000    0.0000    0.0000    0.0000    0.0000    0.0000    0.00     0.0      0
2112 137664.000000   22.6861584418  113.7875097213     1.1980    1   10    0.0000    0.0000    0.0000    0.0000    0.0000    0.0000    0.00     0.0      0
2112 137665.000000   22.6861584489  113.7875097181     1.1970    1   10    0.0000    0.0000    0.0000    0.0000    0.0000    0.0000    0.00     0.0      0
2112 137666.000000   22.6861584511  113.7875097160     1.1960    1   10    0.0000    0.0000    0.0000    0.0000    0.0000    0.0000    0.00     0.0      0
2112 137667.000000   22.6861584469  113.7875097121     1.1960    1   10    0.0000    0.0000    0.0000    0.0000    0.0000    0.0000    0.00     0.0      0
2112 137668.000000   22.6861584396  113.7875097133     1.1950    1   10    0.0000    0.0000    0.0000    0.0000    0.0000    0.0000    0.00     0.0      0
2112 137669.000000   22.6861584268  113.7875097588     1.1930    1   10    0.0000    0.0000    0.0000    0.0000    0.0000    0.0000    0.00     0.0      0
2112 137670.000000   22.6861584528  113.7875110463     1.1910    1   10    0.0000    0.0000    0.0000    0.0000    0.0000    0.0000    0.00     0.0      0
2112 137671.000000   22.6861586803  113.7875191303     1.1910    1   10    0.0000    0.0000    0.0000    0.0000    0.0000    0.0000    0.00     0.0      0
2112 137672.000000   22.6861588628  113.7875252563     1.1850    1   10    0.0000    0.0000    0.0000    0.0000    0.0000    0.0000    0.00     0.0      0
2112 137673.000000   22.6861590593  113.7875310627     1.1850    1   10    0.0000    0.0000    0.0000    0.0000    0.0000    0.0000    0.00     0.0      0
2112 137674.000000   22.6861591640  113.7875339311     1.1840    1   10    0.0000    0.0000    0.0000    0.0000    0.0000    0.0000    0.00     0.0      0
2112 137675.000000   22.6861591785  113.7875343452     1.1840    1   10    0.0000    0.0000    0.0000    0.0000    0.0000    0.0000    0.00     0.0      0
2112 137676.000000   22.6861591882  113.7875343417     1.1850    1   10    0.0000    0.0000    0.0000    0.0000    0.0000    0.0000    0.00     0.0      0
2112 137677.000000   22.6861592057  113.7875343381     1.1870    1   10    0.0000    0.0000    0.0000    0.0000    0.0000    0.0000    0.00     0.0      0
2112 137678.000000   22.6861592276  113.7875343334     1.1900    1   10    0.0000    0.0000    0.0000    0.0000    0.0000    0.0000    0.00     0.0      0
2112 137679.000000   22.6861592417  113.7875343315     1.1930    1   10    0.0000    0.0000    0.0000    0.0000    0.0000    0.0000    0.00     0.0      0
2112 137680.000000   22.6861592452  113.7875343317     1.1950    1   10    0.0000    0.0000    0.0000    0.0000    0.0000    0.0000    0.00     0.0      0
2112 137681.000000   22.6861592476  113.7875343295     1.1970    1   10    0.0000    0.0000    0.0000    0.0000    0.0000    0.0000    0.00     0.0      0
2112 137682.000000   22.6861592446  113.7875343274     1.1980    1   10    0.0000    0.0000    0.0000    0.0000    0.0000    0.0000    0.00     0.0      0
2112 137683.000000   22.6861592453  113.7875343275     1.1980    1   10    0.0000    0.0000    0.0000    0.0000    0.0000    0.0000    0.00     0.0      0
2112 137684.000000   22.6861592501  113.7875343294     1.1990    1   10    0.0000    0.0000    0.0000    0.0000    0.0000    0.0000    0.00     0.0      0
2112 137685.000000   22.6861592546  113.7875343304     1.1990    1   10    0.0000    0.0000    0.0000    0.0000    0.0000    0.0000    0.00     0.0      0
2112 137686.000000   22.6861592560  113.7875343322     1.2000    1   10    0.0000    0.0000    0.0000    0.0000    0.0000    0.0000    0.00     0.0      0
2112 137687.000000   22.6861592588  113.7875343304     1.2010    1   10    0.0000    0.0000    0.0000    0.0000    0.0000    0.0000    0.00     0.0      0
2112 137688.000000   22.6861592600  113.7875343275     1.2030    1   10    0.0000    0.0000    0.0000    0.0000    0.0000    0.0000    0.00     0.0      0
2112 137689.000000   22.6861592593  113.7875343290     1.2040    1   10    0.0000    0.0000    0.0000    0.0000    0.0000    0.0000    0.00     0.0      0
2112 137690.000000   22.6861592569  113.7875343356     1.2050    1   10    0.0000    0.0000    0.0000    0.0000    0.0000    0.0000    0.00     0.0      0
2112 137691.000000   22.6861592504  113.7875343446     1.2050    1   10    0.0000    0.0000    0.0000    0.0000    0.0000    0.0000    0.00     0.0      0
2112 137692.000000   22.6861592391  113.7875343439     1.2050    1   10    0.0000    0.0000    0.0000    0.0000    0.0000    0.0000    0.00     0.0      0
2112 137693.000000   22.6861592322  113.7875343416     1.2030    1   10    0.0000    0.0000    0.0000    0.0000    0.0000    0.0000    0.00     0.0      0
2112 137694.000000   22.6861592289  113.7875343440     1.2010    1   10    0.0000    0.0000    0.0000    0.0000    0.0000    0.0000    0.00     0.0      0
2112 137695.000000   22.6861592230  113.7875343479     1.1980    1   10    0.0000    0.0000    0.0000    0.0000    0.0000    0.0000    0.00     0.0      0
2112 137696.000000   22.6861592108  113.7875343517     1.1960    1   10    0.0000    0.0000    0.0000    0.0000    0.0000    0.0000    0.00     0.0      0
2112 137697.000000   22.6861592043  113.7875343535     1.1940    1   10    0.0000    0.0000    0.0000    0.0000    0.0000    0.0000    0.00     0.0      0
2112 137698.000000   22.6861592055  113.7875343541     1.1940    1   10    0.0000    0.0000    0.0000    0.0000    0.0000    0.0000    0.00     0.0      0
2112 137699.000000   22.6861592114  113.7875343539     1.1960    1   10    0.0000    0.0000    0.0000    0.0000    0.0000    0.0000    0.00     0.0      0
2112 137700.000000   22.6861592229  113.7875343486     1.1990    1   10    0.0000    0.0000    0.0000    0.0000    0.0000    0.0000    0.00     0.0      0
2112 137701.000000   22.6861592359  113.7875343413     1.2030    1   10    0.0000    0.0000    0.0000    0.0000    0.0000    0.0000    0.00     0.0      0
2112 137702.000000   22.6861592418  113.7875343404     1.2050    1   10    0.0000    0.0000    0.0000    0.0000    0.0000    0.0000    0.00     0.0      0
2112 137703.000000   22.6861592392  113.7875343388     1.2070    1   10    0.0000    0.0000    0.0000    0.0000    0.0000    0.0000    0.00     0.0      0
2112 137704.000000   22.6861592364  113.7875343373     1.2080    1   10    0.0000    0.0000    0.0000    0.0000    0.0000    0.0000    0.00     0.0      0
2112 137705.000000   22.6861592306  113.7875343387     1.2070    1   10    0.0000    0.0000    0.0000    0.0000    0.0000    0.0000    0.00     0.0      0
2112 137706.000000   22.6861592312  113.7875343421     1.2080    1   10    0.0000    0.0000    0.0000    0.0000    0.0000    0.0000    0.00     0.0      0
2112 137707.000000   22.6861592488  113.7875343400     1.2080    1   10    0.0000    0.0000    0.0000    0.0000    0.0000    0.0000    0.00     0.0      0
2112 137708.000000   22.6861592664  113.7875343382     1.2090    1   10    0.0000    0.0000    0.0000    0.0000    0.0000    0.0000    0.00     0.0      0
2112 137709.000000   22.6861592771  113.7875343370     1.2080    1   10    0.0000    0.0000    0.0000    0.0000    0.0000    0.0000    0.00     0.0      0
2112 137710.000000   22.6861592833  113.7875343433     1.2070    1   10    0.0000    0.0000    0.0000    0.0000    0.0000    0.0000    0.00     0.0      0
2112 137711.000000   22.6861592891  113.7875344075     1.2040    1   10    0.0000    0.0000    0.0000    0.0000    0.0000    0.0000    0.00     0.0      0
2112 137712.000000   22.6861593345  113.7875360119     1.1980    1   10    0.0000    0.0000    0.0000    0.0000    0.0000    0.0000    0.00     0.0      0
2112 137713.000000   22.6861596223  113.7875448037     1.1970    1   10    0.0000    0.0000    0.0000    0.0000    0.0000    0.0000    0.00     0.0      0
2112 137714.000000   22.6861599780  113.7875557328     1.1920    1   10    0.0000    0.0000    0.0000    0.0000    0.0000    0.0000    0.00     0.0      0
2112 137715.000000   22.6861604276  113.7875700068     1.1880    1   10    0.0000    0.0000    0.0000    0.0000    0.0000    0.0000    0.00     0.0      0
2112 137716.000000   22.6861610328  113.7875867314     1.1900    1   10    0.0000    0.0000    0.0000    0.0000    0.0000    0.0000    0.00     0.0      0
2112 137717.000000   22.6861617387  113.7876079488     1.1960    1   10    0.0000    0.0000    0.0000    0.0000    0.0000    0.0000    0.00     0.0      0
2112 137718.000000   22.6861625780  113.7876332627     1.2060    1   10    0.0000    0.0000    0.0000    0.0000    0.0000    0.0000    0.00     0.0      0
2112 137719.000000   22.6861634010  113.7876649420     1.2260    1   10    0.0000    0.0000    0.0000    0.0000    0.0000    0.0000    0.00     0.0      0
2112 137720.000000   22.6861643614  113.7876971971     1.2430    1   10    0.0000    0.0000    0.0000    0.0000    0.0000    0.0000    0.00     0.0      0
2112 137721.000000   22.6861648980  113.7877309037     1.2150    1   10    0.0000    0.0000    0.0000    0.0000    0.0000    0.0000    0.00     0.0      0
2112 137722.000000   22.6861655941  113.7877726384     1.1970    1   10    0.0000    0.0000    0.0000    0.0000    0.0000    0.0000    0.00     0.0      0
2112 137723.000000   22.6861661559  113.7878140993     1.1940    1   10    0.0000    0.0000    0.0000    0.0000    0.0000    0.0000    0.00     0.0      0
2112 137724.000000   22.6861666356  113.7878518221     1.2060    1   10    0.0000    0.0000    0.0000    0.0000    0.0000    0.0000    0.00     0.0      0
2112 137725.000000   22.6861672644  113.7878881447     1.2230    1   10    0.0000    0.0000    0.0000    0.0000    0.0000    0.0000    0.00     0.0      0
2112 137726.000000   22.6861683861  113.7879330830     1.2690    1   10    0.0000    0.0000    0.0000    0.0000    0.0000    0.0000    0.00     0.0      0
2112 137727.000000   22.6861659629  113.7879801213     1.2590    1   10    0.0000    0.0000    0.0000    0.0000    0.0000    0.0000    0.00     0.0      0
2112 137728.000000   22.6861582489  113.7880320800     1.2370    1   10    0.0000    0.0000    0.0000    0.0000    0.0000    0.0000    0.00     0.0      0
2112 137729.000000   22.6861448259  113.7880939522     1.2280    1   10    0.0000    0.0000    0.0000    0.0000    0.0000    0.0000    0.00     0.0      0
2112 137730.000000   22.6861319802  113.7881593707     1.2580    1   10    0.0000    0.0000    0.0000    0.0000    0.0000    0.0000    0.00     0.0      0
2112 137731.000000   22.6861270552  113.7882299652     1.2950    1   10    0.0000    0.0000    0.0000    0.0000    0.0000    0.0000    0.00     0.0      0
2112 137732.000000   22.6861265492  113.7883079231     1.3590    1   10    0.0000    0.0000    0.0000    0.0000    0.0000    0.0000    0.00     0.0      0
2112 137733.000000   22.6861274081  113.7883940703     1.4010    1   10    0.0000    0.0000    0.0000    0.0000    0.0000    0.0000    0.00     0.0      0
2112 137734.000000   22.6861277797  113.7884856746     1.4110    1   10    0.0000    0.0000    0.0000    0.0000    0.0000    0.0000    0.00     0.0      0
2112 137735.000000   22.6861294304  113.7885769496     1.3880    1   10    0.0000    0.0000    0.0000    0.0000    0.0000    0.0000    0.00     0.0      0
2112 137736.000000   22.6861336972  113.7886696647     1.3980    1   10    0.0000    0.0000    0.0000    0.0000    0.0000    0.0000    0.00     0.0      0
2112 137737.000000   22.6861403038  113.7887658580     1.4250    1   10    0.0000    0.0000    0.0000    0.0000    0.0000    0.0000    0.00     0.0      0
2112 137738.000000   22.6861476437  113.7888626494     1.4460    1   10    0.0000    0.0000    0.0000    0.0000    0.0000    0.0000    0.00     0.0      0
2112 137739.000000   22.6861531330  113.7889582600     1.5430    1   10    0.0000    0.0000    0.0000    0.0000    0.0000    0.0000    0.00     0.0      0
2112 137740.000000   22.6861548520  113.7890519838     1.5920    1   10    0.0000    0.0000    0.0000    0.0000    0.0000    0.0000    0.00     0.0      0
2112 137741.000000   22.6861559248  113.7891463902     1.6340    1   10    0.0000    0.0000    0.0000    0.0000    0.0000    0.0000    0.00     0.0      0
2112 137742.000000   22.6861570858  113.7892448476     1.6480    1   10    0.0000    0.0000    0.0000    0.0000    0.0000    0.0000    0.00     0.0      0
2112 137743.000000   22.6861583708  113.7893439058     1.6570    1   10    0.0000    0.0000    0.0000    0.0000    0.0000    0.0000    0.00     0.0      0
2112 137744.000000   22.6861594853  113.7894430779     1.6430    1   10    0.0000    0.0000    0.0000    0.0000    0.0000    0.0000    0.00     0.0      0
2112 137745.000000   22.6861608585  113.7895424394     1.6300    1   10    0.0000    0.0000    0.0000    0.0000    0.0000    0.0000    0.00     0.0      0
2112 137746.000000   22.6861619737  113.7896414757     1.5910    1   10    0.0000    0.0000    0.0000    0.0000    0.0000    0.0000    0.00     0.0      0
2112 137747.000000   22.6861632316  113.7897406323     1.5300    1   10    0.0000    0.0000    0.0000    0.0000    0.0000    0.0000    0.00     0.0      0
2112 137748.000000   22.6861646807  113.7898409751     1.4840    1   10    0.0000    0.0000    0.0000    0.0000    0.0000    0.0000    0.00     0.0      0
2112 137749.000000   22.6861661728  113.7899407902     1.4400    1   10    0.0000    0.0000    0.0000    0.0000    0.0000    0.0000    0.00     0.0      0
2112 137750.000000   22.6861679766  113.7900418321     1.3980    1   10    0.0000    0.0000    0.0000    0.0000    0.0000    0.0000    0.00     0.0      0
2112 137751.000000   22.6861694519  113.7901439312     1.3710    1   10    0.0000    0.0000    0.0000    0.0000    0.0000    0.0000    0.00     0.0      0
2112 137752.000000   22.6861704818  113.7902436629     1.3320    1   10    0.0000    0.0000    0.0000    0.0000    0.0000    0.0000    0.00     0.0      0
2112 137753.000000   22.6861715593  113.7903413766     1.2870    1   10    0.0000    0.0000    0.0000    0.0000    0.0000    0.0000    0.00     0.0      0
2112 137754.000000   22.6861728648  113.7904424475     1.2370    1   10    0.0000    0.0000    0.0000    0.0000    0.0000    0.0000    0.00     0.0      0
2112 137755.000000   22.6861742711  113.7905471132     1.1770    1   10    0.0000    0.0000    0.0000    0.0000    0.0000    0.0000    0.00     0.0      0
2112 137756.000000   22.6861756071  113.7906516256     1.1300    1   10    0.0000    0.0000    0.0000    0.0000    0.0000    0.0000    0.00     0.0      0
2112 137757.000000   22.6861770300  113.7907554621     1.1040    1   10    0.0000    0.0000    0.0000    0.0000    0.0000    0.0000    0.00     0.0      0
2112 137758.000000   22.6861781432  113.7908578665     1.0780    1   10    0.0000    0.0000    0.0000    0.0000    0.0000    0.0000    0.00     0.0      0
2112 137759.000000   22.6861793092  113.7909588406     1.0560    1   10    0.0000    0.0000    0.0000    0.0000    0.0000    0.0000    0.00     0.0      0
2112 137760.000000   22.6861805001  113.7910576991     1.0120    1   10    0.0000    0.0000    0.0000    0.0000    0.0000    0.0000    0.00     0.0      0
2112 137761.000000   22.6861815500  113.7911540746     0.8770    1   10    0.0000    0.0000    0.0000    0.0000    0.0000    0.0000    0.00     0.0      0
2112 137762.000000   22.6861831678  113.7912465975     0.8740    1   10    0.0000    0.0000    0.0000    0.0000    0.0000    0.0000    0.00     0.0      0
2112 137763.000000   22.6861878721  113.7913343728     0.8720    1   10    0.0000    0.0000    0.0000    0.0000    0.0000    0.0000    0.00     0.0      0
2112 137764.000000   22.6861945577  113.7914163825     0.8750    1   10    0.0000    0.0000    0.0000    0.0000    0.0000    0.0000    0.00     0.0      0
2112 137765.000000   22.6862001707  113.7914886078     0.8760    1   10    0.0000    0.0000    0.0000    0.0000    0.0000    0.0000    0.00     0.0      0
