% program   : RTKPOST
% ref pos   :  -2286267.8082   5003460.9063   3217166.0718
% (x/y/z-ecef=WGS84,Q=1:fix,2:float,3:sbas,4:dgps,5:single,6:ppp,ns=# of satellites)
%  GPST                      x-ecef(m)      y-ecef(m)      z-ecef(m)   Q  ns   sdx(m)   sdy(m)   sdz(m)  sdxy(m)  sdyz(m)  sdzx(m) age(s)  ratio  fixn
2020/07/03 05:08:35.000  -2286274.4751   5003418.1270   3217134.9600   1  14   0.0098   0.0088   0.0085  -0.0089   0.0082  -0.0087   0.00   12.0    12
2020/07/03 05:08:36.000  -2286274.4749   5003418.1277   3217134.9612   1  14   0.0091   0.0079   0.0079  -0.0081   0.0075  -0.0080   0.00   12.5    12
2020/07/03 05:08:37.000  -2286274.4785   5003418.1314   3217134.9640   1  14   0.0098   0.0088   0.0085  -0.0089   0.0082  -0.0087   0.00   12.8    12
2020/07/03 05:08:38.000  -2286274.4768   5003418.1287   3217134.9622   1  14   0.0098   0.0088   0.0085  -0.0089   0.0082  -0.0087   0.00   12.5    12
2020/07/03 05:08:39.000  -2286274.4802   5003418.1349   3217134.9648   1  14   0.0094   0.0083   0.0082  -0.0084   0.0078  -0.0083   0.00   12.6    12
2020/07/03 05:08:40.000  -2286274.4739   5003418.1272   3217134.9607   1  14   0.0090   0.0077   0.0078  -0.0079   0.0073  -0.0079   0.00   12.8    12
2020/07/03 05:08:41.000  -2286274.4770   5003418.1308   3217134.9624   1  14   0.0098   0.0088   0.0085  -0.0089   0.0082  -0.0087   0.00   12.7    12
2020/07/03 05:08:42.000  -2286274.4767   5003418.1300   3217134.9624   1  14   0.0094   0.0083   0.0082  -0.0084   0.0077  -0.0083   0.00   12.9    12
2020/07/03 05:08:43.000  -2286274.4764   5003418.1292   3217134.9607   1  14   0.0090   0.0077   0.0078  -0.0079   0.0073  -0.0079   0.00   12.7    12
2020/07/03 05:08:44.000  -2286274.4751   5003418.1284   3217134.9618   1  14   0.0098   0.0088   0.0085  -0.0089   0.0082  -0.0087   0.00   12.7    12
2020/07/03 05:08:45.000  -2286274.4785   5003418.1339   3217134.9627   1  14   0.0098   0.0088   0.0085  -0.0089   0.0082  -0.0087   0.00   12.9    12
2020/07/03 05:08:46.000  -2286274.4784   5003418.1336   3217134.9632   1  14   0.0094   0.0083   0.0082  -0.0084   0.0077  -0.0083   0.00   13.0    12
2020/07/03 05:08:47.000  -2286274.4756   5003418.1287   3217134.9611   1  14   0.0090   0.0077   0.0078  -0.0079   0.0073  -0.0079   0.00   13.1    12
2020/07/03 05:08:48.000  -2286274.4863   5003418.1398   3217134.9693   1  14   0.0088   0.0075   0.0076  -0.0077   0.0071  -0.0077   0.00   13.4    12
2020/07/03 05:08:49.000  -2286274.4767   5003418.1326   3217134.9653   1  14   0.0087   0.0074   0.0076  -0.0076   0.0070  -0.0076   0.00   13.6    12
2020/07/03 05:08:50.000  -2286274.4773   5003418.1329   3217134.9649   1  14   0.0086   0.0073   0.0075  -0.0075   0.0069  -0.0075   0.00   13.7    12
2020/07/03 05:08:51.000  -2286274.4762   5003418.1297   3217134.9620   1  14   0.0086   0.0073   0.0075  -0.0075   0.0069  -0.0075   0.00   13.9    12
2020/07/03 05:08:52.000  -2286274.4749   5003418.1303   3217134.9612   1  14   0.0086   0.0072   0.0075  -0.0074   0.0068  -0.0075   0.00   13.9    12
2020/07/03 05:08:53.000  -2286274.4770   5003418.1312   3217134.9618   1  14   0.0085   0.0072   0.0074  -0.0074   0.0068  -0.0074   0.00   13.9    12
2020/07/03 05:08:54.000  -2286274.4764   5003418.1340   3217134.9640   1  14   0.0085   0.0072   0.0074  -0.0074   0.0068  -0.0074   0.00   14.1    12
2020/07/03 05:08:55.000  -2286274.4796   5003418.1338   3217134.9663   1  14   0.0085   0.0071   0.0074  -0.0074   0.0068  -0.0074   0.00   14.1    12
2020/07/03 05:08:56.000  -2286274.4759   5003418.1313   3217134.9604   1  14   0.0085   0.0071   0.0074  -0.0073   0.0068  -0.0074   0.00   14.3    12
2020/07/03 05:08:57.000  -2286274.4751   5003418.1311   3217134.9611   1  14   0.0085   0.0071   0.0074  -0.0073   0.0067  -0.0074   0.00   14.3    12
2020/07/03 05:08:58.000  -2286274.4773   5003418.1340   3217134.9637   1  14   0.0085   0.0071   0.0074  -0.0073   0.0067  -0.0074   0.00   14.4    12
2020/07/03 05:08:59.000  -2286274.4774   5003418.1321   3217134.9625   1  14   0.0084   0.0071   0.0074  -0.0073   0.0067  -0.0074   0.00   14.5    12
2020/07/03 05:09:00.000  -2286274.4821   5003418.1393   3217134.9682   1  14   0.0084   0.0071   0.0074  -0.0073   0.0067  -0.0074   0.00   14.5    12
2020/07/03 05:09:01.000  -2286274.4779   5003418.1349   3217134.9659   1  14   0.0084   0.0071   0.0073  -0.0073   0.0067  -0.0074   0.00   14.6    12
2020/07/03 05:09:02.000  -2286274.4825   5003418.1360   3217134.9675   1  14   0.0084   0.0071   0.0073  -0.0073   0.0067  -0.0073   0.00   14.6    12
2020/07/03 05:09:03.000  -2286274.4739   5003418.1311   3217134.9633   1  14   0.0084   0.0071   0.0073  -0.0073   0.0067  -0.0073   0.00   14.7    12
2020/07/03 05:09:04.000  -2286274.4700   5003418.1262   3217134.9578   1  14   0.0084   0.0071   0.0073  -0.0073   0.0067  -0.0073   0.00   14.8    12
2020/07/03 05:09:05.000  -2286274.4821   5003418.1370   3217134.9670   1  14   0.0098   0.0088   0.0085  -0.0089   0.0082  -0.0087   0.00   14.9    12
2020/07/03 05:09:06.000  -2286274.4774   5003418.1351   3217134.9640   1  14   0.0098   0.0088   0.0085  -0.0089   0.0082  -0.0087   0.00   14.9    12
2020/07/03 05:09:07.000  -2286274.4757   5003418.1302   3217134.9627   1  14   0.0098   0.0088   0.0085  -0.0089   0.0082  -0.0087   0.00   14.9    12
2020/07/03 05:09:08.000  -2286274.4765   5003418.1328   3217134.9643   1  14   0.0098   0.0088   0.0085  -0.0089   0.0082  -0.0087   0.00   15.0    12
2020/07/03 05:09:09.000  -2286274.4774   5003418.1326   3217134.9636   1  14   0.0098   0.0088   0.0085  -0.0089   0.0082  -0.0087   0.00   15.2    12
2020/07/03 05:09:10.000  -2286274.4776   5003418.1351   3217134.9663   1  14   0.0098   0.0088   0.0085  -0.0089   0.0082  -0.0087   0.00   15.4    12
2020/07/03 05:09:11.000  -2286274.4774   5003418.1345   3217134.9658   1  14   0.0094   0.0082   0.0081  -0.0084   0.0077  -0.0083   0.00   15.5    12
2020/07/03 05:09:12.000  -2286274.4752   5003418.1322   3217134.9621   1  14   0.0090   0.0077   0.0078  -0.0079   0.0073  -0.0078   0.00   15.6    12
2020/07/03 05:09:13.000  -2286274.4757   5003418.1327   3217134.9646   1  14   0.0098   0.0088   0.0085  -0.0089   0.0082  -0.0087   0.00   15.8    12
2020/07/03 05:09:14.000  -2286274.4754   5003418.1321   3217134.9639   1  14   0.0094   0.0082   0.0081  -0.0084   0.0077  -0.0083   0.00   15.9    12
2020/07/03 05:09:15.000  -2286274.4767   5003418.1332   3217134.9660   1  14   0.0090   0.0077   0.0078  -0.0079   0.0073  -0.0078   0.00   16.1    12
2020/07/03 05:09:16.000  -2286274.4786   5003418.1343   3217134.9647   1  14   0.0088   0.0075   0.0076  -0.0077   0.0071  -0.0077   0.00   16.3    12
2020/07/03 05:09:17.000  -2286274.4752   5003418.1314   3217134.9642   1  14   0.0087   0.0074   0.0075  -0.0076   0.0070  -0.0076   0.00   16.4    12
2020/07/03 05:09:18.000  -2286274.4747   5003418.1299   3217134.9638   1  14   0.0086   0.0073   0.0075  -0.0075   0.0069  -0.0075   0.00   16.6    12
2020/07/03 05:09:19.000  -2286274.4709   5003418.1276   3217134.9601   1  14   0.0086   0.0072   0.0074  -0.0075   0.0068  -0.0075   0.00   16.8    12
2020/07/03 05:09:20.000  -2286274.4724   5003418.1269   3217134.9590   1  14   0.0085   0.0072   0.0074  -0.0074   0.0068  -0.0074   0.00   16.9    12
2020/07/03 05:09:21.000  -2286274.4748   5003418.1322   3217134.9615   1  14   0.0085   0.0072   0.0074  -0.0074   0.0068  -0.0074   0.00   16.9    12
2020/07/03 05:09:22.000  -2286274.4796   5003418.1360   3217134.9666   1  14   0.0085   0.0072   0.0074  -0.0074   0.0068  -0.0074   0.00   17.0    12
2020/07/03 05:09:23.000  -2286274.4717   5003418.1301   3217134.9619   1  14   0.0085   0.0071   0.0074  -0.0073   0.0067  -0.0074   0.00   17.0    12
2020/07/03 05:09:24.000  -2286274.4741   5003418.1322   3217134.9637   1  14   0.0085   0.0071   0.0073  -0.0073   0.0067  -0.0074   0.00   17.1    12
2020/07/03 05:09:25.000  -2286274.4726   5003418.1298   3217134.9616   1  14   0.0085   0.0071   0.0073  -0.0073   0.0067  -0.0074   0.00   17.2    12
2020/07/03 05:09:26.000  -2286274.4723   5003418.1272   3217134.9604   1  14   0.0084   0.0071   0.0073  -0.0073   0.0067  -0.0073   0.00   17.3    12
2020/07/03 05:09:27.000  -2286274.4766   5003418.1306   3217134.9623   1  14   0.0084   0.0071   0.0073  -0.0073   0.0067  -0.0073   0.00   17.5    12
2020/07/03 05:09:28.000  -2286274.4673   5003418.1242   3217134.9581   1  14   0.0098   0.0087   0.0084  -0.0089   0.0081  -0.0086   0.00   17.6    12
2020/07/03 05:09:29.000  -2286274.4709   5003418.1290   3217134.9595   1  14   0.0094   0.0082   0.0081  -0.0084   0.0077  -0.0082   0.00   17.7    12
2020/07/03 05:09:30.000  -2286274.4686   5003418.1249   3217134.9576   1  14   0.0089   0.0077   0.0077  -0.0079   0.0072  -0.0078   0.00   17.9    12
2020/07/03 05:09:31.000  -2286274.4682   5003418.1256   3217134.9583   1  14   0.0088   0.0075   0.0076  -0.0077   0.0071  -0.0077   0.00   18.0    12
2020/07/03 05:09:32.000  -2286274.4743   5003418.1302   3217134.9628   1  14   0.0087   0.0074   0.0075  -0.0076   0.0069  -0.0076   0.00   18.1    12
2020/07/03 05:09:33.000  -2286274.4741   5003418.1298   3217134.9620   1  14   0.0086   0.0073   0.0075  -0.0075   0.0069  -0.0075   0.00   18.2    12
2020/07/03 05:09:34.000  -2286274.4675   5003418.1247   3217134.9582   1  14   0.0086   0.0072   0.0074  -0.0074   0.0068  -0.0075   0.00   18.4    12
2020/07/03 05:09:35.000  -2286274.4678   5003418.1242   3217134.9577   1  14   0.0085   0.0072   0.0074  -0.0074   0.0068  -0.0074   0.00   18.5    12
2020/07/03 05:09:36.000  -2286274.4694   5003418.1237   3217134.9586   1  14   0.0098   0.0087   0.0084  -0.0089   0.0081  -0.0086   0.00   18.7    12
2020/07/03 05:09:37.000  -2286274.4699   5003418.1252   3217134.9596   1  14   0.0094   0.0082   0.0081  -0.0084   0.0077  -0.0082   0.00   18.8    12
2020/07/03 05:09:38.000  -2286274.4736   5003418.1273   3217134.9597   1  14   0.0089   0.0077   0.0077  -0.0079   0.0072  -0.0078   0.00   18.9    12
2020/07/03 05:09:39.000  -2286274.4706   5003418.1274   3217134.9614   1  14   0.0088   0.0075   0.0076  -0.0077   0.0070  -0.0076   0.00   19.1    12
2020/07/03 05:09:40.000  -2286274.4741   5003418.1302   3217134.9625   1  14   0.0087   0.0074   0.0075  -0.0076   0.0069  -0.0075   0.00   19.3    12
2020/07/03 05:09:41.000  -2286274.4675   5003418.1229   3217134.9572   1  14   0.0086   0.0073   0.0074  -0.0075   0.0069  -0.0075   0.00   19.5    12
2020/07/03 05:09:42.000  -2286274.4678   5003418.1233   3217134.9578   1  14   0.0086   0.0072   0.0074  -0.0074   0.0068  -0.0074   0.00   19.7    12
2020/07/03 05:09:43.000  -2286274.4738   5003418.1286   3217134.9626   1  14   0.0085   0.0072   0.0074  -0.0074   0.0068  -0.0074   0.00   19.9    12
2020/07/03 05:09:44.000  -2286274.4730   5003418.1268   3217134.9628   1  14   0.0085   0.0072   0.0074  -0.0074   0.0068  -0.0074   0.00   20.0    12
2020/07/03 05:09:45.000  -2286274.4713   5003418.1248   3217134.9604   1  14   0.0085   0.0071   0.0073  -0.0074   0.0067  -0.0074   0.00   20.1    12
2020/07/03 05:09:46.000  -2286274.4729   5003418.1270   3217134.9616   1  14   0.0098   0.0087   0.0084  -0.0089   0.0081  -0.0086   0.00   20.3    12
2020/07/03 05:09:47.000  -2286274.4686   5003418.1240   3217134.9576   1  14   0.0098   0.0087   0.0084  -0.0089   0.0081  -0.0086   0.00   20.5    12
2020/07/03 05:09:48.000  -2286274.4673   5003418.1220   3217134.9578   1  14   0.0094   0.0082   0.0080  -0.0084   0.0077  -0.0082   0.00   20.7    12
2020/07/03 05:09:49.000  -2286274.4690   5003418.1234   3217134.9593   1  13   0.0098   0.0087   0.0084  -0.0089   0.0081  -0.0086   0.00   20.8    12
2020/07/03 05:09:50.000  -2286274.4670   5003418.1245   3217134.9566   1  14   0.0098   0.0087   0.0084  -0.0089   0.0081  -0.0086   0.00   21.0    12
2020/07/03 05:09:51.000  -2286274.4651   5003418.1154   3217134.9721   1  14   0.0091   0.0079   0.0078  -0.0081   0.0074  -0.0079   0.00   21.2    12
2020/07/03 05:09:52.000  -2286274.4091   5003418.0068   3217135.1696   1  14   0.0088   0.0076   0.0076  -0.0078   0.0071  -0.0077   0.00   21.5    12
2020/07/03 05:09:53.000  -2286274.2348   5003417.6510   3217135.8367   1  14   0.0098   0.0087   0.0084  -0.0089   0.0081  -0.0086   0.00   21.5    12
2020/07/03 05:09:54.000  -2286273.9719   5003417.0483   3217136.9251   1  14   0.0098   0.0087   0.0084  -0.0089   0.0081  -0.0086   0.00   21.4    12
2020/07/03 05:09:55.000  -2286273.7525   5003416.3234   3217138.2271   1  14   0.0101   0.0097   0.0087  -0.0094   0.0087  -0.0089   0.00   22.3    11
2020/07/03 05:09:56.000  -2286273.6341   5003415.5044   3217139.6499   1  14   0.0099   0.0092   0.0085  -0.0091   0.0084  -0.0088   0.00   22.3    11
2020/07/03 05:09:57.000  -2286273.5663   5003414.6261   3217141.0512   1  14   0.0092   0.0082   0.0079  -0.0083   0.0076  -0.0080   0.00    2.2    12
2020/07/03 05:09:58.000  -2286273.6439   5003413.7828   3217142.3666   1  13   0.0089   0.0079   0.0077  -0.0079   0.0073  -0.0078   0.00    2.6    12
2020/07/03 05:09:59.000  -2286273.7004   5003412.9790   3217143.5601   1  13   0.0088   0.0077   0.0076  -0.0077   0.0071  -0.0076   0.00    3.1    12
2020/07/03 05:10:00.000  -2286273.8878   5003412.1750   3217144.7232   1  13   0.0087   0.0075   0.0075  -0.0076   0.0070  -0.0076   0.00    3.5    12
2020/07/03 05:10:01.000  -2286274.1727   5003411.2004   3217146.0506   1  14   0.0086   0.0074   0.0074  -0.0076   0.0069  -0.0075   0.00    4.0    12
2020/07/03 05:10:02.000  -2286274.7712   5003410.0020   3217147.4879   1  13   0.0098   0.0087   0.0084  -0.0088   0.0081  -0.0086   0.00    4.4    12
2020/07/03 05:10:03.000  -2286275.7974   5003408.7814   3217148.7317   1  13   0.0098   0.0087   0.0084  -0.0088   0.0081  -0.0086   0.00    4.8    12
2020/07/03 05:10:04.000  -2286277.1127   5003407.6529   3217149.6132   1  13   0.0090   0.0084   0.0079  -0.0083   0.0077  -0.0079   0.00    2.1    13
2020/07/03 05:10:05.000  -2286278.5177   5003406.7249   3217150.1710   1  12   0.0087   0.0084   0.0079  -0.0081   0.0077  -0.0078   0.00    2.9    12
2020/07/03 05:10:06.000  -2286279.6712   5003406.0560   3217150.5088   1  13   0.0098   0.0090   0.0086  -0.0090   0.0084  -0.0087   0.00    6.7    11
2020/07/03 05:10:07.000  -2286280.2214   5003405.7256   3217150.6553   1  14   0.0086   0.0082   0.0077  -0.0079   0.0074  -0.0076   0.00    2.5    12
2020/07/03 05:10:08.000  -2286280.6889   5003405.4468   3217150.7583   1  14   0.0081   0.0079   0.0073  -0.0076   0.0071  -0.0072   0.00    2.2    13
2020/07/03 05:10:09.000  -2286281.7569   5003404.8688   3217150.9664   1  14   0.0078   0.0077   0.0071  -0.0074   0.0069  -0.0069   0.00    2.6    13
2020/07/03 05:10:10.000  -2286283.4868   5003404.0086   3217151.1905   1  13   0.0077   0.0078   0.0073  -0.0074   0.0071  -0.0069   0.00    4.8    12
2020/07/03 05:10:11.000  -2286285.8117   5003402.8489   3217151.4902   1  13   0.0076   0.0078   0.0072  -0.0073   0.0070  -0.0068   0.00    5.6    12
2020/07/03 05:10:12.000  -2286288.1190   5003401.5819   3217151.9447   1  14   0.0071   0.0075   0.0069  -0.0069   0.0067  -0.0064   0.00    6.3    12
2020/07/03 05:10:13.000  -2286290.2531   5003400.2920   3217152.5630   1  14   0.0071   0.0074   0.0067  -0.0068   0.0065  -0.0063   0.00    7.1    12
2020/07/03 05:10:14.000  -2286292.6017   5003398.6054   3217153.5570   1  14   0.0071   0.0073   0.0067  -0.0068   0.0065  -0.0063   0.00    2.1    13
2020/07/03 05:10:15.000  -2286294.9862   5003396.4813   3217155.0787   1  14   0.0071   0.0073   0.0067  -0.0068   0.0064  -0.0063   0.00    2.5    13
2020/07/03 05:10:16.000  -2286297.1626   5003394.0800   3217157.4082   1  14   0.0071   0.0073   0.0066  -0.0068   0.0064  -0.0063   0.00    2.9    13
2020/07/03 05:10:17.000  -2286298.8183   5003391.5336   3217160.3641   1  14   0.0071   0.0073   0.0066  -0.0068   0.0064  -0.0063   0.00    3.3    13
2020/07/03 05:10:18.000  -2286299.6937   5003388.9874   3217163.7883   1  14   0.0071   0.0073   0.0066  -0.0067   0.0064  -0.0063   0.00    3.6    13
2020/07/03 05:10:19.000  -2286299.8272   5003386.5575   3217167.5733   1  14   0.0070   0.0072   0.0066  -0.0067   0.0063  -0.0062   0.00    4.0    13
2020/07/03 05:10:20.000  -2286299.5566   5003384.1439   3217171.6128   1  14   0.0070   0.0072   0.0066  -0.0067   0.0063  -0.0062   0.00    4.3    13
2020/07/03 05:10:21.000  -2286299.0965   5003381.7884   3217175.7619   1  14   0.0070   0.0072   0.0066  -0.0067   0.0063  -0.0062   0.00    4.6    13
2020/07/03 05:10:22.000  -2286298.4969   5003379.5930   3217179.6906   1  14   0.0070   0.0072   0.0066  -0.0067   0.0063  -0.0062   0.00    5.0    13
2020/07/03 05:10:23.000  -2286297.8349   5003377.6103   3217183.3510   1  14   0.0070   0.0072   0.0066  -0.0067   0.0063  -0.0062   0.00    5.3    13
2020/07/03 05:10:24.000  -2286297.1187   5003375.8181   3217186.7166   1  14   0.0070   0.0072   0.0066  -0.0067   0.0063  -0.0062   0.00    5.7    13
2020/07/03 05:10:25.000  -2286296.4019   5003374.2393   3217189.7644   1  15   0.0070   0.0072   0.0066  -0.0067   0.0063  -0.0062   0.00    6.1    13
2020/07/03 05:10:26.000  -2286295.7598   5003372.9682   3217192.2588   1  15   0.0070   0.0072   0.0066  -0.0067   0.0063  -0.0062   0.00    6.4    13
2020/07/03 05:10:27.000  -2286295.1713   5003371.9080   3217194.3870   1  15   0.0070   0.0072   0.0066  -0.0067   0.0063  -0.0062   0.00    6.8    13
2020/07/03 05:10:28.000  -2286294.6112   5003370.9741   3217196.2935   1  15   0.0058   0.0062   0.0055  -0.0055   0.0052  -0.0049   0.00    7.1    13
2020/07/03 05:10:29.000  -2286294.0874   5003370.1313   3217198.0225   1  15   0.0053   0.0058   0.0051  -0.0050   0.0047  -0.0044   0.00    7.5    13
2020/07/03 05:10:30.000  -2286293.6683   5003369.2759   3217199.7044   1  15   0.0050   0.0056   0.0048  -0.0047   0.0045  -0.0041   0.00    2.0    14
2020/07/03 05:10:31.000  -2286293.3106   5003368.3755   3217201.3756   1  15   0.0048   0.0055   0.0047  -0.0046   0.0043  -0.0039   0.00    2.3    14
2020/07/03 05:10:32.000  -2286293.0807   5003367.4415   3217203.0478   1  15   0.0047   0.0054   0.0046  -0.0045   0.0042  -0.0038   0.00    2.5    14
2020/07/03 05:10:33.000  -2286292.9993   5003366.4452   3217204.6904   1  15   0.0046   0.0053   0.0045  -0.0044   0.0041  -0.0037   0.00    2.7    14
2020/07/03 05:10:34.000  -2286293.0997   5003365.4437   3217206.2598   1  15   0.0046   0.0053   0.0045  -0.0043   0.0041  -0.0036   0.00    2.9    14
2020/07/03 05:10:35.000  -2286293.5005   5003364.4097   3217207.6403   1  15   0.0041   0.0049   0.0041  -0.0039   0.0036  -0.0031   0.00    3.1    14
2020/07/03 05:10:36.000  -2286294.2070   5003363.3651   3217208.8269   1  15   0.0041   0.0049   0.0041  -0.0039   0.0036  -0.0031   0.00    3.3    14
2020/07/03 05:10:37.000  -2286295.1665   5003362.3280   3217209.8127   1  15   0.0041   0.0049   0.0041  -0.0039   0.0036  -0.0031   0.00    3.5    14
2020/07/03 05:10:38.000  -2286296.3981   5003361.3291   3217210.5107   1  15   0.0041   0.0049   0.0041  -0.0039   0.0036  -0.0031   0.00    3.7    14
2020/07/03 05:10:39.000  -2286297.8796   5003360.4396   3217210.9068   1  15   0.0041   0.0049   0.0041  -0.0039   0.0036  -0.0031   0.00    3.9    14
2020/07/03 05:10:40.000  -2286299.4886   5003359.6941   3217210.9533   1  15   0.0041   0.0049   0.0041  -0.0039   0.0036  -0.0031   0.00    4.1    14
2020/07/03 05:10:41.000  -2286301.1632   5003359.1517   3217210.6610   1  15   0.0041   0.0049   0.0041  -0.0039   0.0036  -0.0031   0.00    4.3    14
2020/07/03 05:10:42.000  -2286302.8667   5003358.7001   3217210.2207   1  15   0.0041   0.0049   0.0041  -0.0039   0.0036  -0.0031   0.00    4.5    14
2020/07/03 05:10:43.000  -2286304.3308   5003358.3222   3217209.8443   1  15   0.0041   0.0049   0.0041  -0.0039   0.0036  -0.0031   0.00    4.8    14
2020/07/03 05:10:44.000  -2286305.0145   5003358.1161   3217209.6271   1  15   0.0041   0.0049   0.0041  -0.0039   0.0036  -0.0031   0.00    5.0    14
2020/07/03 05:10:45.000  -2286305.0664   5003358.1081   3217209.6179   1  15   0.0041   0.0049   0.0041  -0.0039   0.0036  -0.0031   0.00    5.1    14
2020/07/03 05:10:46.000  -2286305.0675   5003358.1109   3217209.6195   1  15   0.0041   0.0049   0.0041  -0.0039   0.0036  -0.0031   0.00    5.3    14
2020/07/03 05:10:47.000  -2286305.0643   5003358.1090   3217209.6154   1  15   0.0041   0.0049   0.0041  -0.0039   0.0036  -0.0031   0.00    5.4    14
2020/07/03 05:10:48.000  -2286305.0649   5003358.1098   3217209.6156   1  15   0.0041   0.0049   0.0041  -0.0039   0.0036  -0.0031   0.00    5.5    14
2020/07/03 05:10:49.000  -2286305.0628   5003358.1064   3217209.6138   1  15   0.0041   0.0049   0.0041  -0.0039   0.0036  -0.0031   0.00    5.6    14
2020/07/03 05:10:50.000  -2286305.0611   5003358.1060   3217209.6142   1  15   0.0041   0.0049   0.0041  -0.0039   0.0036  -0.0031   0.00    5.7    14
2020/07/03 05:10:51.000  -2286305.0649   5003358.1099   3217209.6166   1  15   0.0041   0.0049   0.0041  -0.0039   0.0036  -0.0031   0.00    5.8    14
2020/07/03 05:10:52.000  -2286305.0662   5003358.1098   3217209.6179   1  15   0.0041   0.0049   0.0041  -0.0039   0.0036  -0.0031   0.00    5.9    14
2020/07/03 05:10:53.000  -2286305.0628   5003358.1069   3217209.6155   1  15   0.0041   0.0049   0.0041  -0.0039   0.0036  -0.0031   0.00    6.0    14
2020/07/03 05:10:54.000  -2286305.0638   5003358.1091   3217209.6144   1  15   0.0041   0.0049   0.0041  -0.0039   0.0036  -0.0031   0.00    6.1    14
2020/07/03 05:10:55.000  -2286305.0646   5003358.1078   3217209.6157   1  15   0.0041   0.0049   0.0041  -0.0039   0.0036  -0.0031   0.00    6.2    14
2020/07/03 05:10:56.000  -2286305.0656   5003358.1092   3217209.6161   1  15   0.0041   0.0049   0.0041  -0.0039   0.0036  -0.0031   0.00    6.3    14
2020/07/03 05:10:57.000  -2286305.0649   5003358.1083   3217209.6166   1  15   0.0041   0.0049   0.0041  -0.0039   0.0036  -0.0031   0.00    6.4    14
2020/07/03 05:10:58.000  -2286305.0642   5003358.1082   3217209.6145   1  15   0.0041   0.0049   0.0041  -0.0039   0.0036  -0.0031   0.00    6.4    14
2020/07/03 05:10:59.000  -2286305.0965   5003358.0967   3217209.6060   1  15   0.0041   0.0049   0.0041  -0.0039   0.0036  -0.0031   0.00    6.5    14
2020/07/03 05:11:00.000  -2286305.4179   5003358.0132   3217209.5377   1  15   0.0041   0.0049   0.0041  -0.0039   0.0036  -0.0031   0.00    6.6    14
2020/07/03 05:11:01.000  -2286306.4476   5003357.6696   3217209.4218   1  15   0.0041   0.0049   0.0041  -0.0039   0.0036  -0.0031   0.00    6.8    14
2020/07/03 05:11:02.000  -2286308.5124   5003356.8265   3217209.3070   1  15   0.0041   0.0049   0.0041  -0.0039   0.0036  -0.0031   0.00    6.9    14
2020/07/03 05:11:03.000  -2286311.7351   5003355.5400   3217209.1083   1  15   0.0041   0.0049   0.0041  -0.0039   0.0036  -0.0031   0.00    7.1    14
2020/07/03 05:11:04.000  -2286315.9519   5003353.9057   3217208.7919   1  15   0.0041   0.0049   0.0041  -0.0039   0.0036  -0.0031   0.00    7.2    14
2020/07/03 05:11:05.000  -2286320.9214   5003352.0099   3217208.3877   1  15   0.0041   0.0049   0.0041  -0.0039   0.0036  -0.0031   0.00    7.4    14
2020/07/03 05:11:06.000  -2286326.5017   5003349.9175   3217207.8541   1  15   0.0041   0.0049   0.0041  -0.0039   0.0036  -0.0031   0.00    7.6    14
2020/07/03 05:11:07.000  -2286332.6281   5003347.6673   3217207.1689   1  15   0.0041   0.0049   0.0041  -0.0039   0.0036  -0.0031   0.00    7.8    14
2020/07/03 05:11:08.000  -2286339.2668   5003345.2666   3217206.3516   1  15   0.0041   0.0049   0.0041  -0.0039   0.0036  -0.0031   0.00    8.0    14
2020/07/03 05:11:09.000  -2286346.3739   5003342.6830   3217205.4710   1  15   0.0041   0.0049   0.0041  -0.0039   0.0036  -0.0031   0.00    8.2    14
2020/07/03 05:11:10.000  -2286353.9137   5003339.9659   3217204.5344   1  15   0.0041   0.0049   0.0041  -0.0039   0.0036  -0.0031   0.00    8.4    14
2020/07/03 05:11:11.000  -2286361.8313   5003337.1122   3217203.5922   1  15   0.0041   0.0049   0.0041  -0.0039   0.0036  -0.0031   0.00    8.6    14
2020/07/03 05:11:12.000  -2286369.9428   5003334.1466   3217202.6363   1  15   0.0041   0.0049   0.0041  -0.0039   0.0036  -0.0031   0.00    8.8    14
2020/07/03 05:11:13.000  -2286378.1540   5003331.1606   3217201.6971   1  15   0.0041   0.0049   0.0041  -0.0039   0.0036  -0.0031   0.00    9.0    14
2020/07/03 05:11:14.000  -2286386.4487   5003328.1233   3217200.7352   1  15   0.0041   0.0049   0.0041  -0.0039   0.0036  -0.0031   0.00    9.1    14
2020/07/03 05:11:15.000  -2286394.8365   5003325.1024   3217199.6852   1  15   0.0041   0.0049   0.0041  -0.0039   0.0036  -0.0031   0.00    9.3    14
2020/07/03 05:11:16.000  -2286403.3721   5003322.0756   3217198.5358   1  15   0.0041   0.0049   0.0041  -0.0039   0.0036  -0.0031   0.00    9.5    14
2020/07/03 05:11:17.000  -2286412.1026   5003319.0530   3217197.2740   1  15   0.0041   0.0049   0.0041  -0.0039   0.0036  -0.0031   0.00    9.7    14
2020/07/03 05:11:18.000  -2286421.0052   5003315.9847   3217195.8971   1  15   0.0041   0.0049   0.0041  -0.0039   0.0036  -0.0031   0.00    9.9    14
2020/07/03 05:11:19.000  -2286430.0820   5003312.8611   3217194.4930   1  15   0.0041   0.0049   0.0041  -0.0039   0.0036  -0.0031   0.00   10.1    14
2020/07/03 05:11:20.000  -2286439.3484   5003309.6409   3217193.0751   1  15   0.0041   0.0049   0.0041  -0.0039   0.0036  -0.0031   0.00   10.3    14
2020/07/03 05:11:21.000  -2286448.7318   5003306.3253   3217191.6458   1  15   0.0041   0.0049   0.0041  -0.0039   0.0036  -0.0031   0.00   10.5    14
2020/07/03 05:11:22.000  -2286458.1706   5003302.9729   3217190.2538   1  15   0.0041   0.0049   0.0041  -0.0039   0.0036  -0.0031   0.00   10.7    14
2020/07/03 05:11:23.000  -2286467.6826   5003299.5626   3217188.8722   1  15   0.0041   0.0049   0.0041  -0.0039   0.0036  -0.0031   0.00   10.9    14
2020/07/03 05:11:24.000  -2286477.2619   5003296.1243   3217187.5024   1  15   0.0041   0.0049   0.0041  -0.0039   0.0036  -0.0031   0.00   11.1    14
2020/07/03 05:11:25.000  -2286486.9424   5003292.6351   3217186.1132   1  15   0.0041   0.0049   0.0041  -0.0039   0.0036  -0.0031   0.00   11.3    14
2020/07/03 05:11:26.000  -2286496.8053   5003289.0790   3217184.6730   1  15   0.0041   0.0049   0.0041  -0.0039   0.0036  -0.0031   0.00   11.5    14
2020/07/03 05:11:27.000  -2286506.8614   5003285.4695   3217183.1868   1  15   0.0041   0.0049   0.0041  -0.0039   0.0036  -0.0031   0.00   11.7    14
2020/07/03 05:11:28.000  -2286517.0901   5003281.8399   3217181.6744   1  15   0.0041   0.0049   0.0041  -0.0039   0.0036  -0.0031   0.00   11.9    14
2020/07/03 05:11:29.000  -2286527.4412   5003278.1644   3217180.1388   1  15   0.0041   0.0049   0.0041  -0.0039   0.0036  -0.0031   0.00   12.1    14
2020/07/03 05:11:30.000  -2286537.8491   5003274.4474   3217178.5703   1  15   0.0041   0.0049   0.0041  -0.0039   0.0036  -0.0031   0.00   12.3    14
2020/07/03 05:11:31.000  -2286548.3284   5003270.7272   3217176.9941   1  15   0.0041   0.0049   0.0041  -0.0039   0.0036  -0.0031   0.00   12.5    14
2020/07/03 05:11:32.000  -2286558.7641   5003267.0216   3217175.4097   1  15   0.0041   0.0049   0.0041  -0.0039   0.0036  -0.0031   0.00   12.7    14
2020/07/03 05:11:33.000  -2286569.1208   5003263.3564   3217173.8270   1  15   0.0041   0.0049   0.0041  -0.0039   0.0036  -0.0031   0.00   12.8    14
2020/07/03 05:11:34.000  -2286579.4552   5003259.6888   3217172.2846   1  15   0.0041   0.0049   0.0041  -0.0039   0.0036  -0.0031   0.00   13.0    14
2020/07/03 05:11:35.000  -2286589.8033   5003255.9788   3217170.7608   1  15   0.0041   0.0049   0.0041  -0.0039   0.0036  -0.0031   0.00   13.2    14
2020/07/03 05:11:36.000  -2286600.2231   5003252.2497   3217169.2483   1  15   0.0041   0.0049   0.0041  -0.0039   0.0036  -0.0031   0.00   13.3    14
2020/07/03 05:11:37.000  -2286610.7541   5003248.4662   3217167.7022   1  15   0.0041   0.0049   0.0041  -0.0039   0.0036  -0.0031   0.00   13.5    14
2020/07/03 05:11:38.000  -2286621.4433   5003244.6446   3217166.1520   1  15   0.0041   0.0049   0.0041  -0.0039   0.0036  -0.0031   0.00   13.7    14
2020/07/03 05:11:39.000  -2286632.2790   5003240.7590   3217164.5555   1  15   0.0041   0.0049   0.0041  -0.0039   0.0036  -0.0031   0.00   13.9    14
2020/07/03 05:11:40.000  -2286643.2588   5003236.8356   3217162.9437   1  15   0.0041   0.0049   0.0041  -0.0039   0.0036  -0.0031   0.00   14.0    14
2020/07/03 05:11:41.000  -2286654.3681   5003232.8669   3217161.3162   1  15   0.0041   0.0049   0.0041  -0.0039   0.0036  -0.0031   0.00   14.2    14
2020/07/03 05:11:42.000  -2286665.5284   5003228.8682   3217159.6720   1  15   0.0041   0.0049   0.0041  -0.0039   0.0036  -0.0031   0.00   14.4    14
2020/07/03 05:11:43.000  -2286676.5358   5003224.9350   3217158.0441   1  15   0.0041   0.0049   0.0041  -0.0039   0.0036  -0.0031   0.00   14.6    14
2020/07/03 05:11:44.000  -2286687.3742   5003221.0572   3217156.4327   1  15   0.0041   0.0049   0.0041  -0.0039   0.0036  -0.0031   0.00   14.8    14
2020/07/03 05:11:45.000  -2286698.2724   5003217.1696   3217154.8114   1  15   0.0041   0.0049   0.0041  -0.0039   0.0036  -0.0031   0.00   15.0    14
2020/07/03 05:11:46.000  -2286709.3194   5003213.2045   3217153.1582   1  15   0.0041   0.0049   0.0041  -0.0039   0.0036  -0.0031   0.00   15.2    14
2020/07/03 05:11:47.000  -2286720.4803   5003209.1664   3217151.4910   1  15   0.0041   0.0049   0.0041  -0.0039   0.0036  -0.0031   0.00   15.3    14
2020/07/03 05:11:48.000  -2286731.5417   5003205.1641   3217149.8542   1  15   0.0041   0.0049   0.0041  -0.0039   0.0036  -0.0031   0.00   15.5    14
2020/07/03 05:11:49.000  -2286742.2733   5003201.2287   3217148.2521   1  15   0.0041   0.0049   0.0041  -0.0039   0.0036  -0.0031   0.00   15.7    14
2020/07/03 05:11:50.000  -2286752.6852   5003197.4363   3217146.6951   1  15   0.0041   0.0049   0.0041  -0.0039   0.0036  -0.0031   0.00   15.8    14
2020/07/03 05:11:51.000  -2286762.7427   5003193.7630   3217145.1883   1  15   0.0041   0.0049   0.0041  -0.0039   0.0036  -0.0031   0.00   16.0    14
2020/07/03 05:11:52.000  -2286772.4567   5003190.2132   3217143.7823   1  15   0.0041   0.0051   0.0044  -0.0039   0.0039  -0.0030   0.00   17.4    12
2020/07/03 05:11:53.000  -2286781.7689   5003186.7446   3217142.4941   1  14   0.0041   0.0051   0.0044  -0.0039   0.0039  -0.0030   0.00   17.5    12
2020/07/03 05:11:54.000  -2286790.6820   5003183.3919   3217141.3210   1  15   0.0041   0.0051   0.0044  -0.0039   0.0039  -0.0030   0.00   17.6    12
2020/07/03 05:11:55.000  -2286799.0073   5003180.2319   3217140.2515   1  15   0.0041   0.0050   0.0042  -0.0039   0.0038  -0.0030   0.00   17.8    12
2020/07/03 05:11:56.000  -2286806.7560   5003177.3065   3217139.2892   1  15   0.0041   0.0050   0.0042  -0.0039   0.0037  -0.0031   0.00   17.9    12
2020/07/03 05:11:57.000  -2286814.0206   5003174.6018   3217138.3272   1  15   0.0041   0.0050   0.0042  -0.0039   0.0037  -0.0031   0.00    2.2    13
2020/07/03 05:11:58.000  -2286820.6460   5003172.1791   3217137.4242   1  15   0.0041   0.0050   0.0042  -0.0039   0.0037  -0.0031   0.00    2.2    14
2020/07/03 05:11:59.000  -2286826.3933   5003170.0855   3217136.6044   1  15   0.0041   0.0050   0.0041  -0.0039   0.0037  -0.0031   0.00    2.4    14
2020/07/03 05:12:00.000  -2286831.4496   5003168.2453   3217135.9195   1  15   0.0041   0.0050   0.0041  -0.0039   0.0037  -0.0031   0.00    2.6    14
2020/07/03 05:12:01.000  -2286836.2236   5003166.3126   3217135.6918   1  15   0.0041   0.0050   0.0041  -0.0039   0.0037  -0.0031   0.00    2.8    14
2020/07/03 05:12:02.000  -2286840.7769   5003163.8946   3217136.4839   1  15   0.0041   0.0049   0.0041  -0.0039   0.0037  -0.0031   0.00    3.1    14
2020/07/03 05:12:03.000  -2286844.9469   5003160.9708   3217138.3749   1  15   0.0041   0.0049   0.0041  -0.0039   0.0036  -0.0031   0.00    3.3    14
2020/07/03 05:12:04.000  -2286848.4395   5003157.6874   3217141.3877   1  15   0.0041   0.0049   0.0041  -0.0039   0.0036  -0.0031   0.00    3.5    14
2020/07/03 05:12:05.000  -2286850.9473   5003154.1924   3217145.4509   1  15   0.0041   0.0049   0.0041  -0.0039   0.0036  -0.0031   0.00    3.7    14
2020/07/03 05:12:06.000  -2286852.2869   5003150.6185   3217150.4144   1  15   0.0041   0.0049   0.0041  -0.0039   0.0036  -0.0031   0.00    3.9    14
2020/07/03 05:12:07.000  -2286853.1292   5003146.9870   3217155.9100   1  15   0.0041   0.0049   0.0041  -0.0039   0.0036  -0.0031   0.00    4.1    14
2020/07/03 05:12:08.000  -2286854.0534   5003143.1575   3217161.7192   1  15   0.0042   0.0057   0.0042  -0.0041   0.0040  -0.0032   0.00    4.7    13
2020/07/03 05:12:09.000  -2286854.9881   5003139.0266   3217167.8473   1  15   0.0042   0.0057   0.0042  -0.0041   0.0040  -0.0032   0.00    4.9    13
2020/07/03 05:12:10.000  -2286855.9872   5003134.7224   3217174.3525   1  14   0.0042   0.0057   0.0042  -0.0041   0.0040  -0.0032   0.00    5.1    13
2020/07/03 05:12:11.000  -2286857.0102   5003130.2092   3217181.1707   1  14   0.0042   0.0057   0.0042  -0.0041   0.0040  -0.0032   0.00    5.3    13
2020/07/03 05:12:12.000  -2286858.0417   5003125.5653   3217188.1384   1  14   0.0042   0.0057   0.0042  -0.0041   0.0040  -0.0032   0.00    5.5    13
2020/07/03 05:12:13.000  -2286859.0904   5003120.9987   3217195.0044   1  14   0.0042   0.0057   0.0042  -0.0041   0.0040  -0.0032   0.00    5.7    13
2020/07/03 05:12:14.000  -2286860.1189   5003116.6207   3217201.5472   1  14   0.0042   0.0057   0.0042  -0.0042   0.0040  -0.0032   0.00    5.9    13
2020/07/03 05:12:15.000  -2286861.0966   5003112.5788   3217207.4478   1  14   0.0042   0.0057   0.0042  -0.0042   0.0040  -0.0032   0.00    6.1    13
2020/07/03 05:12:16.000  -2286862.1618   5003108.9433   3217212.6885   1  14   0.0042   0.0061   0.0045  -0.0042   0.0044  -0.0033   0.00    8.3    12
2020/07/03 05:12:17.000  -2286863.4383   5003105.5005   3217217.4077   1  14   0.0042   0.0061   0.0045  -0.0042   0.0044  -0.0033   0.00    8.5    12
2020/07/03 05:12:18.000  -2286865.2881   5003102.1498   3217221.6426   1  14   0.0042   0.0062   0.0047  -0.0042   0.0046  -0.0033   0.00   22.5    11
2020/07/03 05:12:19.000  -2286867.8504   5003098.7523   3217225.2992   1  15   0.0042   0.0062   0.0047  -0.0042   0.0046  -0.0033   0.00   22.6    11
2020/07/03 05:12:20.000  -2286871.3322   5003095.2433   3217228.2770   1  15   0.0042   0.0060   0.0045  -0.0042   0.0043  -0.0032   0.00   22.7    11
2020/07/03 05:12:21.000  -2286875.8204   5003092.0368   3217230.1360   1  15   0.0042   0.0059   0.0044  -0.0042   0.0042  -0.0032   0.00   22.9    11
2020/07/03 05:12:22.000  -2286881.1886   5003089.3046   3217230.6783   1  15   0.0041   0.0055   0.0043  -0.0040   0.0040  -0.0031   0.00    2.2    12
2020/07/03 05:12:23.000  -2286887.1990   5003086.9750   3217230.0252   1  15   0.0041   0.0061   0.0043  -0.0041   0.0042  -0.0032   0.00    2.1    13
2020/07/03 05:12:24.000  -2286893.8252   5003084.6078   3217229.0351   1  14   0.0041   0.0060   0.0043  -0.0041   0.0041  -0.0032   0.00    2.6    13
2020/07/03 05:12:25.000  -2286901.0444   5003082.0145   3217228.0278   1  14   0.0041   0.0059   0.0043  -0.0041   0.0041  -0.0031   0.00    2.9    13
2020/07/03 05:12:26.000  -2286908.7808   5003079.1595   3217226.9908   1  15   0.0041   0.0058   0.0042  -0.0041   0.0040  -0.0031   0.00    3.3    13
2020/07/03 05:12:27.000  -2286917.0005   5003076.1472   3217225.9064   1  15   0.0041   0.0055   0.0042  -0.0040   0.0039  -0.0031   0.00    3.6    13
2020/07/03 05:12:28.000  -2286925.6428   5003072.9123   3217224.8536   1  15   0.0041   0.0051   0.0041  -0.0039   0.0037  -0.0031   0.00    2.1    14
2020/07/03 05:12:29.000  -2286934.8266   5003069.4851   3217223.8063   1  15   0.0041   0.0051   0.0041  -0.0039   0.0037  -0.0031   0.00    2.4    14
2020/07/03 05:12:30.000  -2286944.4931   5003065.8738   3217222.6944   1  15   0.0041   0.0050   0.0041  -0.0039   0.0037  -0.0031   0.00    2.9    14
2020/07/03 05:12:31.000  -2286954.5993   5003062.2317   3217221.3869   1  15   0.0041   0.0050   0.0041  -0.0039   0.0037  -0.0031   0.00    3.3    14
2020/07/03 05:12:32.000  -2286965.0793   5003058.4824   3217219.9792   1  15   0.0041   0.0050   0.0041  -0.0039   0.0037  -0.0031   0.00    3.7    14
2020/07/03 05:12:33.000  -2286975.8263   5003054.5981   3217218.6429   1  15   0.0041   0.0049   0.0041  -0.0039   0.0036  -0.0031   0.00    4.2    14
2020/07/03 05:12:34.000  -2286986.7106   5003050.6764   3217217.3163   1  15   0.0041   0.0049   0.0041  -0.0039   0.0036  -0.0031   0.00    4.6    14
2020/07/03 05:12:35.000  -2286997.7136   5003046.7376   3217215.9230   1  15   0.0041   0.0049   0.0041  -0.0039   0.0036  -0.0031   0.00    5.0    14
2020/07/03 05:12:36.000  -2287008.7663   5003042.8299   3217214.4196   1  15   0.0041   0.0049   0.0041  -0.0039   0.0036  -0.0031   0.00    5.4    14
2020/07/03 05:12:37.000  -2287019.8395   5003038.9779   3217212.8642   1  15   0.0041   0.0049   0.0041  -0.0039   0.0036  -0.0031   0.00    5.7    14
2020/07/03 05:12:38.000  -2287030.8792   5003035.1487   3217211.2943   1  15   0.0041   0.0049   0.0041  -0.0039   0.0036  -0.0031   0.00    6.1    14
2020/07/03 05:12:39.000  -2287041.8771   5003031.2657   3217209.7813   1  15   0.0041   0.0049   0.0041  -0.0039   0.0036  -0.0031   0.00    6.5    14
2020/07/03 05:12:40.000  -2287052.9783   5003027.3250   3217208.3206   1  15   0.0041   0.0049   0.0041  -0.0039   0.0036  -0.0031   0.00    6.9    14
2020/07/03 05:12:41.000  -2287064.2521   5003023.3189   3217206.8598   1  15   0.0042   0.0057   0.0042  -0.0042   0.0040  -0.0032   0.00    7.0    13
2020/07/03 05:12:42.000  -2287075.6884   5003019.1632   3217205.5613   1  14   0.0042   0.0064   0.0043  -0.0043   0.0042  -0.0032   0.00    7.4    12
2020/07/03 05:12:43.000  -2287087.2076   5003014.8400   3217204.4059   1  14   0.0042   0.0063   0.0042  -0.0042   0.0042  -0.0032   0.00    2.0    13
2020/07/03 05:12:44.000  -2287098.6755   5003010.4922   3217203.3679   1  15   0.0042   0.0062   0.0042  -0.0042   0.0041  -0.0032   0.00    2.4    13
2020/07/03 05:12:45.000  -2287110.0807   5003006.0709   3217202.4673   1  15   0.0041   0.0058   0.0042  -0.0041   0.0040  -0.0032   0.00    2.6    13
2020/07/03 05:12:46.000  -2287121.5828   5003001.6287   3217201.5218   1  15   0.0041   0.0057   0.0042  -0.0041   0.0039  -0.0032   0.00    2.2    14
2020/07/03 05:12:47.000  -2287133.1832   5002997.0680   3217200.7036   1  15   0.0041   0.0056   0.0042  -0.0041   0.0039  -0.0032   0.00    2.6    14
2020/07/03 05:12:48.000  -2287144.8778   5002992.3375   3217200.0605   1  15   0.0041   0.0054   0.0042  -0.0040   0.0038  -0.0031   0.00    3.0    14
2020/07/03 05:12:49.000  -2287156.7232   5002987.5527   3217199.4571   1  15   0.0041   0.0054   0.0042  -0.0040   0.0038  -0.0031   0.00    3.3    14
2020/07/03 05:12:50.000  -2287168.7799   5002982.7250   3217198.7790   1  15   0.0041   0.0054   0.0042  -0.0040   0.0038  -0.0031   0.00    3.7    14
2020/07/03 05:12:51.000  -2287181.0603   5002977.8704   3217197.9774   1  15   0.0042   0.0057   0.0042  -0.0042   0.0040  -0.0032   0.00    4.1    13
2020/07/03 05:12:52.000  -2287193.5768   5002973.0318   3217196.9655   1  15   0.0041   0.0053   0.0042  -0.0040   0.0038  -0.0031   0.00    4.4    13
2020/07/03 05:12:53.000  -2287206.3310   5002968.1532   3217195.7922   1  15   0.0041   0.0052   0.0041  -0.0040   0.0038  -0.0031   0.00    4.7    13
2020/07/03 05:12:54.000  -2287219.3230   5002963.2616   3217194.4988   1  15   0.0041   0.0051   0.0041  -0.0039   0.0037  -0.0031   0.00    2.3    14
2020/07/03 05:12:55.000  -2287232.5256   5002958.3027   3217193.0901   1  14   0.0041   0.0053   0.0043  -0.0040   0.0039  -0.0031   0.00    2.6    13
2020/07/03 05:12:56.000  -2287245.9552   5002953.3621   3217191.5054   1  15   0.0041   0.0052   0.0043  -0.0039   0.0039  -0.0031   0.00    2.9    13
2020/07/03 05:12:57.000  -2287259.6023   5002948.4310   3217189.7012   1  15   0.0041   0.0052   0.0042  -0.0039   0.0038  -0.0031   0.00    3.2    13
2020/07/03 05:12:58.000  -2287273.4654   5002943.4748   3217187.7355   1  14   0.0041   0.0052   0.0043  -0.0039   0.0039  -0.0031   0.00    3.5    13
2020/07/03 05:12:59.000  -2287287.5505   5002938.4762   3217185.6632   1  14   0.0041   0.0051   0.0042  -0.0039   0.0038  -0.0031   0.00    3.8    13
2020/07/03 05:13:00.000  -2287301.8608   5002933.3711   3217183.5825   1  14   0.0041   0.0051   0.0042  -0.0039   0.0038  -0.0031   0.00    4.1    13
2020/07/03 05:13:01.000  -2287316.3765   5002928.1410   3217181.4728   1  16   0.0041   0.0051   0.0042  -0.0039   0.0038  -0.0031   0.00    4.4    13
2020/07/03 05:13:02.000  -2287331.1143   5002922.8154   3217179.3206   1  16   0.0041   0.0050   0.0042  -0.0039   0.0037  -0.0031   0.00    4.6    13
2020/07/03 05:13:03.000  -2287346.0872   5002917.4238   3217177.1237   1  16   0.0041   0.0050   0.0041  -0.0039   0.0037  -0.0031   0.00    4.9    13
2020/07/03 05:13:04.000  -2287361.2775   5002911.9152   3217174.8686   1  16   0.0039   0.0049   0.0040  -0.0038   0.0036  -0.0029   0.00    2.0    14
2020/07/03 05:13:05.000  -2287376.6988   5002906.3285   3217172.5523   1  16   0.0039   0.0049   0.0040  -0.0037   0.0036  -0.0029   0.00    2.0    15
2020/07/03 05:13:06.000  -2287392.2903   5002900.7078   3217170.1560   1  16   0.0039   0.0049   0.0040  -0.0037   0.0035  -0.0028   0.00    2.3    15
2020/07/03 05:13:07.000  -2287407.9156   5002895.0556   3217167.7300   1  16   0.0039   0.0049   0.0040  -0.0037   0.0035  -0.0028   0.00    2.6    15
2020/07/03 05:13:08.000  -2287423.5946   5002889.3739   3217165.2675   1  16   0.0038   0.0049   0.0040  -0.0037   0.0035  -0.0028   0.00    2.9    15
2020/07/03 05:13:09.000  -2287439.3527   5002883.6396   3217162.7952   1  16   0.0038   0.0049   0.0039  -0.0037   0.0035  -0.0028   0.00    3.2    15
2020/07/03 05:13:10.000  -2287455.2009   5002877.8758   3217160.2757   1  16   0.0038   0.0048   0.0039  -0.0037   0.0035  -0.0027   0.00    3.4    15
2020/07/03 05:13:11.000  -2287471.1203   5002872.0780   3217157.7445   1  16   0.0038   0.0048   0.0039  -0.0037   0.0035  -0.0027   0.00    3.6    15
2020/07/03 05:13:12.000  -2287486.9384   5002866.2494   3217155.2286   1  16   0.0038   0.0048   0.0039  -0.0037   0.0035  -0.0027   0.00    3.8    15
2020/07/03 05:13:13.000  -2287502.6168   5002860.4526   3217152.7487   1  16   0.0038   0.0048   0.0039  -0.0037   0.0035  -0.0027   0.00    4.1    15
2020/07/03 05:13:14.000  -2287518.1915   5002854.6914   3217150.2853   1  16   0.0038   0.0048   0.0039  -0.0037   0.0035  -0.0027   0.00    4.3    15
2020/07/03 05:13:15.000  -2287533.6894   5002848.9311   3217147.8059   1  16   0.0038   0.0048   0.0039  -0.0037   0.0035  -0.0027   0.00    4.5    15
2020/07/03 05:13:16.000  -2287549.1595   5002843.1667   3217145.3465   1  16   0.0038   0.0048   0.0039  -0.0037   0.0035  -0.0028   0.00    4.7    15
2020/07/03 05:13:17.000  -2287564.6107   5002837.3578   3217142.9363   1  16   0.0038   0.0048   0.0039  -0.0037   0.0035  -0.0028   0.00    4.9    15
2020/07/03 05:13:18.000  -2287580.0496   5002831.5273   3217140.4985   1  16   0.0038   0.0048   0.0039  -0.0037   0.0035  -0.0028   0.00    5.0    15
2020/07/03 05:13:19.000  -2287595.4963   5002825.7302   3217138.0049   1  15   0.0038   0.0054   0.0039  -0.0038   0.0037  -0.0028   0.00    5.5    14
2020/07/03 05:13:20.000  -2287610.9337   5002819.9075   3217135.5132   1  15   0.0038   0.0054   0.0039  -0.0038   0.0037  -0.0028   0.00    5.7    14
2020/07/03 05:13:21.000  -2287626.3704   5002814.0682   3217133.0214   1  15   0.0038   0.0054   0.0039  -0.0038   0.0037  -0.0028   0.00    5.9    14
2020/07/03 05:13:22.000  -2287641.8375   5002808.2057   3217130.5205   1  15   0.0038   0.0054   0.0039  -0.0038   0.0037  -0.0028   0.00    6.1    14
2020/07/03 05:13:23.000  -2287657.3706   5002802.3155   3217128.0061   1  15   0.0038   0.0054   0.0039  -0.0038   0.0037  -0.0028   0.00    6.3    14
2020/07/03 05:13:24.000  -2287673.0116   5002796.4100   3217125.4823   1  15   0.0038   0.0054   0.0039  -0.0038   0.0037  -0.0028   0.00    6.5    14
2020/07/03 05:13:25.000  -2287688.7294   5002790.4628   3217122.9295   1  16   0.0038   0.0054   0.0039  -0.0038   0.0037  -0.0028   0.00    6.7    14
2020/07/03 05:13:26.000  -2287704.5414   5002784.4816   3217120.3376   1  16   0.0038   0.0051   0.0039  -0.0038   0.0036  -0.0028   0.00    6.9    14
2020/07/03 05:13:27.000  -2287720.4384   5002778.4525   3217117.7789   1  16   0.0038   0.0050   0.0039  -0.0037   0.0035  -0.0028   0.00    7.1    14
2020/07/03 05:13:28.000  -2287736.3934   5002772.3615   3217115.2524   1  16   0.0038   0.0050   0.0039  -0.0037   0.0035  -0.0028   0.00    2.3    15
2020/07/03 05:13:29.000  -2287752.4099   5002766.2584   3217112.7077   1  16   0.0038   0.0050   0.0039  -0.0037   0.0035  -0.0028   0.00    2.5    15
2020/07/03 05:13:30.000  -2287768.4874   5002760.1486   3217110.1476   1  16   0.0038   0.0049   0.0039  -0.0037   0.0035  -0.0028   0.00    2.8    15
2020/07/03 05:13:31.000  -2287784.6054   5002754.0462   3217107.5561   1  16   0.0038   0.0049   0.0039  -0.0037   0.0035  -0.0028   0.00    3.0    15
2020/07/03 05:13:32.000  -2287800.7777   5002747.9343   3217104.9408   1  16   0.0038   0.0049   0.0039  -0.0037   0.0035  -0.0028   0.00    3.3    15
2020/07/03 05:13:33.000  -2287816.9865   5002741.7984   3217102.3081   1  16   0.0038   0.0048   0.0039  -0.0037   0.0035  -0.0028   0.00    3.6    15
2020/07/03 05:13:34.000  -2287833.2389   5002735.6288   3217099.6935   1  16   0.0038   0.0048   0.0039  -0.0037   0.0035  -0.0028   0.00    3.9    15
2020/07/03 05:13:35.000  -2287849.5332   5002729.4452   3217097.0664   1  16   0.0038   0.0048   0.0039  -0.0037   0.0035  -0.0028   0.00    4.2    15
2020/07/03 05:13:36.000  -2287865.8784   5002723.2822   3217094.4005   1  16   0.0038   0.0048   0.0039  -0.0037   0.0035  -0.0028   0.00    4.5    15
2020/07/03 05:13:37.000  -2287882.2358   5002717.0932   3217091.7607   1  15   0.0038   0.0050   0.0040  -0.0037   0.0036  -0.0027   0.00    4.8    14
2020/07/03 05:13:38.000  -2287898.5094   5002710.8800   3217089.2112   1  17   0.0038   0.0050   0.0040  -0.0037   0.0036  -0.0027   0.00    5.1    14
2020/07/03 05:13:39.000  -2287914.6354   5002704.7439   3217086.6816   1  16   0.0038   0.0049   0.0040  -0.0037   0.0036  -0.0028   0.00    5.3    14
2020/07/03 05:13:40.000  -2287930.5591   5002698.6948   3217084.1125   1  16   0.0038   0.0049   0.0039  -0.0037   0.0035  -0.0028   0.00    5.6    14
2020/07/03 05:13:41.000  -2287946.3021   5002692.7562   3217081.5248   1  16   0.0038   0.0049   0.0039  -0.0037   0.0035  -0.0028   0.00    5.9    14
2020/07/03 05:13:42.000  -2287961.8617   5002686.9113   3217078.9215   1  16   0.0038   0.0049   0.0039  -0.0037   0.0035  -0.0028   0.00    2.0    15
2020/07/03 05:13:43.000  -2287977.2282   5002681.1416   3217076.3084   1  16   0.0038   0.0049   0.0039  -0.0037   0.0035  -0.0028   0.00    2.2    15
2020/07/03 05:13:44.000  -2287992.4158   5002675.4311   3217073.7918   1  17   0.0038   0.0049   0.0039  -0.0037   0.0035  -0.0028   0.00    2.4    15
2020/07/03 05:13:45.000  -2288007.4016   5002669.7661   3217071.3530   1  17   0.0038   0.0049   0.0039  -0.0037   0.0035  -0.0028   0.00    2.6    15
2020/07/03 05:13:46.000  -2288022.2117   5002664.1855   3217068.9402   1  17   0.0038   0.0049   0.0039  -0.0037   0.0035  -0.0028   0.00    2.8    15
2020/07/03 05:13:47.000  -2288036.8264   5002658.6454   3217066.5503   1  17   0.0038   0.0049   0.0039  -0.0037   0.0035  -0.0028   0.00    3.0    15
2020/07/03 05:13:48.000  -2288051.3494   5002653.1764   3217064.1474   1  17   0.0038   0.0049   0.0039  -0.0037   0.0035  -0.0028   0.00    3.2    15
2020/07/03 05:13:49.000  -2288065.7867   5002647.7404   3217061.7425   1  17   0.0038   0.0049   0.0039  -0.0037   0.0035  -0.0028   0.00    3.4    15
2020/07/03 05:13:50.000  -2288080.0605   5002642.3698   3217059.4433   1  15   0.0038   0.0049   0.0039  -0.0037   0.0035  -0.0028   0.00    3.5    15
2020/07/03 05:13:51.000  -2288094.1064   5002637.0130   3217057.1939   1  15   0.0038   0.0049   0.0039  -0.0037   0.0035  -0.0028   0.00    3.7    15
2020/07/03 05:13:52.000  -2288107.8759   5002631.7729   3217055.0104   1  14   0.0039   0.0050   0.0041  -0.0036   0.0037  -0.0027   0.00   10.5    13
2020/07/03 05:13:53.000  -2288121.3178   5002626.6340   3217052.9338   1  14   0.0039   0.0050   0.0041  -0.0036   0.0037  -0.0027   0.00   10.8    12
2020/07/03 05:13:54.000  -2288134.4243   5002621.5925   3217050.9200   1  15   0.0038   0.0050   0.0041  -0.0037   0.0037  -0.0027   0.00    2.5    13
2020/07/03 05:13:55.000  -2288147.2127   5002616.6929   3217048.9768   1  17   0.0038   0.0049   0.0040  -0.0037   0.0036  -0.0027   0.00    3.2    13
2020/07/03 05:13:56.000  -2288159.6377   5002611.9323   3217047.0924   1  17   0.0038   0.0049   0.0040  -0.0037   0.0036  -0.0027   0.00    2.3    14
2020/07/03 05:13:57.000  -2288171.6611   5002607.3599   3217045.2736   1  17   0.0038   0.0049   0.0040  -0.0037   0.0035  -0.0027   0.00    2.6    14
2020/07/03 05:13:58.000  -2288183.1524   5002603.0714   3217043.5288   1  16   0.0041   0.0050   0.0041  -0.0039   0.0037  -0.0031   0.00    2.3    14
2020/07/03 05:13:59.000  -2288193.9388   5002599.0036   3217041.8443   1  17   0.0041   0.0050   0.0041  -0.0039   0.0037  -0.0031   0.00    2.5    14
2020/07/03 05:14:00.000  -2288203.9945   5002595.2384   3217040.2639   1  17   0.0040   0.0049   0.0040  -0.0038   0.0036  -0.0029   0.00    2.8    14
2020/07/03 05:14:01.000  -2288213.2769   5002591.7830   3217038.7865   1  17   0.0039   0.0049   0.0040  -0.0038   0.0036  -0.0029   0.00    3.0    14
2020/07/03 05:14:02.000  -2288221.7438   5002588.6419   3217037.4433   1  17   0.0039   0.0049   0.0040  -0.0037   0.0035  -0.0028   0.00    2.2    15
2020/07/03 05:14:03.000  -2288229.3528   5002585.8321   3217036.2242   1  17   0.0039   0.0049   0.0039  -0.0037   0.0035  -0.0028   0.00    2.5    15
2020/07/03 05:14:04.000  -2288235.9528   5002583.4013   3217035.1680   1  17   0.0039   0.0049   0.0039  -0.0037   0.0035  -0.0028   0.00    2.8    15
2020/07/03 05:14:05.000  -2288241.2440   5002581.4369   3217034.3196   1  17   0.0038   0.0049   0.0039  -0.0037   0.0035  -0.0028   0.00    3.1    15
2020/07/03 05:14:06.000  -2288245.0355   5002580.0447   3217033.7287   1  17   0.0038   0.0049   0.0039  -0.0037   0.0035  -0.0028   0.00    3.3    15
2020/07/03 05:14:07.000  -2288247.4161   5002579.1542   3217033.3505   1  17   0.0038   0.0049   0.0039  -0.0037   0.0035  -0.0028   0.00    3.6    15
2020/07/03 05:14:08.000  -2288249.3060   5002578.4495   3217033.0565   1  17   0.0038   0.0049   0.0039  -0.0037   0.0035  -0.0028   0.00    3.8    15
2020/07/03 05:14:09.000  -2288250.8435   5002577.8830   3217032.8293   1  17   0.0038   0.0049   0.0039  -0.0037   0.0035  -0.0028   0.00    4.1    15
2020/07/03 05:14:10.000  -2288251.8895   5002577.5007   3217032.6757   1  17   0.0038   0.0049   0.0039  -0.0037   0.0035  -0.0028   0.00    4.3    15
2020/07/03 05:14:11.000  -2288252.4197   5002577.3006   3217032.5969   1  17   0.0038   0.0049   0.0039  -0.0037   0.0035  -0.0028   0.00    4.6    15
2020/07/03 05:14:12.000  -2288252.5035   5002577.2661   3217032.5831   1  17   0.0038   0.0049   0.0039  -0.0037   0.0035  -0.0028   0.00    4.8    15
2020/07/03 05:14:13.000  -2288252.5032   5002577.2680   3217032.5856   1  17   0.0038   0.0049   0.0039  -0.0037   0.0035  -0.0028   0.00    5.0    15
2020/07/03 05:14:14.000  -2288252.5029   5002577.2666   3217032.5844   1  17   0.0038   0.0049   0.0039  -0.0037   0.0035  -0.0028   0.00    5.3    15
2020/07/03 05:14:15.000  -2288252.5030   5002577.2659   3217032.5852   1  17   0.0038   0.0049   0.0039  -0.0037   0.0035  -0.0028   0.00    5.5    15
2020/07/03 05:14:16.000  -2288252.5021   5002577.2656   3217032.5827   1  17   0.0038   0.0049   0.0039  -0.0037   0.0035  -0.0028   0.00    5.7    15
2020/07/03 05:14:17.000  -2288252.5021   5002577.2651   3217032.5840   1  17   0.0038   0.0049   0.0039  -0.0037   0.0035  -0.0028   0.00    5.9    15
2020/07/03 05:14:18.000  -2288252.5019   5002577.2666   3217032.5848   1  17   0.0038   0.0049   0.0039  -0.0037   0.0035  -0.0028   0.00    6.1    15
2020/07/03 05:14:19.000  -2288252.4994   5002577.2620   3217032.5811   1  17   0.0038   0.0049   0.0039  -0.0037   0.0035  -0.0028   0.00    6.3    15
2020/07/03 05:14:20.000  -2288252.5004   5002577.2633   3217032.5826   1  17   0.0038   0.0049   0.0039  -0.0037   0.0035  -0.0028   0.00    6.5    15
2020/07/03 05:14:21.000  -2288252.5015   5002577.2655   3217032.5835   1  17   0.0038   0.0049   0.0039  -0.0037   0.0035  -0.0028   0.00    6.6    15
2020/07/03 05:14:22.000  -2288252.5017   5002577.2663   3217032.5843   1  17   0.0038   0.0049   0.0039  -0.0037   0.0035  -0.0028   0.00    6.7    15
2020/07/03 05:14:23.000  -2288252.5014   5002577.2652   3217032.5844   1  17   0.0038   0.0049   0.0039  -0.0037   0.0035  -0.0028   0.00    6.9    15
2020/07/03 05:14:24.000  -2288252.5024   5002577.2654   3217032.5841   1  17   0.0038   0.0049   0.0039  -0.0037   0.0035  -0.0028   0.00    7.0    15
2020/07/03 05:14:25.000  -2288252.4991   5002577.2626   3217032.5833   1  17   0.0038   0.0049   0.0039  -0.0037   0.0035  -0.0028   0.00    7.2    15
2020/07/03 05:14:26.000  -2288252.5015   5002577.2658   3217032.5856   1  17   0.0038   0.0049   0.0039  -0.0037   0.0035  -0.0028   0.00    7.3    15
2020/07/03 05:14:27.000  -2288252.5011   5002577.2649   3217032.5849   1  17   0.0038   0.0049   0.0039  -0.0037   0.0035  -0.0028   0.00    7.5    15
2020/07/03 05:14:28.000  -2288252.5006   5002577.2640   3217032.5831   1  17   0.0038   0.0049   0.0039  -0.0037   0.0035  -0.0028   0.00    7.6    15
2020/07/03 05:14:29.000  -2288252.5008   5002577.2667   3217032.5844   1  17   0.0038   0.0049   0.0039  -0.0037   0.0035  -0.0028   0.00    7.7    15
2020/07/03 05:14:30.000  -2288252.5009   5002577.2660   3217032.5852   1  17   0.0038   0.0049   0.0039  -0.0037   0.0035  -0.0028   0.00    7.8    15
2020/07/03 05:14:31.000  -2288252.5005   5002577.2664   3217032.5834   1  17   0.0038   0.0049   0.0039  -0.0037   0.0035  -0.0028   0.00    8.0    15
2020/07/03 05:14:32.000  -2288252.4988   5002577.2635   3217032.5831   1  17   0.0038   0.0049   0.0039  -0.0037   0.0035  -0.0028   0.00    8.1    15
2020/07/03 05:14:33.000  -2288252.5017   5002577.2660   3217032.5866   1  17   0.0038   0.0049   0.0039  -0.0037   0.0035  -0.0028   0.00    8.2    15
2020/07/03 05:14:34.000  -2288252.5020   5002577.2676   3217032.5865   1  17   0.0038   0.0049   0.0039  -0.0037   0.0035  -0.0028   0.00    8.3    15
2020/07/03 05:14:35.000  -2288252.4989   5002577.2635   3217032.5836   1  17   0.0038   0.0049   0.0039  -0.0037   0.0035  -0.0028   0.00    8.5    15
2020/07/03 05:14:36.000  -2288252.4989   5002577.2645   3217032.5837   1  17   0.0038   0.0049   0.0039  -0.0037   0.0035  -0.0028   0.00    8.6    15
2020/07/03 05:14:37.000  -2288252.4993   5002577.2649   3217032.5827   1  17   0.0038   0.0049   0.0039  -0.0037   0.0035  -0.0028   0.00    8.7    15
2020/07/03 05:14:38.000  -2288252.4988   5002577.2642   3217032.5834   1  17   0.0038   0.0049   0.0039  -0.0037   0.0035  -0.0028   0.00    8.8    15
2020/07/03 05:14:39.000  -2288252.5014   5002577.2657   3217032.5836   1  17   0.0038   0.0049   0.0039  -0.0037   0.0035  -0.0028   0.00    8.9    15
2020/07/03 05:14:40.000  -2288252.4991   5002577.2630   3217032.5848   1  17   0.0038   0.0049   0.0039  -0.0037   0.0035  -0.0028   0.00    9.0    15
2020/07/03 05:14:41.000  -2288252.4976   5002577.2623   3217032.5832   1  17   0.0038   0.0049   0.0039  -0.0037   0.0035  -0.0028   0.00    9.1    15
2020/07/03 05:14:42.000  -2288252.5012   5002577.2685   3217032.5871   1  17   0.0038   0.0049   0.0039  -0.0037   0.0035  -0.0028   0.00    9.2    15
2020/07/03 05:14:43.000  -2288252.5005   5002577.2676   3217032.5856   1  17   0.0038   0.0049   0.0039  -0.0037   0.0035  -0.0028   0.00    9.3    15
2020/07/03 05:14:44.000  -2288252.5016   5002577.2677   3217032.5864   1  17   0.0038   0.0049   0.0039  -0.0037   0.0035  -0.0028   0.00    9.4    15
2020/07/03 05:14:45.000  -2288252.5136   5002577.2618   3217032.5823   1  17   0.0038   0.0049   0.0039  -0.0037   0.0035  -0.0028   0.00    9.5    15
2020/07/03 05:14:46.000  -2288252.8120   5002577.1582   3217032.5424   1  17   0.0038   0.0049   0.0039  -0.0037   0.0035  -0.0028   0.00    9.5    15
2020/07/03 05:14:47.000  -2288253.8575   5002576.7581   3217032.3843   1  17   0.0038   0.0049   0.0039  -0.0037   0.0035  -0.0028   0.00    9.7    15
2020/07/03 05:14:48.000  -2288256.0892   5002575.9311   3217032.0643   1  17   0.0038   0.0049   0.0039  -0.0037   0.0035  -0.0028   0.00    9.7    15
2020/07/03 05:14:49.000  -2288259.5127   5002574.6518   3217031.5736   1  17   0.0038   0.0049   0.0039  -0.0037   0.0035  -0.0028   0.00    9.8    15
2020/07/03 05:14:50.000  -2288264.0099   5002572.9596   3217030.9063   1  17   0.0038   0.0049   0.0039  -0.0037   0.0035  -0.0028   0.00    9.9    15
2020/07/03 05:14:51.000  -2288269.4381   5002570.9467   3217030.0982   1  17   0.0038   0.0049   0.0039  -0.0037   0.0035  -0.0028   0.00   10.0    15
2020/07/03 05:14:52.000  -2288275.6486   5002568.6583   3217029.1774   1  17   0.0038   0.0049   0.0039  -0.0037   0.0035  -0.0028   0.00   10.1    15
2020/07/03 05:14:53.000  -2288282.5159   5002566.1727   3217028.1503   1  17   0.0038   0.0049   0.0039  -0.0037   0.0035  -0.0028   0.00   10.2    15
2020/07/03 05:14:54.000  -2288289.9586   5002563.4830   3217027.0230   1  17   0.0038   0.0049   0.0039  -0.0037   0.0035  -0.0028   0.00   10.3    15
2020/07/03 05:14:55.000  -2288297.9476   5002560.6116   3217025.7854   1  17   0.0038   0.0049   0.0039  -0.0037   0.0035  -0.0028   0.00   10.4    15
2020/07/03 05:14:56.000  -2288306.4791   5002557.5231   3217024.4387   1  16   0.0038   0.0049   0.0039  -0.0037   0.0035  -0.0028   0.00   10.5    15
2020/07/03 05:14:57.000  -2288315.5632   5002554.2304   3217022.9974   1  16   0.0038   0.0049   0.0039  -0.0037   0.0035  -0.0028   0.00   10.6    15
2020/07/03 05:14:58.000  -2288325.1907   5002550.7746   3217021.4798   1  16   0.0038   0.0049   0.0039  -0.0037   0.0035  -0.0028   0.00   10.7    15
2020/07/03 05:14:59.000  -2288335.2870   5002547.1776   3217019.9584   1  16   0.0038   0.0049   0.0039  -0.0037   0.0035  -0.0028   0.00   10.7    15
2020/07/03 05:15:00.000  -2288345.7896   5002543.3729   3217018.3756   1  16   0.0038   0.0049   0.0039  -0.0037   0.0035  -0.0028   0.00   10.8    15
2020/07/03 05:15:01.000  -2288356.7149   5002539.4661   3217016.7281   1  16   0.0038   0.0049   0.0039  -0.0037   0.0035  -0.0028   0.00   10.9    15
2020/07/03 05:15:02.000  -2288368.0154   5002535.4332   3217015.0296   1  16   0.0038   0.0049   0.0039  -0.0037   0.0035  -0.0028   0.00   11.0    15
2020/07/03 05:15:03.000  -2288379.6594   5002531.3098   3217013.3438   1  16   0.0038   0.0049   0.0039  -0.0037   0.0035  -0.0028   0.00   11.1    15
2020/07/03 05:15:04.000  -2288391.5929   5002527.0272   3217011.5925   1  16   0.0038   0.0049   0.0039  -0.0037   0.0035  -0.0028   0.00   11.2    15
2020/07/03 05:15:05.000  -2288403.8277   5002522.6712   3217009.8421   1  16   0.0038   0.0049   0.0039  -0.0037   0.0035  -0.0028   0.00   11.3    15
2020/07/03 05:15:06.000  -2288416.3388   5002518.2515   3217008.0321   1  16   0.0038   0.0049   0.0039  -0.0037   0.0035  -0.0028   0.00   11.4    15
2020/07/03 05:15:07.000  -2288429.1153   5002513.7656   3217006.1668   1  17   0.0038   0.0049   0.0039  -0.0037   0.0035  -0.0028   0.00   11.4    15
2020/07/03 05:15:08.000  -2288442.1158   5002509.1821   3217004.2180   1  17   0.0038   0.0049   0.0039  -0.0037   0.0035  -0.0028   0.00   11.6    15
2020/07/03 05:15:09.000  -2288455.3526   5002504.4806   3217002.2975   1  17   0.0038   0.0049   0.0039  -0.0037   0.0035  -0.0028   0.00   11.7    15
