% program   : RTKPOST
% ref pos   :
% (x/y/z-ecef=WGS84,Q=1:fix,2:float,3:sbas,4:dgps,5:single,6:ppp,ns=# of satellites)
%  GPST                 lat(deg)       lon(deg)        h(m)      Q   ns    sdx(m)    sdy(m)    sdz(m)    sdxy(m)   sdyz(m)   sdzx(m)   age(s)  ratio   fixn
2112 451981.000000   30.4671446770  114.6595701355     8.7010    1   10    0.0000    0.0000    0.0000    0.0000    0.0000    0.0000    0.00     0.0      0
2112 451982.000000   30.4672114768  114.6595604179     8.6670    1   10    0.0000    0.0000    0.0000    0.0000    0.0000    0.0000    0.00     0.0      0
2112 451983.000000   30.4672793764  114.6595507468     8.6750    1   10    0.0000    0.0000    0.0000    0.0000    0.0000    0.0000    0.00     0.0      0
2112 451984.000000   30.4673467548  114.6595416035     8.6600    1   10    0.0000    0.0000    0.0000    0.0000    0.0000    0.0000    0.00     0.0      0
2112 451985.000000   30.4674132213  114.6595326212     8.6560    1   10    0.0000    0.0000    0.0000    0.0000    0.0000    0.0000    0.00     0.0      0
2112 451986.000000   30.4674786878  114.6595231815     8.6650    1   10    0.0000    0.0000    0.0000    0.0000    0.0000    0.0000    0.00     0.0      0
2112 451987.000000   30.4675435473  114.6595133961     8.6690    1   10    0.0000    0.0000    0.0000    0.0000    0.0000    0.0000    0.00     0.0      0
2112 451988.000000   30.4676061475  114.6595043911     8.6640    1   10    0.0000    0.0000    0.0000    0.0000    0.0000    0.0000    0.00     0.0      0
2112 451989.000000   30.4676651429  114.6594949954     8.6800    1   10    0.0000    0.0000    0.0000    0.0000    0.0000    0.0000    0.00     0.0      0
2112 451990.000000   30.4677226393  114.6594848830     8.6710    1   10    0.0000    0.0000    0.0000    0.0000    0.0000    0.0000    0.00     0.0      0
2112 451991.000000   30.4677768833  114.6594734277     8.6710    1   10    0.0000    0.0000    0.0000    0.0000    0.0000    0.0000    0.00     0.0      0
2112 451992.000000   30.4678284390  114.6594610280     8.6810    1   10    0.0000    0.0000    0.0000    0.0000    0.0000    0.0000    0.00     0.0      0
2112 451993.000000   30.4678811573  114.6594473782     8.7170    1   10    0.0000    0.0000    0.0000    0.0000    0.0000    0.0000    0.00     0.0      0
2112 451994.000000   30.4679380925  114.6594322139     8.7320    1   10    0.0000    0.0000    0.0000    0.0000    0.0000    0.0000    0.00     0.0      0
2112 451995.000000   30.4679946306  114.6594159795     8.7540    1   10    0.0000    0.0000    0.0000    0.0000    0.0000    0.0000    0.00     0.0      0
2112 451996.000000   30.4680419893  114.6594014511     8.7740    1   10    0.0000    0.0000    0.0000    0.0000    0.0000    0.0000    0.00     0.0      0
2112 451997.000000   30.4680684306  114.6593909214     8.7870    1   10    0.0000    0.0000    0.0000    0.0000    0.0000    0.0000    0.00     0.0      0
2112 451998.000000   30.4680885102  114.6593826946     8.7980    1   10    0.0000    0.0000    0.0000    0.0000    0.0000    0.0000    0.00     0.0      0
2112 451999.000000   30.4681133945  114.6593734763     8.8070    1   10    0.0000    0.0000    0.0000    0.0000    0.0000    0.0000    0.00     0.0      0
2112 452000.000000   30.4681483875  114.6593628509     8.8180    1   10    0.0000    0.0000    0.0000    0.0000    0.0000    0.0000    0.00     0.0      0
2112 452001.000000   30.4681926350  114.6593527438     8.8300    1   10    0.0000    0.0000    0.0000    0.0000    0.0000    0.0000    0.00     0.0      0
2112 452002.000000   30.4682447068  114.6593451636     8.8290    1   10    0.0000    0.0000    0.0000    0.0000    0.0000    0.0000    0.00     0.0      0
2112 452003.000000   30.4683010062  114.6593399557     8.8350    1   10    0.0000    0.0000    0.0000    0.0000    0.0000    0.0000    0.00     0.0      0
2112 452004.000000   30.4683534274  114.6593353785     8.8460    1   10    0.0000    0.0000    0.0000    0.0000    0.0000    0.0000    0.00     0.0      0
2112 452005.000000   30.4683972942  114.6593293585     8.8530    1   10    0.0000    0.0000    0.0000    0.0000    0.0000    0.0000    0.00     0.0      0
2112 452006.000000   30.4684301426  114.6593212064     8.8710    1   10    0.0000    0.0000    0.0000    0.0000    0.0000    0.0000    0.00     0.0      0
2112 452007.000000   30.4684533760  114.6593109985     8.8940    1   10    0.0000    0.0000    0.0000    0.0000    0.0000    0.0000    0.00     0.0      0
2112 452008.000000   30.4684733562  114.6592961552     8.8940    1   10    0.0000    0.0000    0.0000    0.0000    0.0000    0.0000    0.00     0.0      0
2112 452009.000000   30.4684856372  114.6592728855     8.8890    1   10    0.0000    0.0000    0.0000    0.0000    0.0000    0.0000    0.00     0.0      0
2112 452010.000000   30.4684861484  114.6592454709     8.8520    1   10    0.0000    0.0000    0.0000    0.0000    0.0000    0.0000    0.00     0.0      0
2112 452011.000000   30.4684722282  114.6592181149     8.8090    1   10    0.0000    0.0000    0.0000    0.0000    0.0000    0.0000    0.00     0.0      0
2112 452012.000000   30.4684402269  114.6592005793     8.7880    1   10    0.0000    0.0000    0.0000    0.0000    0.0000    0.0000    0.00     0.0      0
2112 452013.000000   30.4683963312  114.6591948997     8.7580    1   10    0.0000    0.0000    0.0000    0.0000    0.0000    0.0000    0.00     0.0      0
2112 452014.000000   30.4683433566  114.6591996155     8.7480    1   10    0.0000    0.0000    0.0000    0.0000    0.0000    0.0000    0.00     0.0      0
2112 452015.000000   30.4682820946  114.6592087686     8.7460    1   10    0.0000    0.0000    0.0000    0.0000    0.0000    0.0000    0.00     0.0      0
2112 452016.000000   30.4682128355  114.6592191334     8.7280    1   10    0.0000    0.0000    0.0000    0.0000    0.0000    0.0000    0.00     0.0      0
2112 452017.000000   30.4681370356  114.6592307006     8.7280    1   10    0.0000    0.0000    0.0000    0.0000    0.0000    0.0000    0.00     0.0      0
2112 452018.000000   30.4680558762  114.6592429104     8.7290    1   10    0.0000    0.0000    0.0000    0.0000    0.0000    0.0000    0.00     0.0      0
2112 452019.000000   30.4679713814  114.6592553413     8.7150    1   10    0.0000    0.0000    0.0000    0.0000    0.0000    0.0000    0.00     0.0      0
2112 452020.000000   30.4678839098  114.6592678138     8.6850    1   10    0.0000    0.0000    0.0000    0.0000    0.0000    0.0000    0.00     0.0      0
2112 452021.000000   30.4677926494  114.6592804780     8.6840    1   10    0.0000    0.0000    0.0000    0.0000    0.0000    0.0000    0.00     0.0      0
2112 452022.000000   30.4676985948  114.6592942074     8.6740    1   10    0.0000    0.0000    0.0000    0.0000    0.0000    0.0000    0.00     0.0      0
2112 452023.000000   30.4676017848  114.6593089542     8.6760    1   10    0.0000    0.0000    0.0000    0.0000    0.0000    0.0000    0.00     0.0      0
2112 452024.000000   30.4675016353  114.6593251013     8.6410    1   10    0.0000    0.0000    0.0000    0.0000    0.0000    0.0000    0.00     0.0      0
2112 452025.000000   30.4673975355  114.6593429401     8.6340    1   10    0.0000    0.0000    0.0000    0.0000    0.0000    0.0000    0.00     0.0      0
2112 452026.000000   30.4672890304  114.6593621695     8.6150    1   10    0.0000    0.0000    0.0000    0.0000    0.0000    0.0000    0.00     0.0      0
2112 452027.000000   30.4671773448  114.6593824774     8.6060    1   10    0.0000    0.0000    0.0000    0.0000    0.0000    0.0000    0.00     0.0      0
2112 452028.000000   30.4670636084  114.6594037145     8.6040    1   10    0.0000    0.0000    0.0000    0.0000    0.0000    0.0000    0.00     0.0      0
2112 452029.000000   30.4669464831  114.6594260093     8.6110    1   10    0.0000    0.0000    0.0000    0.0000    0.0000    0.0000    0.00     0.0      0
2112 452030.000000   30.4668263391  114.6594490849     8.6110    1   10    0.0000    0.0000    0.0000    0.0000    0.0000    0.0000    0.00     0.0      0
2112 452031.000000   30.4667060577  114.6594722754     8.5850    1   10    0.0000    0.0000    0.0000    0.0000    0.0000    0.0000    0.00     0.0      0
2112 452032.000000   30.4665852434  114.6594957036     8.5860    1   10    0.0000    0.0000    0.0000    0.0000    0.0000    0.0000    0.00     0.0      0
2112 452033.000000   30.4664654430  114.6595188515     8.5580    1   10    0.0000    0.0000    0.0000    0.0000    0.0000    0.0000    0.00     0.0      0
2112 452034.000000   30.4663484345  114.6595409338     8.5490    1   10    0.0000    0.0000    0.0000    0.0000    0.0000    0.0000    0.00     0.0      0
2112 452035.000000   30.4662314993  114.6595619475     8.5440    1   10    0.0000    0.0000    0.0000    0.0000    0.0000    0.0000    0.00     0.0      0
2112 452036.000000   30.4661129594  114.6595825091     8.5120    1   10    0.0000    0.0000    0.0000    0.0000    0.0000    0.0000    0.00     0.0      0
2112 452037.000000   30.4659949861  114.6596035448     8.4510    1   10    0.0000    0.0000    0.0000    0.0000    0.0000    0.0000    0.00     0.0      0
2112 452038.000000   30.4658781874  114.6596276259     8.4630    1   10    0.0000    0.0000    0.0000    0.0000    0.0000    0.0000    0.00     0.0      0
2112 452039.000000   30.4657598464  114.6596526330     8.4760    1   10    0.0000    0.0000    0.0000    0.0000    0.0000    0.0000    0.00     0.0      0
2112 452040.000000   30.4656384391  114.6596767339     8.4690    1   10    0.0000    0.0000    0.0000    0.0000    0.0000    0.0000    0.00     0.0      0
2112 452041.000000   30.4655143630  114.6597010311     8.4770    1   10    0.0000    0.0000    0.0000    0.0000    0.0000    0.0000    0.00     0.0      0
2112 452042.000000   30.4653894731  114.6597257626     8.4400    1   10    0.0000    0.0000    0.0000    0.0000    0.0000    0.0000    0.00     0.0      0
2112 452043.000000   30.4652643602  114.6597497257     8.3980    1   10    0.0000    0.0000    0.0000    0.0000    0.0000    0.0000    0.00     0.0      0
2112 452044.000000   30.4651380730  114.6597730181     8.3960    1   10    0.0000    0.0000    0.0000    0.0000    0.0000    0.0000    0.00     0.0      0
2112 452045.000000   30.4650117176  114.6597955936     8.4530    1   10    0.0000    0.0000    0.0000    0.0000    0.0000    0.0000    0.00     0.0      0
2112 452046.000000   30.4648870954  114.6598177949     8.4970    1   10    0.0000    0.0000    0.0000    0.0000    0.0000    0.0000    0.00     0.0      0
2112 452047.000000   30.4647629246  114.6598401938     8.4690    1   10    0.0000    0.0000    0.0000    0.0000    0.0000    0.0000    0.00     0.0      0
2112 452048.000000   30.4646371232  114.6598623969     8.4900    1   10    0.0000    0.0000    0.0000    0.0000    0.0000    0.0000    0.00     0.0      0
2112 452049.000000   30.4645093200  114.6598836428     8.5140    1   10    0.0000    0.0000    0.0000    0.0000    0.0000    0.0000    0.00     0.0      0
2112 452050.000000   30.4643800809  114.6599037800     8.5200    1   10    0.0000    0.0000    0.0000    0.0000    0.0000    0.0000    0.00     0.0      0
2112 452051.000000   30.4642522952  114.6599226664     8.4810    1   10    0.0000    0.0000    0.0000    0.0000    0.0000    0.0000    0.00     0.0      0
2112 452052.000000   30.4641252443  114.6599424272     8.5700    1   10    0.0000    0.0000    0.0000    0.0000    0.0000    0.0000    0.00     0.0      0
2112 452053.000000   30.4639975808  114.6599621422     8.6050    1   10    0.0000    0.0000    0.0000    0.0000    0.0000    0.0000    0.00     0.0      0
2112 452054.000000   30.4638686327  114.6599822551     8.6220    1   10    0.0000    0.0000    0.0000    0.0000    0.0000    0.0000    0.00     0.0      0
2112 452055.000000   30.4637383091  114.6600025277     8.6590    1   10    0.0000    0.0000    0.0000    0.0000    0.0000    0.0000    0.00     0.0      0
2112 452056.000000   30.4636064337  114.6600222152     8.6850    1   10    0.0000    0.0000    0.0000    0.0000    0.0000    0.0000    0.00     0.0      0
2112 452057.000000   30.4634732371  114.6600432263     8.7200    1   10    0.0000    0.0000    0.0000    0.0000    0.0000    0.0000    0.00     0.0      0
2112 452058.000000   30.4633388483  114.6600654896     8.7650    1   10    0.0000    0.0000    0.0000    0.0000    0.0000    0.0000    0.00     0.0      0
2112 452059.000000   30.4632039932  114.6600881608     8.7830    1   10    0.0000    0.0000    0.0000    0.0000    0.0000    0.0000    0.00     0.0      0
2112 452060.000000   30.4630677591  114.6601095699     8.8320    1   10    0.0000    0.0000    0.0000    0.0000    0.0000    0.0000    0.00     0.0      0
2112 452061.000000   30.4629297450  114.6601295407     8.8620    1   10    0.0000    0.0000    0.0000    0.0000    0.0000    0.0000    0.00     0.0      0
2112 452062.000000   30.4627913027  114.6601480399     8.8770    1   10    0.0000    0.0000    0.0000    0.0000    0.0000    0.0000    0.00     0.0      0
2112 452063.000000   30.4626531332  114.6601669955     8.8890    1   10    0.0000    0.0000    0.0000    0.0000    0.0000    0.0000    0.00     0.0      0
2112 452064.000000   30.4625138286  114.6601871167     8.9160    1   10    0.0000    0.0000    0.0000    0.0000    0.0000    0.0000    0.00     0.0      0
2112 452065.000000   30.4623724900  114.6602079324     8.9200    1   10    0.0000    0.0000    0.0000    0.0000    0.0000    0.0000    0.00     0.0      0
2112 452066.000000   30.4622291326  114.6602293578     8.9440    1   10    0.0000    0.0000    0.0000    0.0000    0.0000    0.0000    0.00     0.0      0
2112 452067.000000   30.4620850812  114.6602510409     8.9550    1   10    0.0000    0.0000    0.0000    0.0000    0.0000    0.0000    0.00     0.0      0
2112 452068.000000   30.4619407786  114.6602722452     8.9810    1   10    0.0000    0.0000    0.0000    0.0000    0.0000    0.0000    0.00     0.0      0
2112 452069.000000   30.4617948073  114.6602930525     8.9870    1   10    0.0000    0.0000    0.0000    0.0000    0.0000    0.0000    0.00     0.0      0
2112 452070.000000   30.4616476492  114.6603138807     8.9660    1   10    0.0000    0.0000    0.0000    0.0000    0.0000    0.0000    0.00     0.0      0
2112 452071.000000   30.4615002149  114.6603346378     8.9560    1   10    0.0000    0.0000    0.0000    0.0000    0.0000    0.0000    0.00     0.0      0
2112 452072.000000   30.4613527041  114.6603556020     8.9710    1   10    0.0000    0.0000    0.0000    0.0000    0.0000    0.0000    0.00     0.0      0
2112 452073.000000   30.4612059465  114.6603774291     8.9910    1   10    0.0000    0.0000    0.0000    0.0000    0.0000    0.0000    0.00     0.0      0
2112 452074.000000   30.4610582135  114.6604000544     9.0100    1   10    0.0000    0.0000    0.0000    0.0000    0.0000    0.0000    0.00     0.0      0
2112 452075.000000   30.4609095300  114.6604231997     9.0150    1   10    0.0000    0.0000    0.0000    0.0000    0.0000    0.0000    0.00     0.0      0
2112 452076.000000   30.4607589625  114.6604467579     8.9950    1   10    0.0000    0.0000    0.0000    0.0000    0.0000    0.0000    0.00     0.0      0
2112 452077.000000   30.4606070607  114.6604702578     9.0180    1   10    0.0000    0.0000    0.0000    0.0000    0.0000    0.0000    0.00     0.0      0
2112 452078.000000   30.4604556139  114.6604929308     9.0380    1   10    0.0000    0.0000    0.0000    0.0000    0.0000    0.0000    0.00     0.0      0
2112 452079.000000   30.4603037856  114.6605148144     9.0310    1   10    0.0000    0.0000    0.0000    0.0000    0.0000    0.0000    0.00     0.0      0
2112 452080.000000   30.4601507916  114.6605362263     9.0180    1   10    0.0000    0.0000    0.0000    0.0000    0.0000    0.0000    0.00     0.0      0
2112 452081.000000   30.4599978092  114.6605573698     8.9920    1   10    0.0000    0.0000    0.0000    0.0000    0.0000    0.0000    0.00     0.0      0
2112 452082.000000   30.4598451386  114.6605781177     8.9890    1   10    0.0000    0.0000    0.0000    0.0000    0.0000    0.0000    0.00     0.0      0
2112 452083.000000   30.4596923641  114.6605994938     8.9940    1   10    0.0000    0.0000    0.0000    0.0000    0.0000    0.0000    0.00     0.0      0
2112 452084.000000   30.4595382091  114.6606217984     9.0560    1   10    0.0000    0.0000    0.0000    0.0000    0.0000    0.0000    0.00     0.0      0
2112 452085.000000   30.4593826271  114.6606441701     9.0730    1   10    0.0000    0.0000    0.0000    0.0000    0.0000    0.0000    0.00     0.0      0
2112 452086.000000   30.4592282760  114.6606641473     9.1660    1   10    0.0000    0.0000    0.0000    0.0000    0.0000    0.0000    0.00     0.0      0
2112 452087.000000   30.4590758525  114.6606805111     9.2280    1   10    0.0000    0.0000    0.0000    0.0000    0.0000    0.0000    0.00     0.0      0
2112 452088.000000   30.4589255191  114.6606942958     9.3210    1   10    0.0000    0.0000    0.0000    0.0000    0.0000    0.0000    0.00     0.0      0
2112 452089.000000   30.4587769383  114.6607048889     9.4200    1   10    0.0000    0.0000    0.0000    0.0000    0.0000    0.0000    0.00     0.0      0
2112 452090.000000   30.4586299030  114.6607106501     9.5500    1   10    0.0000    0.0000    0.0000    0.0000    0.0000    0.0000    0.00     0.0      0
2112 452091.000000   30.4584849895  114.6607117523     9.8180    1   10    0.0000    0.0000    0.0000    0.0000    0.0000    0.0000    0.00     0.0      0
2112 452092.000000   30.4583432949  114.6607063990    10.0690    1   10    0.0000    0.0000    0.0000    0.0000    0.0000    0.0000    0.00     0.0      0
2112 452093.000000   30.4582053773  114.6606920356    10.2740    1   10    0.0000    0.0000    0.0000    0.0000    0.0000    0.0000    0.00     0.0      0
2112 452094.000000   30.4580713464  114.6606681895    10.3930    1   10    0.0000    0.0000    0.0000    0.0000    0.0000    0.0000    0.00     0.0      0
2112 452095.000000   30.4579424203  114.6606342021    10.6330    1   10    0.0000    0.0000    0.0000    0.0000    0.0000    0.0000    0.00     0.0      0
2112 452096.000000   30.4578183418  114.6605921991    10.8750    1   10    0.0000    0.0000    0.0000    0.0000    0.0000    0.0000    0.00     0.0      0
2112 452097.000000   30.4576994340  114.6605427902    11.0460    1   10    0.0000    0.0000    0.0000    0.0000    0.0000    0.0000    0.00     0.0      0
2112 452098.000000   30.4575865273  114.6604891643    11.2350    1   10    0.0000    0.0000    0.0000    0.0000    0.0000    0.0000    0.00     0.0      0
2112 452099.000000   30.4574823792  114.6604310961    11.5380    1   10    0.0000    0.0000    0.0000    0.0000    0.0000    0.0000    0.00     0.0      0
2112 452100.000000   30.4573860415  114.6603694924    11.7260    1   10    0.0000    0.0000    0.0000    0.0000    0.0000    0.0000    0.00     0.0      0
2112 452101.000000   30.4572967854  114.6603080569    11.8510    1   10    0.0000    0.0000    0.0000    0.0000    0.0000    0.0000    0.00     0.0      0
2112 452102.000000   30.4572160853  114.6602488919    12.0060    1   10    0.0000    0.0000    0.0000    0.0000    0.0000    0.0000    0.00     0.0      0
2112 452103.000000   30.4571439420  114.6601916562    12.1250    1   10    0.0000    0.0000    0.0000    0.0000    0.0000    0.0000    0.00     0.0      0
2112 452104.000000   30.4570804470  114.6601370530    12.2280    1   10    0.0000    0.0000    0.0000    0.0000    0.0000    0.0000    0.00     0.0      0
2112 452105.000000   30.4570244053  114.6600854540    12.3200    1   10    0.0000    0.0000    0.0000    0.0000    0.0000    0.0000    0.00     0.0      0
2112 452106.000000   30.4569762479  114.6600388451    12.4120    1   10    0.0000    0.0000    0.0000    0.0000    0.0000    0.0000    0.00     0.0      0
2112 452107.000000   30.4569375149  114.6600015398    12.4830    1   10    0.0000    0.0000    0.0000    0.0000    0.0000    0.0000    0.00     0.0      0
2112 452108.000000   30.4569092507  114.6599796633    12.5400    1   10    0.0000    0.0000    0.0000    0.0000    0.0000    0.0000    0.00     0.0      0
2112 452109.000000   30.4568880522  114.6599725920    12.6110    1   10    0.0000    0.0000    0.0000    0.0000    0.0000    0.0000    0.00     0.0      0
2112 452110.000000   30.4568690067  114.6599774428    12.7190    1   10    0.0000    0.0000    0.0000    0.0000    0.0000    0.0000    0.00     0.0      0
2112 452111.000000   30.4568539329  114.6599944338    12.8440    1   10    0.0000    0.0000    0.0000    0.0000    0.0000    0.0000    0.00     0.0      0
2112 452112.000000   30.4568493510  114.6600226809    12.9240    1   10    0.0000    0.0000    0.0000    0.0000    0.0000    0.0000    0.00     0.0      0
2112 452113.000000   30.4568630172  114.6600575952    12.9500    1   10    0.0000    0.0000    0.0000    0.0000    0.0000    0.0000    0.00     0.0      0
2112 452114.000000   30.4568921716  114.6600953007    12.9140    1   10    0.0000    0.0000    0.0000    0.0000    0.0000    0.0000    0.00     0.0      0
2112 452115.000000   30.4569318875  114.6601346800    12.8260    1   10    0.0000    0.0000    0.0000    0.0000    0.0000    0.0000    0.00     0.0      0
2112 452116.000000   30.4569708525  114.6601737548    12.7490    1   10    0.0000    0.0000    0.0000    0.0000    0.0000    0.0000    0.00     0.0      0
2112 452117.000000   30.4570051801  114.6602136753    12.7190    1   10    0.0000    0.0000    0.0000    0.0000    0.0000    0.0000    0.00     0.0      0
2112 452118.000000   30.4570323473  114.6602488538    12.7250    1   10    0.0000    0.0000    0.0000    0.0000    0.0000    0.0000    0.00     0.0      0
2112 452119.000000   30.4570509337  114.6602722337    12.7070    1   10    0.0000    0.0000    0.0000    0.0000    0.0000    0.0000    0.00     0.0      0
2112 452120.000000   30.4570667128  114.6602885854    12.7070    1   10    0.0000    0.0000    0.0000    0.0000    0.0000    0.0000    0.00     0.0      0
2112 452121.000000   30.4570785072  114.6602991979    12.6860    1   10    0.0000    0.0000    0.0000    0.0000    0.0000    0.0000    0.00     0.0      0
2112 452122.000000   30.4570833570  114.6603033861    12.6720    1   10    0.0000    0.0000    0.0000    0.0000    0.0000    0.0000    0.00     0.0      0
2112 452123.000000   30.4570834036  114.6603033774    12.6750    1   10    0.0000    0.0000    0.0000    0.0000    0.0000    0.0000    0.00     0.0      0
2112 452124.000000   30.4570833935  114.6603033787    12.6740    1   10    0.0000    0.0000    0.0000    0.0000    0.0000    0.0000    0.00     0.0      0
2112 452125.000000   30.4570833924  114.6603033871    12.6730    1   10    0.0000    0.0000    0.0000    0.0000    0.0000    0.0000    0.00     0.0      0
2112 452126.000000   30.4570833858  114.6603033987    12.6720    1   10    0.0000    0.0000    0.0000    0.0000    0.0000    0.0000    0.00     0.0      0
2112 452127.000000   30.4570833841  114.6603033905    12.6720    1   10    0.0000    0.0000    0.0000    0.0000    0.0000    0.0000    0.00     0.0      0
2112 452128.000000   30.4570833909  114.6603033885    12.6720    1   10    0.0000    0.0000    0.0000    0.0000    0.0000    0.0000    0.00     0.0      0
2112 452129.000000   30.4570833905  114.6603033901    12.6710    1   10    0.0000    0.0000    0.0000    0.0000    0.0000    0.0000    0.00     0.0      0
2112 452130.000000   30.4570833925  114.6603033975    12.6690    1   10    0.0000    0.0000    0.0000    0.0000    0.0000    0.0000    0.00     0.0      0
2112 452131.000000   30.4570833992  114.6603033851    12.6690    1   10    0.0000    0.0000    0.0000    0.0000    0.0000    0.0000    0.00     0.0      0
2112 452132.000000   30.4570834012  114.6603033858    12.6680    1   10    0.0000    0.0000    0.0000    0.0000    0.0000    0.0000    0.00     0.0      0
2112 452133.000000   30.4570833916  114.6603033905    12.6670    1   10    0.0000    0.0000    0.0000    0.0000    0.0000    0.0000    0.00     0.0      0
2112 452134.000000   30.4570833971  114.6603034138    12.6670    1   10    0.0000    0.0000    0.0000    0.0000    0.0000    0.0000    0.00     0.0      0
2112 452135.000000   30.4570833977  114.6603034019    12.6660    1   10    0.0000    0.0000    0.0000    0.0000    0.0000    0.0000    0.00     0.0      0
2112 452136.000000   30.4570833984  114.6603033942    12.6660    1   10    0.0000    0.0000    0.0000    0.0000    0.0000    0.0000    0.00     0.0      0
2112 452137.000000   30.4570833966  114.6603034068    12.6670    1   10    0.0000    0.0000    0.0000    0.0000    0.0000    0.0000    0.00     0.0      0
2112 452138.000000   30.4570833885  114.6603034166    12.6670    1   10    0.0000    0.0000    0.0000    0.0000    0.0000    0.0000    0.00     0.0      0
2112 452139.000000   30.4570834003  114.6603034095    12.6690    1   10    0.0000    0.0000    0.0000    0.0000    0.0000    0.0000    0.00     0.0      0
2112 452140.000000   30.4570834019  114.6603034101    12.6700    1   10    0.0000    0.0000    0.0000    0.0000    0.0000    0.0000    0.00     0.0      0
2112 452141.000000   30.4570833971  114.6603034006    12.6700    1   10    0.0000    0.0000    0.0000    0.0000    0.0000    0.0000    0.00     0.0      0
2112 452142.000000   30.4570834032  114.6603033955    12.6690    1   10    0.0000    0.0000    0.0000    0.0000    0.0000    0.0000    0.00     0.0      0
2112 452143.000000   30.4570834061  114.6603034022    12.6680    1   10    0.0000    0.0000    0.0000    0.0000    0.0000    0.0000    0.00     0.0      0
2112 452144.000000   30.4570834030  114.6603034048    12.6670    1   10    0.0000    0.0000    0.0000    0.0000    0.0000    0.0000    0.00     0.0      0
2112 452145.000000   30.4570833987  114.6603034069    12.6670    1   10    0.0000    0.0000    0.0000    0.0000    0.0000    0.0000    0.00     0.0      0
2112 452146.000000   30.4570834046  114.6603034057    12.6660    1   10    0.0000    0.0000    0.0000    0.0000    0.0000    0.0000    0.00     0.0      0
2112 452147.000000   30.4570834071  114.6603033929    12.6650    1   10    0.0000    0.0000    0.0000    0.0000    0.0000    0.0000    0.00     0.0      0
2112 452148.000000   30.4570847627  114.6603046502    12.6640    1   10    0.0000    0.0000    0.0000    0.0000    0.0000    0.0000    0.00     0.0      0
2112 452149.000000   30.4570869323  114.6603064549    12.6590    1   10    0.0000    0.0000    0.0000    0.0000    0.0000    0.0000    0.00     0.0      0
2112 452150.000000   30.4570883134  114.6603075385    12.6530    1   10    0.0000    0.0000    0.0000    0.0000    0.0000    0.0000    0.00     0.0      0
2112 452151.000000   30.4570883421  114.6603075587    12.6500    1   10    0.0000    0.0000    0.0000    0.0000    0.0000    0.0000    0.00     0.0      0
2112 452152.000000   30.4570883413  114.6603075630    12.6470    1   10    0.0000    0.0000    0.0000    0.0000    0.0000    0.0000    0.00     0.0      0
2112 452153.000000   30.4570883440  114.6603075499    12.6450    1   10    0.0000    0.0000    0.0000    0.0000    0.0000    0.0000    0.00     0.0      0
2112 452154.000000   30.4570883441  114.6603075558    12.6430    1   10    0.0000    0.0000    0.0000    0.0000    0.0000    0.0000    0.00     0.0      0
2112 452155.000000   30.4570883421  114.6603075544    12.6430    1   10    0.0000    0.0000    0.0000    0.0000    0.0000    0.0000    0.00     0.0      0
2112 452156.000000   30.4570883462  114.6603075568    12.6420    1   10    0.0000    0.0000    0.0000    0.0000    0.0000    0.0000    0.00     0.0      0
2112 452157.000000   30.4570883458  114.6603075659    12.6420    1   10    0.0000    0.0000    0.0000    0.0000    0.0000    0.0000    0.00     0.0      0
2112 452158.000000   30.4570883517  114.6603075693    12.6420    1   10    0.0000    0.0000    0.0000    0.0000    0.0000    0.0000    0.00     0.0      0
2112 452159.000000   30.4570883504  114.6603075663    12.6410    1   10    0.0000    0.0000    0.0000    0.0000    0.0000    0.0000    0.00     0.0      0
2112 452160.000000   30.4570883393  114.6603075524    12.6410    1   10    0.0000    0.0000    0.0000    0.0000    0.0000    0.0000    0.00     0.0      0
2112 452161.000000   30.4570883396  114.6603075614    12.6400    1   10    0.0000    0.0000    0.0000    0.0000    0.0000    0.0000    0.00     0.0      0
2112 452162.000000   30.4570883448  114.6603075670    12.6390    1   10    0.0000    0.0000    0.0000    0.0000    0.0000    0.0000    0.00     0.0      0
2112 452163.000000   30.4570883440  114.6603075519    12.6410    1   10    0.0000    0.0000    0.0000    0.0000    0.0000    0.0000    0.00     0.0      0
2112 452164.000000   30.4570883523  114.6603075515    12.6410    1   10    0.0000    0.0000    0.0000    0.0000    0.0000    0.0000    0.00     0.0      0
2112 452165.000000   30.4570883537  114.6603075694    12.6410    1   10    0.0000    0.0000    0.0000    0.0000    0.0000    0.0000    0.00     0.0      0
2112 452166.000000   30.4570883492  114.6603075667    12.6430    1   10    0.0000    0.0000    0.0000    0.0000    0.0000    0.0000    0.00     0.0      0
2112 452167.000000   30.4570883522  114.6603075604    12.6450    1   10    0.0000    0.0000    0.0000    0.0000    0.0000    0.0000    0.00     0.0      0
2112 452168.000000   30.4570883557  114.6603075511    12.6430    1   10    0.0000    0.0000    0.0000    0.0000    0.0000    0.0000    0.00     0.0      0
2112 452169.000000   30.4570883575  114.6603075508    12.6410    1   10    0.0000    0.0000    0.0000    0.0000    0.0000    0.0000    0.00     0.0      0
2112 452170.000000   30.4570883507  114.6603075502    12.6400    1   10    0.0000    0.0000    0.0000    0.0000    0.0000    0.0000    0.00     0.0      0
2112 452171.000000   30.4570883448  114.6603075546    12.6400    1   10    0.0000    0.0000    0.0000    0.0000    0.0000    0.0000    0.00     0.0      0
2112 452172.000000   30.4570883471  114.6603075540    12.6410    1   10    0.0000    0.0000    0.0000    0.0000    0.0000    0.0000    0.00     0.0      0
2112 452173.000000   30.4570883502  114.6603075616    12.6410    1   10    0.0000    0.0000    0.0000    0.0000    0.0000    0.0000    0.00     0.0      0
2112 452174.000000   30.4570883485  114.6603075632    12.6390    1   10    0.0000    0.0000    0.0000    0.0000    0.0000    0.0000    0.00     0.0      0
2112 452175.000000   30.4570883441  114.6603075626    12.6380    1   10    0.0000    0.0000    0.0000    0.0000    0.0000    0.0000    0.00     0.0      0
2112 452176.000000   30.4570883549  114.6603075670    12.6400    1   10    0.0000    0.0000    0.0000    0.0000    0.0000    0.0000    0.00     0.0      0
2112 452177.000000   30.4570883856  114.6603075951    12.6400    1   10    0.0000    0.0000    0.0000    0.0000    0.0000    0.0000    0.00     0.0      0
2112 452178.000000   30.4570883892  114.6603075983    12.6410    1   10    0.0000    0.0000    0.0000    0.0000    0.0000    0.0000    0.00     0.0      0
2112 452179.000000   30.4570884006  114.6603076027    12.6410    1   10    0.0000    0.0000    0.0000    0.0000    0.0000    0.0000    0.00     0.0      0
2112 452180.000000   30.4570884007  114.6603076141    12.6400    1   10    0.0000    0.0000    0.0000    0.0000    0.0000    0.0000    0.00     0.0      0
2112 452181.000000   30.4570883973  114.6603076168    12.6420    1   10    0.0000    0.0000    0.0000    0.0000    0.0000    0.0000    0.00     0.0      0
2112 452182.000000   30.4570883960  114.6603076213    12.6430    1   10    0.0000    0.0000    0.0000    0.0000    0.0000    0.0000    0.00     0.0      0
2112 452183.000000   30.4570884060  114.6603076295    12.6420    1   10    0.0000    0.0000    0.0000    0.0000    0.0000    0.0000    0.00     0.0      0
2112 452184.000000   30.4570884232  114.6603076334    12.6390    1   10    0.0000    0.0000    0.0000    0.0000    0.0000    0.0000    0.00     0.0      0
2112 452185.000000   30.4570884214  114.6603076488    12.6400    1   10    0.0000    0.0000    0.0000    0.0000    0.0000    0.0000    0.00     0.0      0
2112 452186.000000   30.4570884170  114.6603076452    12.6410    1   10    0.0000    0.0000    0.0000    0.0000    0.0000    0.0000    0.00     0.0      0
2112 452187.000000   30.4570884211  114.6603076444    12.6420    1   10    0.0000    0.0000    0.0000    0.0000    0.0000    0.0000    0.00     0.0      0
2112 452188.000000   30.4570884256  114.6603076489    12.6440    1   10    0.0000    0.0000    0.0000    0.0000    0.0000    0.0000    0.00     0.0      0
2112 452189.000000   30.4570884209  114.6603076533    12.6450    1   10    0.0000    0.0000    0.0000    0.0000    0.0000    0.0000    0.00     0.0      0
2112 452190.000000   30.4570884216  114.6603076639    12.6460    1   10    0.0000    0.0000    0.0000    0.0000    0.0000    0.0000    0.00     0.0      0
2112 452191.000000   30.4570884228  114.6603076590    12.6460    1   10    0.0000    0.0000    0.0000    0.0000    0.0000    0.0000    0.00     0.0      0
2112 452192.000000   30.4570884253  114.6603076589    12.6460    1   10    0.0000    0.0000    0.0000    0.0000    0.0000    0.0000    0.00     0.0      0
2112 452193.000000   30.4570884253  114.6603076499    12.6470    1   10    0.0000    0.0000    0.0000    0.0000    0.0000    0.0000    0.00     0.0      0
2112 452194.000000   30.4570884273  114.6603076481    12.6470    1   10    0.0000    0.0000    0.0000    0.0000    0.0000    0.0000    0.00     0.0      0
2112 452195.000000   30.4570884342  114.6603076593    12.6470    1   10    0.0000    0.0000    0.0000    0.0000    0.0000    0.0000    0.00     0.0      0
2112 452196.000000   30.4570884343  114.6603076720    12.6460    1   10    0.0000    0.0000    0.0000    0.0000    0.0000    0.0000    0.00     0.0      0
2112 452197.000000   30.4570884387  114.6603076705    12.6460    1   10    0.0000    0.0000    0.0000    0.0000    0.0000    0.0000    0.00     0.0      0
2112 452198.000000   30.4570884411  114.6603076730    12.6450    1   10    0.0000    0.0000    0.0000    0.0000    0.0000    0.0000    0.00     0.0      0
2112 452199.000000   30.4570884444  114.6603076764    12.6450    1   10    0.0000    0.0000    0.0000    0.0000    0.0000    0.0000    0.00     0.0      0
2112 452200.000000   30.4570884525  114.6603076708    12.6450    1   10    0.0000    0.0000    0.0000    0.0000    0.0000    0.0000    0.00     0.0      0
2112 452201.000000   30.4570884518  114.6603076738    12.6450    1   10    0.0000    0.0000    0.0000    0.0000    0.0000    0.0000    0.00     0.0      0
2112 452202.000000   30.4570884479  114.6603076729    12.6470    1   10    0.0000    0.0000    0.0000    0.0000    0.0000    0.0000    0.00     0.0      0
2112 452203.000000   30.4570884428  114.6603076781    12.6480    1   10    0.0000    0.0000    0.0000    0.0000    0.0000    0.0000    0.00     0.0      0
2112 452204.000000   30.4570884413  114.6603076720    12.6480    1   10    0.0000    0.0000    0.0000    0.0000    0.0000    0.0000    0.00     0.0      0
2112 452205.000000   30.4570884416  114.6603076733    12.6500    1   10    0.0000    0.0000    0.0000    0.0000    0.0000    0.0000    0.00     0.0      0
2112 452206.000000   30.4570884516  114.6603076729    12.6510    1   10    0.0000    0.0000    0.0000    0.0000    0.0000    0.0000    0.00     0.0      0
2112 452207.000000   30.4570884586  114.6603076699    12.6520    1   10    0.0000    0.0000    0.0000    0.0000    0.0000    0.0000    0.00     0.0      0
2112 452208.000000   30.4570884507  114.6603076716    12.6530    1   10    0.0000    0.0000    0.0000    0.0000    0.0000    0.0000    0.00     0.0      0
2112 452209.000000   30.4570884466  114.6603076736    12.6530    1   10    0.0000    0.0000    0.0000    0.0000    0.0000    0.0000    0.00     0.0      0
2112 452210.000000   30.4570884578  114.6603076729    12.6510    1   10    0.0000    0.0000    0.0000    0.0000    0.0000    0.0000    0.00     0.0      0
2112 452211.000000   30.4570884581  114.6603076766    12.6520    1   10    0.0000    0.0000    0.0000    0.0000    0.0000    0.0000    0.00     0.0      0
2112 452212.000000   30.4570884509  114.6603076722    12.6530    1   10    0.0000    0.0000    0.0000    0.0000    0.0000    0.0000    0.00     0.0      0
2112 452213.000000   30.4570884447  114.6603076603    12.6550    1   10    0.0000    0.0000    0.0000    0.0000    0.0000    0.0000    0.00     0.0      0
2112 452214.000000   30.4570884425  114.6603076673    12.6550    1   10    0.0000    0.0000    0.0000    0.0000    0.0000    0.0000    0.00     0.0      0
2112 452215.000000   30.4570884474  114.6603076654    12.6540    1   10    0.0000    0.0000    0.0000    0.0000    0.0000    0.0000    0.00     0.0      0
2112 452216.000000   30.4570884531  114.6603076669    12.6530    1   10    0.0000    0.0000    0.0000    0.0000    0.0000    0.0000    0.00     0.0      0
2112 452217.000000   30.4570884575  114.6603076692    12.6520    1   10    0.0000    0.0000    0.0000    0.0000    0.0000    0.0000    0.00     0.0      0
2112 452218.000000   30.4570884581  114.6603076721    12.6520    1   10    0.0000    0.0000    0.0000    0.0000    0.0000    0.0000    0.00     0.0      0
2112 452219.000000   30.4570884534  114.6603076791    12.6520    1   10    0.0000    0.0000    0.0000    0.0000    0.0000    0.0000    0.00     0.0      0
2112 452220.000000   30.4570884498  114.6603076798    12.6510    1   10    0.0000    0.0000    0.0000    0.0000    0.0000    0.0000    0.00     0.0      0
2112 452221.000000   30.4570884486  114.6603076686    12.6520    1   10    0.0000    0.0000    0.0000    0.0000    0.0000    0.0000    0.00     0.0      0
2112 452222.000000   30.4570884554  114.6603076671    12.6520    1   10    0.0000    0.0000    0.0000    0.0000    0.0000    0.0000    0.00     0.0      0
2112 452223.000000   30.4570884637  114.6603076717    12.6510    1   10    0.0000    0.0000    0.0000    0.0000    0.0000    0.0000    0.00     0.0      0
2112 452224.000000   30.4570884605  114.6603076690    12.6520    1   10    0.0000    0.0000    0.0000    0.0000    0.0000    0.0000    0.00     0.0      0
2112 452225.000000   30.4570884612  114.6603076680    12.6530    1   10    0.0000    0.0000    0.0000    0.0000    0.0000    0.0000    0.00     0.0      0
2112 452226.000000   30.4570884596  114.6603076619    12.6540    1   10    0.0000    0.0000    0.0000    0.0000    0.0000    0.0000    0.00     0.0      0
2112 452227.000000   30.4570884631  114.6603076715    12.6540    1   10    0.0000    0.0000    0.0000    0.0000    0.0000    0.0000    0.00     0.0      0
2112 452228.000000   30.4570884533  114.6603076736    12.6540    1   10    0.0000    0.0000    0.0000    0.0000    0.0000    0.0000    0.00     0.0      0
2112 452229.000000   30.4570884543  114.6603076683    12.6530    1   10    0.0000    0.0000    0.0000    0.0000    0.0000    0.0000    0.00     0.0      0
2112 452230.000000   30.4570884586  114.6603076781    12.6520    1   10    0.0000    0.0000    0.0000    0.0000    0.0000    0.0000    0.00     0.0      0
2112 452231.000000   30.4570884575  114.6603076769    12.6530    1   10    0.0000    0.0000    0.0000    0.0000    0.0000    0.0000    0.00     0.0      0
2112 452232.000000   30.4570884623  114.6603076819    12.6550    1   10    0.0000    0.0000    0.0000    0.0000    0.0000    0.0000    0.00     0.0      0
2112 452233.000000   30.4570884672  114.6603076775    12.6560    1   10    0.0000    0.0000    0.0000    0.0000    0.0000    0.0000    0.00     0.0      0
2112 452234.000000   30.4570884613  114.6603076641    12.6560    1   10    0.0000    0.0000    0.0000    0.0000    0.0000    0.0000    0.00     0.0      0
2112 452235.000000   30.4570884667  114.6603076636    12.6540    1   10    0.0000    0.0000    0.0000    0.0000    0.0000    0.0000    0.00     0.0      0
2112 452236.000000   30.4570884647  114.6603076725    12.6510    1   10    0.0000    0.0000    0.0000    0.0000    0.0000    0.0000    0.00     0.0      0
2112 452237.000000   30.4570884627  114.6603076906    12.6490    1   10    0.0000    0.0000    0.0000    0.0000    0.0000    0.0000    0.00     0.0      0
2112 452238.000000   30.4570884670  114.6603076931    12.6490    1   10    0.0000    0.0000    0.0000    0.0000    0.0000    0.0000    0.00     0.0      0
2112 452239.000000   30.4570884773  114.6603076888    12.6500    1   10    0.0000    0.0000    0.0000    0.0000    0.0000    0.0000    0.00     0.0      0
2112 452240.000000   30.4570884789  114.6603077023    12.6510    1   10    0.0000    0.0000    0.0000    0.0000    0.0000    0.0000    0.00     0.0      0
2112 452241.000000   30.4570884725  114.6603077071    12.6530    1   10    0.0000    0.0000    0.0000    0.0000    0.0000    0.0000    0.00     0.0      0
2112 452242.000000   30.4570884748  114.6603076982    12.6540    1   10    0.0000    0.0000    0.0000    0.0000    0.0000    0.0000    0.00     0.0      0
2112 452243.000000   30.4570884690  114.6603076957    12.6560    1   10    0.0000    0.0000    0.0000    0.0000    0.0000    0.0000    0.00     0.0      0
2112 452244.000000   30.4570884673  114.6603076983    12.6580    1   10    0.0000    0.0000    0.0000    0.0000    0.0000    0.0000    0.00     0.0      0
2112 452245.000000   30.4570884651  114.6603076908    12.6600    1   10    0.0000    0.0000    0.0000    0.0000    0.0000    0.0000    0.00     0.0      0
2112 452246.000000   30.4570884566  114.6603076978    12.6620    1   10    0.0000    0.0000    0.0000    0.0000    0.0000    0.0000    0.00     0.0      0
2112 452247.000000   30.4570884555  114.6603077020    12.6610    1   10    0.0000    0.0000    0.0000    0.0000    0.0000    0.0000    0.00     0.0      0
2112 452248.000000   30.4570884574  114.6603077046    12.6610    1   10    0.0000    0.0000    0.0000    0.0000    0.0000    0.0000    0.00     0.0      0
2112 452249.000000   30.4570884633  114.6603077039    12.6600    1   10    0.0000    0.0000    0.0000    0.0000    0.0000    0.0000    0.00     0.0      0
2112 452250.000000   30.4570884665  114.6603077011    12.6590    1   10    0.0000    0.0000    0.0000    0.0000    0.0000    0.0000    0.00     0.0      0
2112 452251.000000   30.4570884661  114.6603077060    12.6600    1   10    0.0000    0.0000    0.0000    0.0000    0.0000    0.0000    0.00     0.0      0
2112 452252.000000   30.4570884686  114.6603077013    12.6610    1   10    0.0000    0.0000    0.0000    0.0000    0.0000    0.0000    0.00     0.0      0
2112 452253.000000   30.4570884687  114.6603077048    12.6630    1   10    0.0000    0.0000    0.0000    0.0000    0.0000    0.0000    0.00     0.0      0
2112 452254.000000   30.4570884702  114.6603077165    12.6630    1   10    0.0000    0.0000    0.0000    0.0000    0.0000    0.0000    0.00     0.0      0
2112 452255.000000   30.4570884672  114.6603077209    12.6630    1   10    0.0000    0.0000    0.0000    0.0000    0.0000    0.0000    0.00     0.0      0
2112 452256.000000   30.4570884650  114.6603077220    12.6630    1   10    0.0000    0.0000    0.0000    0.0000    0.0000    0.0000    0.00     0.0      0
2112 452257.000000   30.4570884650  114.6603077269    12.6630    1   10    0.0000    0.0000    0.0000    0.0000    0.0000    0.0000    0.00     0.0      0
2112 452258.000000   30.4570884685  114.6603077314    12.6640    1   10    0.0000    0.0000    0.0000    0.0000    0.0000    0.0000    0.00     0.0      0
2112 452259.000000   30.4570884643  114.6603077220    12.6650    1   10    0.0000    0.0000    0.0000    0.0000    0.0000    0.0000    0.00     0.0      0
2112 452260.000000   30.4570884673  114.6603077281    12.6650    1   10    0.0000    0.0000    0.0000    0.0000    0.0000    0.0000    0.00     0.0      0
2112 452261.000000   30.4570884646  114.6603077288    12.6640    1   10    0.0000    0.0000    0.0000    0.0000    0.0000    0.0000    0.00     0.0      0
2112 452262.000000   30.4570884672  114.6603077290    12.6620    1   10    0.0000    0.0000    0.0000    0.0000    0.0000    0.0000    0.00     0.0      0
2112 452263.000000   30.4570884751  114.6603077330    12.6590    1   10    0.0000    0.0000    0.0000    0.0000    0.0000    0.0000    0.00     0.0      0
2112 452264.000000   30.4570884777  114.6603077399    12.6590    1   10    0.0000    0.0000    0.0000    0.0000    0.0000    0.0000    0.00     0.0      0
2112 452265.000000   30.4570884713  114.6603077425    12.6620    1   10    0.0000    0.0000    0.0000    0.0000    0.0000    0.0000    0.00     0.0      0
2112 452266.000000   30.4570884717  114.6603077339    12.6650    1   10    0.0000    0.0000    0.0000    0.0000    0.0000    0.0000    0.00     0.0      0
2112 452267.000000   30.4570884661  114.6603077345    12.6670    1   10    0.0000    0.0000    0.0000    0.0000    0.0000    0.0000    0.00     0.0      0
2112 452268.000000   30.4570884595  114.6603077452    12.6660    1   10    0.0000    0.0000    0.0000    0.0000    0.0000    0.0000    0.00     0.0      0
2112 452269.000000   30.4570884582  114.6603077458    12.6640    1   10    0.0000    0.0000    0.0000    0.0000    0.0000    0.0000    0.00     0.0      0
2112 452270.000000   30.4570884590  114.6603077458    12.6630    1   10    0.0000    0.0000    0.0000    0.0000    0.0000    0.0000    0.00     0.0      0
2112 452271.000000   30.4570884611  114.6603077472    12.6640    1   10    0.0000    0.0000    0.0000    0.0000    0.0000    0.0000    0.00     0.0      0
2112 452272.000000   30.4570884579  114.6603077516    12.6630    1   10    0.0000    0.0000    0.0000    0.0000    0.0000    0.0000    0.00     0.0      0
2112 452273.000000   30.4570884663  114.6603077541    12.6630    1   10    0.0000    0.0000    0.0000    0.0000    0.0000    0.0000    0.00     0.0      0
2112 452274.000000   30.4570884707  114.6603077487    12.6650    1   10    0.0000    0.0000    0.0000    0.0000    0.0000    0.0000    0.00     0.0      0
2112 452275.000000   30.4570884693  114.6603077514    12.6660    1   10    0.0000    0.0000    0.0000    0.0000    0.0000    0.0000    0.00     0.0      0
2112 452276.000000   30.4570884613  114.6603077454    12.6670    1   10    0.0000    0.0000    0.0000    0.0000    0.0000    0.0000    0.00     0.0      0
2112 452277.000000   30.4570884547  114.6603077499    12.6670    1   10    0.0000    0.0000    0.0000    0.0000    0.0000    0.0000    0.00     0.0      0
2112 452278.000000   30.4570884573  114.6603077558    12.6680    1   10    0.0000    0.0000    0.0000    0.0000    0.0000    0.0000    0.00     0.0      0
2112 452279.000000   30.4570884599  114.6603077548    12.6690    1   10    0.0000    0.0000    0.0000    0.0000    0.0000    0.0000    0.00     0.0      0
2112 452280.000000   30.4570884564  114.6603077565    12.6690    1   10    0.0000    0.0000    0.0000    0.0000    0.0000    0.0000    0.00     0.0      0
2112 452281.000000   30.4570884565  114.6603077592    12.6700    1   10    0.0000    0.0000    0.0000    0.0000    0.0000    0.0000    0.00     0.0      0
2112 452282.000000   30.4570884530  114.6603077688    12.6710    1   10    0.0000    0.0000    0.0000    0.0000    0.0000    0.0000    0.00     0.0      0
2112 452283.000000   30.4570884542  114.6603077707    12.6710    1   10    0.0000    0.0000    0.0000    0.0000    0.0000    0.0000    0.00     0.0      0
2112 452284.000000   30.4570884547  114.6603077626    12.6720    1   10    0.0000    0.0000    0.0000    0.0000    0.0000    0.0000    0.00     0.0      0
2112 452285.000000   30.4570884607  114.6603077666    12.6710    1   10    0.0000    0.0000    0.0000    0.0000    0.0000    0.0000    0.00     0.0      0
2112 452286.000000   30.4570884633  114.6603077714    12.6700    1   10    0.0000    0.0000    0.0000    0.0000    0.0000    0.0000    0.00     0.0      0
2112 452287.000000   30.4570884612  114.6603077729    12.6680    1   10    0.0000    0.0000    0.0000    0.0000    0.0000    0.0000    0.00     0.0      0
2112 452288.000000   30.4570884576  114.6603077664    12.6680    1   10    0.0000    0.0000    0.0000    0.0000    0.0000    0.0000    0.00     0.0      0
2112 452289.000000   30.4570884525  114.6603077507    12.6690    1   10    0.0000    0.0000    0.0000    0.0000    0.0000    0.0000    0.00     0.0      0
2112 452290.000000   30.4570884517  114.6603077580    12.6690    1   10    0.0000    0.0000    0.0000    0.0000    0.0000    0.0000    0.00     0.0      0
2112 452291.000000   30.4570884549  114.6603077638    12.6700    1   10    0.0000    0.0000    0.0000    0.0000    0.0000    0.0000    0.00     0.0      0
2112 452292.000000   30.4570884594  114.6603077534    12.6700    1   10    0.0000    0.0000    0.0000    0.0000    0.0000    0.0000    0.00     0.0      0
2112 452293.000000   30.4570884614  114.6603077559    12.6690    1   10    0.0000    0.0000    0.0000    0.0000    0.0000    0.0000    0.00     0.0      0
2112 452294.000000   30.4570884546  114.6603077572    12.6710    1   10    0.0000    0.0000    0.0000    0.0000    0.0000    0.0000    0.00     0.0      0
2112 452295.000000   30.4570884560  114.6603077537    12.6740    1   10    0.0000    0.0000    0.0000    0.0000    0.0000    0.0000    0.00     0.0      0
2112 452296.000000   30.4570884584  114.6603077751    12.6800    1   10    0.0000    0.0000    0.0000    0.0000    0.0000    0.0000    0.00     0.0      0
2112 452297.000000   30.4570884577  114.6603078318    12.6870    1   10    0.0000    0.0000    0.0000    0.0000    0.0000    0.0000    0.00     0.0      0
2112 452298.000000   30.4570884621  114.6603078503    12.6890    1   10    0.0000    0.0000    0.0000    0.0000    0.0000    0.0000    0.00     0.0      0
2112 452299.000000   30.4570884631  114.6603077846    12.6820    1   10    0.0000    0.0000    0.0000    0.0000    0.0000    0.0000    0.00     0.0      0
2112 452300.000000   30.4570884708  114.6603077353    12.6730    1   10    0.0000    0.0000    0.0000    0.0000    0.0000    0.0000    0.00     0.0      0
2112 452301.000000   30.4570884756  114.6603077361    12.6690    1   10    0.0000    0.0000    0.0000    0.0000    0.0000    0.0000    0.00     0.0      0
2112 452302.000000   30.4570884750  114.6603077393    12.6700    1   10    0.0000    0.0000    0.0000    0.0000    0.0000    0.0000    0.00     0.0      0
2112 452303.000000   30.4570884685  114.6603077391    12.6720    1   10    0.0000    0.0000    0.0000    0.0000    0.0000    0.0000    0.00     0.0      0
2112 452304.000000   30.4570884705  114.6603077501    12.6730    1   10    0.0000    0.0000    0.0000    0.0000    0.0000    0.0000    0.00     0.0      0
2112 452305.000000   30.4570884719  114.6603077520    12.6730    1   10    0.0000    0.0000    0.0000    0.0000    0.0000    0.0000    0.00     0.0      0
2112 452306.000000   30.4570884635  114.6603077585    12.6740    1   10    0.0000    0.0000    0.0000    0.0000    0.0000    0.0000    0.00     0.0      0
2112 452307.000000   30.4570884551  114.6603077606    12.6760    1   10    0.0000    0.0000    0.0000    0.0000    0.0000    0.0000    0.00     0.0      0
2112 452308.000000   30.4570884572  114.6603077680    12.6770    1   10    0.0000    0.0000    0.0000    0.0000    0.0000    0.0000    0.00     0.0      0
2112 452309.000000   30.4570884738  114.6603077766    12.6780    1   10    0.0000    0.0000    0.0000    0.0000    0.0000    0.0000    0.00     0.0      0
2112 452310.000000   30.4570884697  114.6603077724    12.6790    1   10    0.0000    0.0000    0.0000    0.0000    0.0000    0.0000    0.00     0.0      0
2112 452311.000000   30.4570884680  114.6603077701    12.6790    1   10    0.0000    0.0000    0.0000    0.0000    0.0000    0.0000    0.00     0.0      0
2112 452312.000000   30.4570884711  114.6603077744    12.6800    1   10    0.0000    0.0000    0.0000    0.0000    0.0000    0.0000    0.00     0.0      0
2112 452313.000000   30.4570884701  114.6603077768    12.6810    1   10    0.0000    0.0000    0.0000    0.0000    0.0000    0.0000    0.00     0.0      0
2112 452314.000000   30.4570884742  114.6603077783    12.6810    1   10    0.0000    0.0000    0.0000    0.0000    0.0000    0.0000    0.00     0.0      0
2112 452315.000000   30.4570884787  114.6603077895    12.6810    1   10    0.0000    0.0000    0.0000    0.0000    0.0000    0.0000    0.00     0.0      0
2112 452316.000000   30.4570884803  114.6603077819    12.6800    1   10    0.0000    0.0000    0.0000    0.0000    0.0000    0.0000    0.00     0.0      0
2112 452317.000000   30.4570884785  114.6603077802    12.6810    1   10    0.0000    0.0000    0.0000    0.0000    0.0000    0.0000    0.00     0.0      0
2112 452318.000000   30.4570884781  114.6603077650    12.6830    1   10    0.0000    0.0000    0.0000    0.0000    0.0000    0.0000    0.00     0.0      0
2112 452319.000000   30.4570884723  114.6603077683    12.6840    1   10    0.0000    0.0000    0.0000    0.0000    0.0000    0.0000    0.00     0.0      0
2112 452320.000000   30.4570884646  114.6603077660    12.6850    1   10    0.0000    0.0000    0.0000    0.0000    0.0000    0.0000    0.00     0.0      0
2112 452321.000000   30.4570884617  114.6603077636    12.6860    1   10    0.0000    0.0000    0.0000    0.0000    0.0000    0.0000    0.00     0.0      0
2112 452322.000000   30.4570884657  114.6603077777    12.6860    1   10    0.0000    0.0000    0.0000    0.0000    0.0000    0.0000    0.00     0.0      0
2112 452323.000000   30.4570884677  114.6603077726    12.6870    1   10    0.0000    0.0000    0.0000    0.0000    0.0000    0.0000    0.00     0.0      0
2112 452324.000000   30.4570884684  114.6603077671    12.6880    1   10    0.0000    0.0000    0.0000    0.0000    0.0000    0.0000    0.00     0.0      0
2112 452325.000000   30.4570884642  114.6603077624    12.6870    1   10    0.0000    0.0000    0.0000    0.0000    0.0000    0.0000    0.00     0.0      0
2112 452326.000000   30.4570884539  114.6603077573    12.6870    1   10    0.0000    0.0000    0.0000    0.0000    0.0000    0.0000    0.00     0.0      0
2112 452327.000000   30.4570884598  114.6603077626    12.6870    1   10    0.0000    0.0000    0.0000    0.0000    0.0000    0.0000    0.00     0.0      0
2112 452328.000000   30.4570884693  114.6603077611    12.6870    1   10    0.0000    0.0000    0.0000    0.0000    0.0000    0.0000    0.00     0.0      0
2112 452329.000000   30.4570884789  114.6603077525    12.6860    1   10    0.0000    0.0000    0.0000    0.0000    0.0000    0.0000    0.00     0.0      0
2112 452330.000000   30.4570884793  114.6603077475    12.6850    1   10    0.0000    0.0000    0.0000    0.0000    0.0000    0.0000    0.00     0.0      0
2112 452331.000000   30.4570884742  114.6603077536    12.6840    1   10    0.0000    0.0000    0.0000    0.0000    0.0000    0.0000    0.00     0.0      0
2112 452332.000000   30.4570884685  114.6603077499    12.6840    1   10    0.0000    0.0000    0.0000    0.0000    0.0000    0.0000    0.00     0.0      0
2112 452333.000000   30.4570884817  114.6603077539    12.6850    1   10    0.0000    0.0000    0.0000    0.0000    0.0000    0.0000    0.00     0.0      0
2112 452334.000000   30.4570884820  114.6603077489    12.6840    1   10    0.0000    0.0000    0.0000    0.0000    0.0000    0.0000    0.00     0.0      0
2112 452335.000000   30.4570884714  114.6603077452    12.6850    1   10    0.0000    0.0000    0.0000    0.0000    0.0000    0.0000    0.00     0.0      0
2112 452336.000000   30.4570884758  114.6603077302    12.6860    1   10    0.0000    0.0000    0.0000    0.0000    0.0000    0.0000    0.00     0.0      0
2112 452337.000000   30.4570884786  114.6603077255    12.6860    1   10    0.0000    0.0000    0.0000    0.0000    0.0000    0.0000    0.00     0.0      0
2112 452338.000000   30.4570884681  114.6603077295    12.6870    1   10    0.0000    0.0000    0.0000    0.0000    0.0000    0.0000    0.00     0.0      0
2112 452339.000000   30.4570884690  114.6603077347    12.6880    1   10    0.0000    0.0000    0.0000    0.0000    0.0000    0.0000    0.00     0.0      0
2112 452340.000000   30.4570884714  114.6603077409    12.6860    1   10    0.0000    0.0000    0.0000    0.0000    0.0000    0.0000    0.00     0.0      0
2112 452341.000000   30.4570884680  114.6603077341    12.6880    1   10    0.0000    0.0000    0.0000    0.0000    0.0000    0.0000    0.00     0.0      0
2112 452342.000000   30.4570884695  114.6603077348    12.6890    1   10    0.0000    0.0000    0.0000    0.0000    0.0000    0.0000    0.00     0.0      0
2112 452343.000000   30.4570884715  114.6603077396    12.6890    1   10    0.0000    0.0000    0.0000    0.0000    0.0000    0.0000    0.00     0.0      0
2112 452344.000000   30.4570884749  114.6603077332    12.6870    1   10    0.0000    0.0000    0.0000    0.0000    0.0000    0.0000    0.00     0.0      0
2112 452345.000000   30.4570884811  114.6603077298    12.6870    1   10    0.0000    0.0000    0.0000    0.0000    0.0000    0.0000    0.00     0.0      0
2112 452346.000000   30.4570884825  114.6603077259    12.6890    1   10    0.0000    0.0000    0.0000    0.0000    0.0000    0.0000    0.00     0.0      0
2112 452347.000000   30.4570884901  114.6603077256    12.6890    1   10    0.0000    0.0000    0.0000    0.0000    0.0000    0.0000    0.00     0.0      0
2112 452348.000000   30.4570884755  114.6603077247    12.6900    1   10    0.0000    0.0000    0.0000    0.0000    0.0000    0.0000    0.00     0.0      0
2112 452349.000000   30.4570884683  114.6603077265    12.6890    1   10    0.0000    0.0000    0.0000    0.0000    0.0000    0.0000    0.00     0.0      0
2112 452350.000000   30.4570884753  114.6603077187    12.6890    1   10    0.0000    0.0000    0.0000    0.0000    0.0000    0.0000    0.00     0.0      0
2112 452351.000000   30.4570884757  114.6603077287    12.6880    1   10    0.0000    0.0000    0.0000    0.0000    0.0000    0.0000    0.00     0.0      0
2112 452352.000000   30.4570884760  114.6603077309    12.6880    1   10    0.0000    0.0000    0.0000    0.0000    0.0000    0.0000    0.00     0.0      0
2112 452353.000000   30.4570884659  114.6603077207    12.6900    1   10    0.0000    0.0000    0.0000    0.0000    0.0000    0.0000    0.00     0.0      0
2112 452354.000000   30.4570884596  114.6603077128    12.6910    1   10    0.0000    0.0000    0.0000    0.0000    0.0000    0.0000    0.00     0.0      0
2112 452355.000000   30.4570884610  114.6603077101    12.6910    1   10    0.0000    0.0000    0.0000    0.0000    0.0000    0.0000    0.00     0.0      0
2112 452356.000000   30.4570884586  114.6603077122    12.6910    1   10    0.0000    0.0000    0.0000    0.0000    0.0000    0.0000    0.00     0.0      0
2112 452357.000000   30.4570884596  114.6603077191    12.6910    1   10    0.0000    0.0000    0.0000    0.0000    0.0000    0.0000    0.00     0.0      0
2112 452358.000000   30.4570884740  114.6603077149    12.6930    1   10    0.0000    0.0000    0.0000    0.0000    0.0000    0.0000    0.00     0.0      0
2112 452359.000000   30.4570884845  114.6603077110    12.6950    1   10    0.0000    0.0000    0.0000    0.0000    0.0000    0.0000    0.00     0.0      0
2112 452360.000000   30.4570884755  114.6603077174    12.6950    1   10    0.0000    0.0000    0.0000    0.0000    0.0000    0.0000    0.00     0.0      0
2112 452361.000000   30.4570884634  114.6603077227    12.6960    1   10    0.0000    0.0000    0.0000    0.0000    0.0000    0.0000    0.00     0.0      0
2112 452362.000000   30.4570884663  114.6603077280    12.6970    1   10    0.0000    0.0000    0.0000    0.0000    0.0000    0.0000    0.00     0.0      0
2112 452363.000000   30.4570884680  114.6603077295    12.6960    1   10    0.0000    0.0000    0.0000    0.0000    0.0000    0.0000    0.00     0.0      0
2112 452364.000000   30.4570884659  114.6603077175    12.6960    1   10    0.0000    0.0000    0.0000    0.0000    0.0000    0.0000    0.00     0.0      0
2112 452365.000000   30.4570884736  114.6603077147    12.6960    1   10    0.0000    0.0000    0.0000    0.0000    0.0000    0.0000    0.00     0.0      0
