% program   : RTKPOST
% ref pos   :  -2286267.8082   5003460.9063   3217166.0718
% (x/y/z-ecef=WGS84,Q=1:fix,2:float,3:sbas,4:dgps,5:single,6:ppp,ns=# of satellites)
%  GPST                      x-ecef(m)      y-ecef(m)      z-ecef(m)   Q  ns   sdx(m)   sdy(m)   sdz(m)  sdxy(m)  sdyz(m)  sdzx(m) age(s)  ratio  fixn
2020/07/03 05:32:40.000  -2295682.5478   5000419.6339   3215076.9089   1  13   0.0053   0.0113   0.0060  -0.0068   0.0075  -0.0048   0.00    9.4    13
2020/07/03 05:32:41.000  -2295682.5485   5000419.6343   3215076.9088   1  14   0.0051   0.0091   0.0051  -0.0061   0.0059  -0.0043   0.00    9.0    14
2020/07/03 05:32:42.000  -2295682.5382   5000419.6296   3215076.9238   1  14   0.0052   0.0099   0.0054  -0.0063   0.0065  -0.0045   0.00    9.9    14
2020/07/03 05:32:43.000  -2295682.4107   5000419.5571   3215077.1124   1  14   0.0052   0.0097   0.0053  -0.0063   0.0063  -0.0045   0.00    6.8    14
2020/07/03 05:32:44.000  -2295681.9955   5000419.4491   3215077.5743   1  14   0.0052   0.0100   0.0054  -0.0063   0.0065  -0.0045   0.00    5.9    14
2020/07/03 05:32:45.000  -2295681.2883   5000419.4039   3215078.1385   1  13   0.0053   0.0109   0.0058  -0.0067   0.0071  -0.0047   0.00    9.8    13
2020/07/03 05:32:46.000  -2295680.4094   5000419.4854   3215078.6789   1  14   0.0054   0.0156   0.0069  -0.0073   0.0096  -0.0050   0.00    6.8    14
2020/07/03 05:32:47.000  -2295679.3081   5000419.6669   3215079.2226   1  14   0.0053   0.0133   0.0063  -0.0068   0.0083  -0.0048   0.00    9.8    14
2020/07/03 05:32:48.000  -2295678.5829   5000419.8229   3215079.5561   1  14   0.0052   0.0123   0.0060  -0.0066   0.0078  -0.0046   0.00   12.3    14
2020/07/03 05:32:49.000  -2295678.2715   5000419.8812   3215079.6957   1  14   0.0052   0.0116   0.0058  -0.0065   0.0074  -0.0046   0.00   14.3    14
2020/07/03 05:32:50.000  -2295677.8033   5000419.9516   3215079.9102   1  14   0.0052   0.0092   0.0051  -0.0062   0.0060  -0.0044   0.00   16.2    14
2020/07/03 05:32:51.000  -2295676.9365   5000420.0661   3215080.3972   1  14   0.0051   0.0088   0.0051  -0.0061   0.0058  -0.0043   0.00   17.7    14
2020/07/03 05:32:52.000  -2295675.5343   5000420.1695   3215081.2685   1  15   0.0051   0.0088   0.0051  -0.0061   0.0058  -0.0043   0.00    3.5    15
2020/07/03 05:32:53.000  -2295673.6068   5000420.0848   3215082.8018   1  15   0.0051   0.0088   0.0051  -0.0061   0.0058  -0.0043   0.00    3.2    15
2020/07/03 05:32:54.000  -2295671.4779   5000419.6103   3215085.1078   1  15   0.0051   0.0088   0.0051  -0.0061   0.0058  -0.0043   0.00    3.0    15
2020/07/03 05:32:55.000  -2295669.4967   5000418.5503   3215088.1935   1  15   0.0050   0.0081   0.0049  -0.0058   0.0054  -0.0042   0.00    4.5    15
2020/07/03 05:32:56.000  -2295667.3823   5000416.9592   3215092.1888   1  15   0.0050   0.0082   0.0050  -0.0058   0.0055  -0.0042   0.00    6.8    15
2020/07/03 05:32:57.000  -2295665.1451   5000414.8664   3215097.0271   1  15   0.0050   0.0081   0.0049  -0.0057   0.0054  -0.0041   0.00    8.4    15
2020/07/03 05:32:58.000  -2295662.9315   5000412.3882   3215102.4282   1  15   0.0049   0.0080   0.0049  -0.0057   0.0054  -0.0041   0.00    2.9    15
2020/07/03 05:32:59.000  -2295660.6444   5000409.7981   3215108.1122   1  14   0.0052   0.0101   0.0052  -0.0062   0.0062  -0.0044   0.00    4.9    13
2020/07/03 05:33:00.000  -2295658.1710   5000407.1290   3215114.0142   1  12   0.0053   0.0130   0.0060  -0.0070   0.0080  -0.0048   0.00   22.1    12
2020/07/03 05:33:01.000  -2295655.6546   5000404.3721   3215120.1635   1  12   0.0053   0.0131   0.0060  -0.0070   0.0080  -0.0048   0.00   20.8    12
2020/07/03 05:33:02.000  -2295653.1670   5000401.3350   3215126.5178   1  12   0.0053   0.0131   0.0060  -0.0070   0.0080  -0.0048   0.00   20.7    12
2020/07/03 05:33:03.000  -2295650.7433   5000398.2506   3215133.0105   1  12   0.0053   0.0131   0.0060  -0.0070   0.0080  -0.0048   0.00   20.1    12
2020/07/03 05:33:04.000  -2295648.3750   5000395.1564   3215139.4505   1  12   0.0053   0.0131   0.0060  -0.0070   0.0080  -0.0048   0.00   19.7    12
2020/07/03 05:33:05.000  -2295646.0321   5000392.1157   3215145.7899   1  12   0.0053   0.0131   0.0060  -0.0070   0.0080  -0.0048   0.00   19.3    12
2020/07/03 05:33:06.000  -2295643.6797   5000389.1603   3215152.0595   1  12   0.0053   0.0131   0.0060  -0.0070   0.0080  -0.0048   0.00   19.2    12
2020/07/03 05:33:07.000  -2295641.2997   5000386.2400   3215158.2512   1  12   0.0053   0.0131   0.0060  -0.0070   0.0080  -0.0048   0.00   18.7    12
2020/07/03 05:33:08.000  -2295639.0337   5000383.3807   3215164.2200   1  10   0.0054   0.0226   0.0094  -0.0082   0.0140  -0.0056   0.00   16.0    10
2020/07/03 05:33:09.000  -2295636.8407   5000380.7495   3215169.8631   1  10   0.0055   0.0227   0.0094  -0.0083   0.0140  -0.0056   0.00   15.8    10
2020/07/03 05:33:10.000  -2295634.6049   5000378.2363   3215175.3705   1  10   0.0055   0.0227   0.0094  -0.0083   0.0141  -0.0056   0.00   15.5    10
2020/07/03 05:33:11.000  -2295632.3336   5000375.9218   3215180.5560   1  10   0.0055   0.0227   0.0094  -0.0083   0.0141  -0.0056   0.00   15.4    10
2020/07/03 05:33:12.000  -2295630.0484   5000373.7802   3215185.4839   1  10   0.0055   0.0227   0.0094  -0.0083   0.0140  -0.0056   0.00   15.2    10
2020/07/03 05:33:13.000  -2295627.6418   5000371.6628   3215190.5463   1  11   0.0055   0.0227   0.0094  -0.0083   0.0140  -0.0056   0.00   15.2    10
2020/07/03 05:33:14.000  -2295624.9803   5000369.3782   3215195.9885   1  11   0.0054   0.0226   0.0094  -0.0083   0.0140  -0.0056   0.00   15.1    10
2020/07/03 05:33:15.000  -2295622.2273   5000367.1769   3215201.4031   1  11   0.0054   0.0226   0.0094  -0.0083   0.0140  -0.0056   0.00   15.2    10
2020/07/03 05:33:16.000  -2295619.8335   5000365.3582   3215205.9413   1  11   0.0052   0.0175   0.0077  -0.0067   0.0109  -0.0047   0.00   15.3    10
2020/07/03 05:33:17.000  -2295618.3128   5000364.4247   3215208.4707   1  13   0.0051   0.0153   0.0071  -0.0061   0.0097  -0.0044   0.00   15.4    10
2020/07/03 05:33:18.000  -2295617.1381   5000363.7401   3215210.4057   1  13   0.0050   0.0133   0.0064  -0.0059   0.0084  -0.0044   0.00    2.6    13
2020/07/03 05:33:19.000  -2295615.7566   5000362.8447   3215212.7900   1  14   0.0050   0.0123   0.0061  -0.0058   0.0078  -0.0043   0.00    3.3    14
2020/07/03 05:33:20.000  -2295614.0166   5000361.4927   3215216.1291   1  14   0.0050   0.0116   0.0058  -0.0057   0.0074  -0.0043   0.00    4.0    14
2020/07/03 05:33:21.000  -2295612.1144   5000359.6485   3215220.3584   1  14   0.0049   0.0111   0.0057  -0.0056   0.0070  -0.0042   0.00    4.5    14
2020/07/03 05:33:22.000  -2295610.2300   5000357.2829   3215225.3260   1  14   0.0049   0.0107   0.0056  -0.0055   0.0068  -0.0042   0.00    5.0    14
2020/07/03 05:33:23.000  -2295608.4622   5000354.6250   3215230.7128   1  13   0.0048   0.0084   0.0051  -0.0051   0.0056  -0.0040   0.00    4.1    13
2020/07/03 05:33:24.000  -2295606.8396   5000352.1463   3215235.7278   1  13   0.0048   0.0084   0.0051  -0.0051   0.0055  -0.0040   0.00    4.4    13
2020/07/03 05:33:25.000  -2295605.2778   5000350.1389   3215239.9236   1  13   0.0048   0.0084   0.0051  -0.0051   0.0055  -0.0040   0.00    4.7    13
2020/07/03 05:33:26.000  -2295603.7910   5000348.7940   3215243.0791   1  13   0.0048   0.0084   0.0051  -0.0051   0.0055  -0.0040   0.00    4.9    13
2020/07/03 05:33:27.000  -2295602.3379   5000348.0390   3215245.3195   1  15   0.0048   0.0084   0.0051  -0.0051   0.0055  -0.0040   0.00    2.4    14
2020/07/03 05:33:28.000  -2295600.5256   5000347.6340   3215247.2289   1  15   0.0047   0.0073   0.0048  -0.0049   0.0050  -0.0038   0.00    2.3    15
2020/07/03 05:33:29.000  -2295598.1724   5000347.9715   3215248.3745   1  15   0.0046   0.0069   0.0047  -0.0048   0.0048  -0.0037   0.00    3.0    15
2020/07/03 05:33:30.000  -2295595.7280   5000349.0558   3215248.3792   1  14   0.0049   0.0083   0.0049  -0.0055   0.0055  -0.0040   0.00    3.4    14
2020/07/03 05:33:31.000  -2295593.6276   5000350.8536   3215247.0002   1  13   0.0049   0.0081   0.0049  -0.0054   0.0054  -0.0040   0.00    4.1    13
2020/07/03 05:33:32.000  -2295592.8006   5000353.2264   3215243.8855   1  13   0.0048   0.0074   0.0048  -0.0054   0.0051  -0.0039   0.00    4.6    13
2020/07/03 05:33:33.000  -2295593.3672   5000355.6912   3215239.5759   1  14   0.0047   0.0069   0.0047  -0.0051   0.0048  -0.0038   0.00    2.4    14
2020/07/03 05:33:34.000  -2295595.0576   5000358.2172   3215234.4888   1  14   0.0047   0.0069   0.0047  -0.0051   0.0048  -0.0038   0.00    2.5    14
2020/07/03 05:33:35.000  -2295597.3000   5000360.9583   3215228.6337   1  14   0.0047   0.0069   0.0047  -0.0051   0.0048  -0.0038   0.00    3.9    14
2020/07/03 05:33:36.000  -2295599.8264   5000364.0831   3215222.0177   1  15   0.0047   0.0069   0.0047  -0.0051   0.0048  -0.0038   0.00    5.3    14
2020/07/03 05:33:37.000  -2295602.5990   5000367.4722   3215214.7713   1  16   0.0047   0.0069   0.0047  -0.0051   0.0048  -0.0038   0.00    6.6    14
2020/07/03 05:33:38.000  -2295605.5808   5000371.1480   3215207.0274   1  15   0.0052   0.0094   0.0054  -0.0064   0.0063  -0.0045   0.00    2.2    14
2020/07/03 05:33:39.000  -2295608.6491   5000374.9778   3215198.9515   1  15   0.0052   0.0105   0.0053  -0.0063   0.0065  -0.0045   0.00    2.6    13
2020/07/03 05:33:40.000  -2295611.7733   5000378.9289   3215190.5828   1  13   0.0051   0.0107   0.0055  -0.0060   0.0067  -0.0044   0.00   10.7    12
2020/07/03 05:33:41.000  -2295615.0110   5000383.0564   3215181.8517   1  11   0.0050   0.0129   0.0064  -0.0054   0.0083  -0.0041   0.00   15.8    10
2020/07/03 05:33:42.000  -2295618.4199   5000387.3042   3215172.8594   1  12   0.0050   0.0125   0.0063  -0.0053   0.0080  -0.0040   0.00   15.9    10
2020/07/03 05:33:43.000  -2295621.9733   5000391.6546   3215163.6054   1  12   0.0050   0.0121   0.0062  -0.0052   0.0078  -0.0040   0.00   15.9    10
2020/07/03 05:33:44.000  -2295625.7293   5000396.1095   3215154.0247   1  11   0.0054   0.0171   0.0074  -0.0075   0.0105  -0.0051   0.00    2.1    11
2020/07/03 05:33:45.000  -2295629.7177   5000400.6964   3215144.0723   1  11   0.0054   0.0163   0.0071  -0.0074   0.0100  -0.0050   0.00    2.6    11
2020/07/03 05:33:46.000  -2295633.9367   5000405.4478   3215133.6904   1  12   0.0054   0.0158   0.0069  -0.0073   0.0097  -0.0050   0.00    2.3    12
2020/07/03 05:33:47.000  -2295638.3248   5000410.3227   3215123.0056   1  12   0.0054   0.0153   0.0068  -0.0072   0.0094  -0.0050   0.00    3.6    12
2020/07/03 05:33:48.000  -2295642.8415   5000415.2877   3215112.1412   1  12   0.0054   0.0150   0.0067  -0.0072   0.0092  -0.0050   0.00    4.1    12
2020/07/03 05:33:49.000  -2295647.5345   5000420.3931   3215100.9563   1  12   0.0054   0.0132   0.0061  -0.0070   0.0081  -0.0049   0.00    4.5    12
2020/07/03 05:33:50.000  -2295652.3657   5000425.5974   3215089.4727   1  13   0.0054   0.0132   0.0061  -0.0070   0.0081  -0.0049   0.00    4.9    12
2020/07/03 05:33:51.000  -2295657.2256   5000430.8204   3215077.9822   1  13   0.0053   0.0115   0.0056  -0.0066   0.0070  -0.0046   0.00    5.3    12
2020/07/03 05:33:52.000  -2295662.0873   5000436.0683   3215066.4386   1  13   0.0052   0.0109   0.0054  -0.0064   0.0067  -0.0045   0.00    5.7    12
2020/07/03 05:33:53.000  -2295666.9037   5000441.1981   3215054.9618   1  12   0.0054   0.0131   0.0060  -0.0070   0.0080  -0.0049   0.00    6.1    12
2020/07/03 05:33:54.000  -2295671.5591   5000446.2712   3215043.7673   1  11   0.0080   0.0161   0.0081  -0.0102   0.0107  -0.0075   0.00    9.9    11
2020/07/03 05:33:55.000  -2295676.1284   5000451.3930   3215032.5891   1  11   0.0080   0.0161   0.0081  -0.0102   0.0107  -0.0075   0.00   10.3    11
2020/07/03 05:33:56.000  -2295680.7177   5000456.6301   3215021.2685   1  11   0.0080   0.0161   0.0082  -0.0103   0.0107  -0.0075   0.00   10.8    11
2020/07/03 05:33:57.000  -2295685.2978   5000461.7494   3215009.9457   1  13   0.0080   0.0161   0.0081  -0.0103   0.0107  -0.0075   0.00   11.3    11
2020/07/03 05:33:58.000  -2295690.1249   5000466.7637   3214998.7932   1  11   0.0082   0.0142   0.0076  -0.0096   0.0096  -0.0073   0.00    2.3    11
2020/07/03 05:33:59.000  -2295695.0896   5000471.8139   3214987.4954   1  11   0.0081   0.0135   0.0074  -0.0094   0.0092  -0.0071   0.00    3.0    11
2020/07/03 05:34:00.000  -2295700.0421   5000477.0557   3214975.8898   1  12   0.0081   0.0131   0.0073  -0.0093   0.0090  -0.0071   0.00    2.7    12
2020/07/03 05:34:01.000  -2295705.0773   5000482.4215   3214964.0382   1  13   0.0081   0.0129   0.0072  -0.0092   0.0088  -0.0070   0.00    2.6    12
2020/07/03 05:34:02.000  -2295710.1483   5000487.7835   3214952.0894   1  13   0.0078   0.0127   0.0071  -0.0090   0.0087  -0.0069   0.00    4.2    12
2020/07/03 05:34:03.000  -2295715.1524   5000493.1672   3214940.1040   1  13   0.0077   0.0119   0.0068  -0.0087   0.0082  -0.0067   0.00    5.2    12
2020/07/03 05:34:04.000  -2295720.1481   5000498.6887   3214928.0397   1  13   0.0066   0.0108   0.0060  -0.0075   0.0071  -0.0057   0.00    2.1    13
2020/07/03 05:34:05.000  -2295725.1030   5000504.2837   3214915.9950   1  13   0.0062   0.0104   0.0057  -0.0071   0.0068  -0.0053   0.00    2.5    13
2020/07/03 05:34:06.000  -2295729.9866   5000509.7953   3214904.1074   1  13   0.0059   0.0102   0.0055  -0.0068   0.0065  -0.0050   0.00    3.1    13
2020/07/03 05:34:07.000  -2295734.8199   5000515.1999   3214892.2237   1  12   0.0058   0.0101   0.0055  -0.0067   0.0065  -0.0049   0.00    3.1    12
2020/07/03 05:34:08.000  -2295739.7310   5000520.7473   3214880.2093   1  12   0.0058   0.0111   0.0057  -0.0068   0.0070  -0.0050   0.00   25.6     9
2020/07/03 05:34:09.000  -2295744.5875   5000526.4398   3214868.0092   1  15   0.0057   0.0110   0.0057  -0.0067   0.0069  -0.0049   0.00    2.3    14
2020/07/03 05:34:10.000  -2295749.3780   5000532.2339   3214855.6641   1  15   0.0055   0.0097   0.0054  -0.0062   0.0063  -0.0046   0.00    2.3    15
2020/07/03 05:34:11.000  -2295754.0090   5000537.9709   3214843.4325   1  15   0.0053   0.0092   0.0052  -0.0060   0.0060  -0.0045   0.00    2.9    15
2020/07/03 05:34:12.000  -2295758.7299   5000543.7497   3214831.3338   1  14   0.0053   0.0089   0.0052  -0.0059   0.0059  -0.0044   0.00    3.5    14
2020/07/03 05:34:13.000  -2295763.4794   5000549.4992   3214819.1595   1  16   0.0052   0.0087   0.0051  -0.0058   0.0058  -0.0043   0.00    2.4    15
2020/07/03 05:34:14.000  -2295768.2667   5000555.3351   3214806.8560   1  15   0.0048   0.0071   0.0046  -0.0053   0.0048  -0.0039   0.00    4.5    14
2020/07/03 05:34:15.000  -2295773.1041   5000561.2082   3214794.4249   1  14   0.0069   0.0093   0.0059  -0.0074   0.0067  -0.0057   0.00   19.3    10
2020/07/03 05:34:16.000  -2295777.9278   5000567.1758   3214781.8346   1  14   0.0065   0.0086   0.0057  -0.0069   0.0063  -0.0054   0.00   19.7    10
2020/07/03 05:34:17.000  -2295782.8977   5000573.1661   3214769.1270   1  14   0.0064   0.0083   0.0056  -0.0067   0.0061  -0.0053   0.00    2.2    11
2020/07/03 05:34:18.000  -2295788.0131   5000579.1794   3214756.3114   1  14   0.0063   0.0082   0.0056  -0.0066   0.0060  -0.0052   0.00    2.5    11
2020/07/03 05:34:19.000  -2295793.1559   5000585.1731   3214743.4344   1  14   0.0063   0.0080   0.0055  -0.0065   0.0059  -0.0052   0.00    2.8    11
2020/07/03 05:34:20.000  -2295798.2360   5000591.3103   3214730.4401   1  14   0.0062   0.0079   0.0055  -0.0064   0.0058  -0.0051   0.00    3.2    11
2020/07/03 05:34:21.000  -2295803.2206   5000597.5679   3214717.2601   1  14   0.0062   0.0079   0.0055  -0.0064   0.0058  -0.0051   0.00    3.4    11
2020/07/03 05:34:22.000  -2295808.0867   5000603.9108   3214704.0369   1  14   0.0060   0.0072   0.0053  -0.0060   0.0054  -0.0049   0.00    4.0    12
2020/07/03 05:34:23.000  -2295812.9841   5000610.2223   3214690.8404   1  14   0.0060   0.0071   0.0053  -0.0060   0.0054  -0.0049   0.00    4.3    12
2020/07/03 05:34:24.000  -2295818.0163   5000616.5483   3214677.5434   1  14   0.0060   0.0071   0.0053  -0.0060   0.0054  -0.0049   0.00    4.6    12
2020/07/03 05:34:25.000  -2295823.1505   5000622.9381   3214664.0369   1  14   0.0060   0.0071   0.0053  -0.0060   0.0054  -0.0049   0.00    4.8    12
2020/07/03 05:34:26.000  -2295828.3908   5000629.4189   3214650.3531   1  14   0.0060   0.0071   0.0053  -0.0060   0.0054  -0.0049   0.00    5.1    12
2020/07/03 05:34:27.000  -2295833.6666   5000635.9119   3214636.5898   1  14   0.0060   0.0071   0.0053  -0.0060   0.0053  -0.0049   0.00    6.0    13
2020/07/03 05:34:28.000  -2295838.9060   5000642.4461   3214622.8106   1  14   0.0060   0.0071   0.0053  -0.0060   0.0053  -0.0049   0.00    6.2    13
2020/07/03 05:34:29.000  -2295844.1439   5000649.0794   3214608.8626   1  14   0.0064   0.0073   0.0056  -0.0063   0.0057  -0.0053   0.00    8.1    13
2020/07/03 05:34:30.000  -2295849.4099   5000655.7464   3214594.7936   1  14   0.0064   0.0073   0.0056  -0.0063   0.0057  -0.0053   0.00    8.5    12
2020/07/03 05:34:31.000  -2295854.6788   5000662.4444   3214580.7065   1  14   0.0062   0.0072   0.0054  -0.0062   0.0055  -0.0051   0.00    2.4    13
2020/07/03 05:34:32.000  -2295859.9680   5000669.1262   3214566.6069   1  14   0.0061   0.0071   0.0054  -0.0061   0.0054  -0.0050   0.00    3.0    13
2020/07/03 05:34:33.000  -2295865.3211   5000675.7738   3214552.5966   1  14   0.0061   0.0070   0.0053  -0.0061   0.0054  -0.0050   0.00    3.6    13
2020/07/03 05:34:34.000  -2295870.7620   5000682.4247   3214538.4862   1  14   0.0061   0.0070   0.0053  -0.0061   0.0054  -0.0050   0.00    4.2    13
2020/07/03 05:34:35.000  -2295876.2798   5000689.1087   3214524.2874   1  14   0.0061   0.0070   0.0053  -0.0060   0.0054  -0.0050   0.00    4.8    13
2020/07/03 05:34:36.000  -2295881.8579   5000695.8357   3214509.8889   1  14   0.0060   0.0070   0.0052  -0.0060   0.0053  -0.0049   0.00    5.4    13
2020/07/03 05:34:37.000  -2295887.4810   5000702.6676   3214495.3877   1  14   0.0060   0.0070   0.0052  -0.0060   0.0053  -0.0049   0.00    6.0    13
2020/07/03 05:34:38.000  -2295893.0149   5000709.5042   3214480.9190   1  14   0.0060   0.0070   0.0052  -0.0060   0.0053  -0.0049   0.00    6.5    13
2020/07/03 05:34:39.000  -2295898.4783   5000716.3736   3214466.4030   1  14   0.0060   0.0070   0.0052  -0.0060   0.0053  -0.0049   0.00    7.0    13
2020/07/03 05:34:40.000  -2295903.9327   5000723.3197   3214451.7788   1  14   0.0060   0.0070   0.0052  -0.0060   0.0053  -0.0049   0.00    7.5    13
2020/07/03 05:34:41.000  -2295909.3545   5000730.2741   3214437.1501   1  14   0.0060   0.0070   0.0052  -0.0060   0.0053  -0.0049   0.00    7.9    13
2020/07/03 05:34:42.000  -2295914.7441   5000737.2288   3214422.5617   1  14   0.0060   0.0070   0.0052  -0.0060   0.0053  -0.0049   0.00    8.2    13
2020/07/03 05:34:43.000  -2295920.1889   5000744.1783   3214407.9523   1  14   0.0060   0.0070   0.0052  -0.0060   0.0053  -0.0049   0.00    8.6    13
2020/07/03 05:34:44.000  -2295925.7923   5000751.2249   3214393.2748   1  14   0.0060   0.0070   0.0052  -0.0060   0.0053  -0.0049   0.00    8.9    13
2020/07/03 05:34:45.000  -2295931.3876   5000758.2752   3214378.4064   1  14   0.0060   0.0070   0.0052  -0.0060   0.0053  -0.0049   0.00    9.4    13
2020/07/03 05:34:46.000  -2295936.7822   5000765.4249   3214363.7017   1  14   0.0060   0.0070   0.0052  -0.0060   0.0053  -0.0049   0.00    8.5    14
2020/07/03 05:34:47.000  -2295941.8038   5000772.6081   3214349.1701   1  14   0.0060   0.0070   0.0052  -0.0060   0.0053  -0.0049   0.00    8.8    14
2020/07/03 05:34:48.000  -2295946.5592   5000779.8102   3214334.8497   1  14   0.0060   0.0070   0.0052  -0.0060   0.0053  -0.0049   0.00    9.1    14
2020/07/03 05:34:49.000  -2295951.0033   5000787.0319   3214320.7019   1  16   0.0060   0.0070   0.0052  -0.0060   0.0053  -0.0049   0.00    9.3    14
2020/07/03 05:34:50.000  -2295954.9974   5000794.4366   3214306.7228   1  16   0.0059   0.0070   0.0052  -0.0059   0.0053  -0.0048   0.00    2.7    15
2020/07/03 05:34:51.000  -2295958.5757   5000801.9779   3214293.0036   1  16   0.0058   0.0069   0.0052  -0.0059   0.0053  -0.0048   0.00    3.5    15
2020/07/03 05:34:52.000  -2295961.5239   5000809.6351   3214279.5963   1  15   0.0053   0.0065   0.0048  -0.0053   0.0048  -0.0042   0.00   10.1    14
2020/07/03 05:34:53.000  -2295963.5744   5000817.4282   3214266.5438   1  15   0.0051   0.0063   0.0047  -0.0051   0.0046  -0.0040   0.00   10.3    14
2020/07/03 05:34:54.000  -2295964.6631   5000825.3087   3214253.7885   1  15   0.0049   0.0063   0.0047  -0.0050   0.0046  -0.0039   0.00   11.0    14
2020/07/03 05:34:55.000  -2295964.7977   5000833.4384   3214241.6070   1  15   0.0049   0.0070   0.0049  -0.0052   0.0051  -0.0040   0.00   15.6    13
2020/07/03 05:34:56.000  -2295964.1337   5000841.6618   3214229.8767   1  15   0.0049   0.0068   0.0048  -0.0051   0.0049  -0.0040   0.00   16.0    13
2020/07/03 05:34:57.000  -2295962.6483   5000849.8340   3214218.6099   1  14   0.0050   0.0076   0.0050  -0.0055   0.0054  -0.0042   0.00    2.5    13
2020/07/03 05:34:58.000  -2295960.6941   5000857.9013   3214207.9095   1  14   0.0050   0.0076   0.0050  -0.0055   0.0053  -0.0041   0.00    3.0    13
2020/07/03 05:34:59.000  -2295958.1648   5000865.7918   3214198.1357   1  14   0.0049   0.0075   0.0049  -0.0054   0.0053  -0.0041   0.00    3.4    13
2020/07/03 05:35:00.000  -2295955.1170   5000873.3131   3214189.0186   1  14   0.0049   0.0075   0.0049  -0.0054   0.0053  -0.0041   0.00    3.9    13
2020/07/03 05:35:01.000  -2295951.8931   5000880.4463   3214180.5658   1  14   0.0049   0.0075   0.0049  -0.0054   0.0052  -0.0041   0.00    4.4    13
2020/07/03 05:35:02.000  -2295948.6657   5000887.0503   3214172.9343   1  14   0.0049   0.0074   0.0048  -0.0054   0.0051  -0.0040   0.00    4.8    13
2020/07/03 05:35:03.000  -2295945.4100   5000893.1183   3214166.1028   1  14   0.0049   0.0074   0.0048  -0.0054   0.0051  -0.0040   0.00    5.3    13
2020/07/03 05:35:04.000  -2295942.1665   5000898.6335   3214160.0993   1  14   0.0049   0.0073   0.0048  -0.0053   0.0051  -0.0040   0.00    5.7    13
2020/07/03 05:35:05.000  -2295939.0071   5000903.6338   3214154.7970   1  14   0.0049   0.0073   0.0048  -0.0053   0.0051  -0.0040   0.00    6.2    13
2020/07/03 05:35:06.000  -2295936.0906   5000908.0226   3214150.2340   1  14   0.0049   0.0073   0.0048  -0.0053   0.0051  -0.0040   0.00    6.6    13
2020/07/03 05:35:07.000  -2295933.7950   5000911.5850   3214146.5599   1  15   0.0048   0.0073   0.0048  -0.0053   0.0051  -0.0040   0.00    7.0    13
2020/07/03 05:35:08.000  -2295932.5823   5000913.9479   3214143.8633   1  14   0.0062   0.0084   0.0057  -0.0067   0.0062  -0.0053   0.00    7.3    13
2020/07/03 05:35:09.000  -2295932.5257   5000915.3721   3214141.8535   1  13   0.0062   0.0084   0.0057  -0.0067   0.0062  -0.0053   0.00    7.7    13
2020/07/03 05:35:10.000  -2295933.4706   5000916.2112   3214140.0690   1  14   0.0062   0.0084   0.0057  -0.0067   0.0062  -0.0053   0.00    8.1    13
2020/07/03 05:35:11.000  -2295935.3928   5000916.3824   3214138.7002   1  14   0.0062   0.0084   0.0057  -0.0067   0.0062  -0.0053   0.00    8.4    13
2020/07/03 05:35:12.000  -2295938.0466   5000915.5362   3214138.3032   1  14   0.0062   0.0084   0.0057  -0.0067   0.0062  -0.0053   0.00    8.8    13
2020/07/03 05:35:13.000  -2295940.8681   5000913.4169   3214139.6034   1  15   0.0061   0.0080   0.0055  -0.0065   0.0059  -0.0051   0.00    2.1    14
2020/07/03 05:35:14.000  -2295943.4853   5000910.3258   3214142.4427   1  15   0.0061   0.0078   0.0055  -0.0064   0.0058  -0.0051   0.00    2.6    14
2020/07/03 05:35:15.000  -2295945.9417   5000906.6487   3214146.2416   1  15   0.0061   0.0078   0.0054  -0.0063   0.0058  -0.0051   0.00    3.1    14
2020/07/03 05:35:16.000  -2295948.3995   5000903.0265   3214149.9135   1  15   0.0055   0.0079   0.0052  -0.0060   0.0057  -0.0046   0.00    9.9    13
2020/07/03 05:35:17.000  -2295951.0687   5000899.6577   3214153.1779   1  15   0.0052   0.0071   0.0049  -0.0055   0.0051  -0.0043   0.00   10.1    13
2020/07/03 05:35:18.000  -2295953.5056   5000896.8730   3214155.7825   1  15   0.0051   0.0071   0.0048  -0.0054   0.0051  -0.0042   0.00    2.9    14
2020/07/03 05:35:19.000  -2295955.1149   5000894.9682   3214157.5373   1  15   0.0050   0.0071   0.0049  -0.0053   0.0051  -0.0041   0.00    3.5    14
2020/07/03 05:35:20.000  -2295956.1673   5000893.5147   3214159.0487   1  13   0.0051   0.0081   0.0053  -0.0056   0.0058  -0.0043   0.00   13.9    12
2020/07/03 05:35:21.000  -2295956.8047   5000892.4560   3214160.1658   1  14   0.0050   0.0081   0.0052  -0.0056   0.0058  -0.0042   0.00   13.9    12
2020/07/03 05:35:22.000  -2295957.0528   5000892.0399   3214160.6404   1  14   0.0050   0.0080   0.0052  -0.0056   0.0057  -0.0042   0.00   13.8    12
2020/07/03 05:35:23.000  -2295957.0537   5000892.0344   3214160.6413   1  14   0.0049   0.0077   0.0050  -0.0055   0.0055  -0.0041   0.00   13.7    12
2020/07/03 05:35:24.000  -2295957.0534   5000892.0342   3214160.6401   1  14   0.0049   0.0076   0.0050  -0.0054   0.0054  -0.0041   0.00    2.1    13
2020/07/03 05:35:25.000  -2295957.0521   5000892.0315   3214160.6388   1  14   0.0049   0.0075   0.0049  -0.0054   0.0053  -0.0041   0.00    2.4    13
2020/07/03 05:35:26.000  -2295957.0536   5000892.0330   3214160.6392   1  14   0.0049   0.0075   0.0049  -0.0054   0.0053  -0.0041   0.00    2.7    13
2020/07/03 05:35:27.000  -2295957.0512   5000892.0291   3214160.6369   1  14   0.0049   0.0075   0.0049  -0.0054   0.0052  -0.0040   0.00    3.0    13
2020/07/03 05:35:28.000  -2295957.0526   5000892.0314   3214160.6383   1  14   0.0049   0.0074   0.0049  -0.0054   0.0052  -0.0040   0.00    3.3    13
2020/07/03 05:35:29.000  -2295957.0508   5000892.0320   3214160.6400   1  14   0.0049   0.0073   0.0048  -0.0053   0.0051  -0.0040   0.00    3.6    13
2020/07/03 05:35:30.000  -2295957.0519   5000892.0325   3214160.6401   1  14   0.0049   0.0073   0.0048  -0.0053   0.0051  -0.0040   0.00    3.9    13
2020/07/03 05:35:31.000  -2295957.0512   5000892.0323   3214160.6409   1  14   0.0048   0.0073   0.0048  -0.0053   0.0051  -0.0040   0.00    4.2    13
2020/07/03 05:35:32.000  -2295957.0515   5000892.0307   3214160.6388   1  14   0.0048   0.0073   0.0048  -0.0053   0.0051  -0.0040   0.00    4.5    13
2020/07/03 05:35:33.000  -2295957.0505   5000892.0313   3214160.6385   1  14   0.0048   0.0073   0.0048  -0.0053   0.0051  -0.0040   0.00    4.7    13
2020/07/03 05:35:34.000  -2295957.0520   5000892.0296   3214160.6390   1  15   0.0048   0.0073   0.0048  -0.0053   0.0051  -0.0040   0.00    5.0    13
2020/07/03 05:35:35.000  -2295957.0524   5000892.0318   3214160.6390   1  15   0.0048   0.0073   0.0048  -0.0053   0.0051  -0.0040   0.00    5.2    13
2020/07/03 05:35:36.000  -2295957.0497   5000892.0291   3214160.6385   1  15   0.0048   0.0073   0.0048  -0.0053   0.0051  -0.0040   0.00    5.5    13
2020/07/03 05:35:37.000  -2295957.0534   5000892.0336   3214160.6404   1  15   0.0048   0.0069   0.0047  -0.0051   0.0049  -0.0039   0.00    5.7    13
2020/07/03 05:35:38.000  -2295957.0529   5000892.0347   3214160.6411   1  15   0.0048   0.0070   0.0048  -0.0051   0.0050  -0.0038   0.00    8.6    13
2020/07/03 05:35:39.000  -2295957.0521   5000892.0317   3214160.6395   1  15   0.0048   0.0070   0.0048  -0.0050   0.0050  -0.0038   0.00    2.2    13
2020/07/03 05:35:40.000  -2295957.0518   5000892.0280   3214160.6374   1  15   0.0047   0.0071   0.0049  -0.0051   0.0051  -0.0038   0.00    2.4    12
2020/07/03 05:35:41.000  -2295957.0528   5000892.0308   3214160.6395   1  15   0.0047   0.0069   0.0048  -0.0050   0.0049  -0.0038   0.00    2.6    12
2020/07/03 05:35:42.000  -2295957.0520   5000892.0289   3214160.6390   1  15   0.0047   0.0068   0.0047  -0.0050   0.0049  -0.0038   0.00    2.3    13
2020/07/03 05:35:43.000  -2295957.0502   5000892.0264   3214160.6356   1  15   0.0047   0.0068   0.0047  -0.0050   0.0048  -0.0038   0.00    2.5    13
2020/07/03 05:35:44.000  -2295957.0582   5000892.0518   3214160.6496   1  15   0.0047   0.0066   0.0046  -0.0049   0.0047  -0.0037   0.00    2.1    14
2020/07/03 05:35:45.000  -2295957.0589   5000892.0534   3214160.6511   1  15   0.0047   0.0066   0.0046  -0.0049   0.0046  -0.0037   0.00    2.3    14
2020/07/03 05:35:46.000  -2295957.0578   5000892.0512   3214160.6485   1  15   0.0047   0.0066   0.0046  -0.0049   0.0046  -0.0037   0.00    2.5    14
2020/07/03 05:35:47.000  -2295957.0564   5000892.0488   3214160.6491   1  15   0.0047   0.0066   0.0046  -0.0049   0.0046  -0.0038   0.00    2.6    14
2020/07/03 05:35:48.000  -2295957.1307   5000891.9193   3214160.7747   1  15   0.0047   0.0066   0.0046  -0.0049   0.0046  -0.0037   0.00    2.8    14
2020/07/03 05:35:49.000  -2295957.2366   5000891.7365   3214160.9839   1  15   0.0047   0.0066   0.0046  -0.0050   0.0046  -0.0038   0.00    2.9    14
2020/07/03 05:35:50.000  -2295957.2948   5000891.6165   3214161.1128   1  15   0.0047   0.0066   0.0046  -0.0050   0.0046  -0.0038   0.00    3.0    14
2020/07/03 05:35:51.000  -2295957.2945   5000891.6113   3214161.1141   1  15   0.0047   0.0066   0.0046  -0.0050   0.0046  -0.0038   0.00    3.1    14
2020/07/03 05:35:52.000  -2295957.2959   5000891.6124   3214161.1141   1  15   0.0047   0.0066   0.0046  -0.0050   0.0047  -0.0038   0.00    3.1    14
2020/07/03 05:35:53.000  -2295957.2950   5000891.6106   3214161.1133   1  15   0.0047   0.0066   0.0046  -0.0050   0.0047  -0.0038   0.00    3.2    14
2020/07/03 05:35:54.000  -2295957.2950   5000891.6103   3214161.1142   1  15   0.0047   0.0066   0.0046  -0.0050   0.0047  -0.0038   0.00    3.3    14
2020/07/03 05:35:55.000  -2295957.2919   5000891.6063   3214161.1116   1  15   0.0047   0.0066   0.0046  -0.0050   0.0046  -0.0038   0.00    3.3    14
2020/07/03 05:35:56.000  -2295957.2947   5000891.6092   3214161.1136   1  15   0.0047   0.0066   0.0046  -0.0050   0.0047  -0.0038   0.00    3.3    14
2020/07/03 05:35:57.000  -2295957.2954   5000891.6128   3214161.1152   1  15   0.0047   0.0066   0.0046  -0.0050   0.0047  -0.0038   0.00    3.3    14
2020/07/03 05:35:58.000  -2295957.2947   5000891.6087   3214161.1142   1  15   0.0047   0.0066   0.0046  -0.0050   0.0046  -0.0038   0.00    3.4    14
2020/07/03 05:35:59.000  -2295957.2962   5000891.6125   3214161.1158   1  15   0.0047   0.0066   0.0046  -0.0050   0.0047  -0.0038   0.00    3.4    14
2020/07/03 05:36:00.000  -2295957.2941   5000891.6092   3214161.1124   1  15   0.0047   0.0066   0.0046  -0.0050   0.0046  -0.0038   0.00    3.4    14
2020/07/03 05:36:01.000  -2295957.2944   5000891.6112   3214161.1141   1  15   0.0047   0.0066   0.0046  -0.0050   0.0047  -0.0038   0.00    3.4    14
2020/07/03 05:36:02.000  -2295957.2930   5000891.6059   3214161.1115   1  15   0.0047   0.0066   0.0046  -0.0050   0.0046  -0.0038   0.00    3.3    14
2020/07/03 05:36:03.000  -2295957.2929   5000891.6070   3214161.1122   1  15   0.0047   0.0066   0.0046  -0.0050   0.0047  -0.0038   0.00    3.3    14
2020/07/03 05:36:04.000  -2295957.2925   5000891.6072   3214161.1130   1  15   0.0047   0.0066   0.0046  -0.0050   0.0047  -0.0038   0.00    3.2    14
2020/07/03 05:36:05.000  -2295957.2948   5000891.6083   3214161.1137   1  15   0.0047   0.0066   0.0046  -0.0050   0.0046  -0.0038   0.00    3.2    14
2020/07/03 05:36:06.000  -2295957.2965   5000891.6111   3214161.1146   1  15   0.0047   0.0066   0.0046  -0.0050   0.0046  -0.0038   0.00    3.1    14
2020/07/03 05:36:07.000  -2295957.2932   5000891.6092   3214161.1162   1  15   0.0047   0.0066   0.0046  -0.0050   0.0046  -0.0038   0.00    3.1    14
2020/07/03 05:36:08.000  -2295957.2927   5000891.6068   3214161.1137   1  15   0.0047   0.0066   0.0046  -0.0050   0.0046  -0.0038   0.00    3.0    14
2020/07/03 05:36:09.000  -2295957.2913   5000891.6047   3214161.1131   1  15   0.0047   0.0066   0.0046  -0.0050   0.0046  -0.0038   0.00    3.0    14
2020/07/03 05:36:10.000  -2295957.2939   5000891.6100   3214161.1142   1  15   0.0047   0.0066   0.0046  -0.0050   0.0046  -0.0038   0.00    2.9    14
2020/07/03 05:36:11.000  -2295957.2917   5000891.6055   3214161.1142   1  15   0.0047   0.0066   0.0046  -0.0050   0.0046  -0.0038   0.00    2.9    14
2020/07/03 05:36:12.000  -2295957.2928   5000891.6074   3214161.1131   1  15   0.0047   0.0066   0.0046  -0.0050   0.0046  -0.0038   0.00    2.8    14
2020/07/03 05:36:13.000  -2295957.2935   5000891.6080   3214161.1113   1  15   0.0047   0.0066   0.0046  -0.0050   0.0046  -0.0038   0.00    2.8    14
2020/07/03 05:36:14.000  -2295957.2937   5000891.6062   3214161.1124   1  15   0.0047   0.0066   0.0046  -0.0050   0.0046  -0.0038   0.00    2.7    14
2020/07/03 05:36:15.000  -2295957.2917   5000891.6057   3214161.1119   1  15   0.0047   0.0066   0.0046  -0.0050   0.0046  -0.0038   0.00    2.7    14
2020/07/03 05:36:16.000  -2295957.2913   5000891.6036   3214161.1139   1  15   0.0047   0.0066   0.0046  -0.0050   0.0046  -0.0038   0.00    2.7    14
2020/07/03 05:36:17.000  -2295957.2956   5000891.6052   3214161.1176   1  15   0.0047   0.0066   0.0046  -0.0050   0.0046  -0.0038   0.00    2.7    15
2020/07/03 05:36:18.000  -2295957.2956   5000891.6016   3214161.1165   1  15   0.0047   0.0066   0.0045  -0.0050   0.0046  -0.0038   0.00    2.7    15
2020/07/03 05:36:19.000  -2295957.2916   5000891.5959   3214161.1163   1  15   0.0047   0.0066   0.0046  -0.0050   0.0046  -0.0038   0.00    2.6    15
2020/07/03 05:36:20.000  -2295957.2956   5000891.6021   3214161.1168   1  15   0.0047   0.0066   0.0046  -0.0050   0.0046  -0.0038   0.00    2.6    15
2020/07/03 05:36:21.000  -2295957.2963   5000891.6031   3214161.1199   1  15   0.0047   0.0066   0.0046  -0.0050   0.0046  -0.0038   0.00    2.6    15
2020/07/03 05:36:22.000  -2295957.3075   5000891.6155   3214161.1260   1  15   0.0046   0.0066   0.0045  -0.0049   0.0046  -0.0037   0.00    2.5    15
2020/07/03 05:36:23.000  -2295957.3092   5000891.6155   3214161.1283   1  15   0.0046   0.0065   0.0045  -0.0049   0.0046  -0.0037   0.00    2.5    15
2020/07/03 05:36:24.000  -2295957.3070   5000891.6138   3214161.1288   1  15   0.0046   0.0065   0.0045  -0.0049   0.0046  -0.0037   0.00    2.5    15
2020/07/03 05:36:25.000  -2295957.3077   5000891.6136   3214161.1279   1  15   0.0046   0.0065   0.0045  -0.0049   0.0046  -0.0037   0.00    2.5    15
2020/07/03 05:36:26.000  -2295957.3074   5000891.6127   3214161.1278   1  15   0.0046   0.0065   0.0045  -0.0049   0.0046  -0.0037   0.00    2.4    15
2020/07/03 05:36:27.000  -2295957.3117   5000891.6188   3214161.1325   1  15   0.0046   0.0065   0.0045  -0.0049   0.0046  -0.0037   0.00    2.4    15
2020/07/03 05:36:28.000  -2295957.3106   5000891.6181   3214161.1328   1  15   0.0046   0.0065   0.0045  -0.0049   0.0046  -0.0037   0.00    2.4    15
2020/07/03 05:36:29.000  -2295957.3108   5000891.6168   3214161.1320   1  15   0.0046   0.0066   0.0045  -0.0049   0.0046  -0.0037   0.00    2.3    15
2020/07/03 05:36:30.000  -2295957.3121   5000891.6189   3214161.1327   1  15   0.0046   0.0066   0.0045  -0.0049   0.0046  -0.0037   0.00    2.3    15
2020/07/03 05:36:31.000  -2295957.3119   5000891.6183   3214161.1331   1  15   0.0046   0.0065   0.0045  -0.0049   0.0046  -0.0037   0.00    2.3    15
2020/07/03 05:36:32.000  -2295957.3116   5000891.6186   3214161.1347   1  15   0.0046   0.0066   0.0045  -0.0049   0.0046  -0.0037   0.00    2.3    15
2020/07/03 05:36:33.000  -2295957.3101   5000891.6197   3214161.1351   1  15   0.0046   0.0066   0.0045  -0.0049   0.0046  -0.0037   0.00    2.2    15
2020/07/03 05:36:34.000  -2295957.3107   5000891.6182   3214161.1352   1  15   0.0046   0.0066   0.0045  -0.0049   0.0046  -0.0037   0.00    2.2    15
2020/07/03 05:36:35.000  -2295957.3103   5000891.6166   3214161.1355   1  15   0.0046   0.0066   0.0045  -0.0049   0.0046  -0.0037   0.00    2.2    15
2020/07/03 05:36:36.000  -2295957.3119   5000891.6186   3214161.1360   1  15   0.0046   0.0066   0.0045  -0.0049   0.0046  -0.0037   0.00    2.1    15
2020/07/03 05:36:37.000  -2295957.3099   5000891.6168   3214161.1357   1  15   0.0046   0.0066   0.0045  -0.0049   0.0046  -0.0037   0.00    2.1    15
2020/07/03 05:36:38.000  -2295957.3110   5000891.6167   3214161.1337   1  15   0.0046   0.0066   0.0045  -0.0049   0.0046  -0.0037   0.00    2.1    15
2020/07/03 05:36:39.000  -2295957.3084   5000891.6123   3214161.1314   1  15   0.0046   0.0065   0.0045  -0.0049   0.0046  -0.0037   0.00    2.0    14
2020/07/03 05:36:40.000  -2295957.3064   5000891.6074   3214161.1299   1  15   0.0046   0.0065   0.0045  -0.0049   0.0046  -0.0037   0.00    8.7    14
2020/07/03 05:36:41.000  -2295957.3085   5000891.6126   3214161.1325   1  15   0.0046   0.0065   0.0045  -0.0049   0.0046  -0.0037   0.00    8.7    14
2020/07/03 05:36:42.000  -2295957.3065   5000891.6088   3214161.1300   1  15   0.0046   0.0065   0.0045  -0.0049   0.0046  -0.0037   0.00    8.8    14
2020/07/03 05:36:43.000  -2295957.3077   5000891.6082   3214161.1304   1  15   0.0046   0.0065   0.0045  -0.0049   0.0046  -0.0037   0.00    8.8    14
2020/07/03 05:36:44.000  -2295957.3069   5000891.6106   3214161.1307   1  15   0.0046   0.0065   0.0045  -0.0049   0.0046  -0.0037   0.00    8.8    14
2020/07/03 05:36:45.000  -2295957.3078   5000891.6109   3214161.1309   1  15   0.0046   0.0065   0.0045  -0.0049   0.0046  -0.0037   0.00    8.9    14
2020/07/03 05:36:46.000  -2295957.3084   5000891.6133   3214161.1327   1  15   0.0046   0.0065   0.0045  -0.0049   0.0046  -0.0037   0.00    8.9    14
2020/07/03 05:36:47.000  -2295957.3068   5000891.6111   3214161.1327   1  15   0.0046   0.0065   0.0045  -0.0049   0.0046  -0.0037   0.00    8.9    14
2020/07/03 05:36:48.000  -2295957.3098   5000891.6141   3214161.1341   1  15   0.0046   0.0065   0.0045  -0.0049   0.0046  -0.0037   0.00    8.9    14
2020/07/03 05:36:49.000  -2295957.3100   5000891.6135   3214161.1338   1  15   0.0046   0.0065   0.0045  -0.0049   0.0046  -0.0037   0.00    8.9    14
2020/07/03 05:36:50.000  -2295957.3074   5000891.6097   3214161.1310   1  15   0.0046   0.0065   0.0045  -0.0049   0.0046  -0.0037   0.00    8.9    14
2020/07/03 05:36:51.000  -2295957.3088   5000891.6108   3214161.1328   1  15   0.0046   0.0065   0.0045  -0.0049   0.0046  -0.0037   0.00    8.9    14
2020/07/03 05:36:52.000  -2295957.3083   5000891.6111   3214161.1323   1  15   0.0046   0.0065   0.0045  -0.0049   0.0046  -0.0037   0.00    8.9    14
2020/07/03 05:36:53.000  -2295957.3086   5000891.6132   3214161.1328   1  15   0.0046   0.0065   0.0045  -0.0049   0.0046  -0.0037   0.00    8.8    14
2020/07/03 05:36:54.000  -2295957.3081   5000891.6108   3214161.1308   1  15   0.0046   0.0065   0.0045  -0.0049   0.0046  -0.0037   0.00    8.8    14
2020/07/03 05:36:55.000  -2295957.3098   5000891.6135   3214161.1332   1  15   0.0046   0.0065   0.0045  -0.0049   0.0046  -0.0037   0.00    8.8    14
2020/07/03 05:36:56.000  -2295957.3081   5000891.6132   3214161.1336   1  15   0.0046   0.0065   0.0045  -0.0049   0.0046  -0.0037   0.00    8.8    14
2020/07/03 05:36:57.000  -2295957.3092   5000891.6111   3214161.1337   1  15   0.0046   0.0065   0.0045  -0.0049   0.0046  -0.0037   0.00    8.8    14
2020/07/03 05:36:58.000  -2295957.3097   5000891.6135   3214161.1341   1  15   0.0046   0.0065   0.0045  -0.0049   0.0046  -0.0037   0.00    8.8    14
2020/07/03 05:36:59.000  -2295957.3087   5000891.6132   3214161.1331   1  15   0.0046   0.0065   0.0045  -0.0049   0.0046  -0.0037   0.00    8.8    14
2020/07/03 05:37:00.000  -2295957.3093   5000891.6112   3214161.1316   1  15   0.0046   0.0065   0.0045  -0.0049   0.0046  -0.0037   0.00    8.7    14
2020/07/03 05:37:01.000  -2295957.3094   5000891.6153   3214161.1352   1  15   0.0046   0.0065   0.0045  -0.0049   0.0046  -0.0037   0.00    8.7    14
2020/07/03 05:37:02.000  -2295957.3099   5000891.6141   3214161.1351   1  15   0.0046   0.0065   0.0045  -0.0049   0.0046  -0.0037   0.00    8.7    14
2020/07/03 05:37:03.000  -2295957.3107   5000891.6164   3214161.1364   1  15   0.0046   0.0065   0.0045  -0.0049   0.0046  -0.0037   0.00    8.7    14
2020/07/03 05:37:04.000  -2295957.3094   5000891.6163   3214161.1350   1  15   0.0046   0.0065   0.0045  -0.0049   0.0046  -0.0037   0.00    8.7    14
2020/07/03 05:37:05.000  -2295957.3111   5000891.6153   3214161.1361   1  15   0.0046   0.0065   0.0045  -0.0049   0.0046  -0.0037   0.00    8.7    14
2020/07/03 05:37:06.000  -2295957.3100   5000891.6160   3214161.1372   1  15   0.0046   0.0065   0.0045  -0.0049   0.0046  -0.0037   0.00    8.6    14
2020/07/03 05:37:07.000  -2295957.3099   5000891.6144   3214161.1358   1  15   0.0046   0.0065   0.0045  -0.0049   0.0046  -0.0037   0.00    8.6    14
2020/07/03 05:37:08.000  -2295957.3099   5000891.6155   3214161.1361   1  15   0.0046   0.0065   0.0045  -0.0049   0.0046  -0.0037   0.00    8.6    14
2020/07/03 05:37:09.000  -2295957.3117   5000891.6188   3214161.1363   1  15   0.0046   0.0065   0.0045  -0.0049   0.0046  -0.0037   0.00    8.6    14
2020/07/03 05:37:10.000  -2295957.3111   5000891.6170   3214161.1363   1  15   0.0046   0.0065   0.0045  -0.0049   0.0046  -0.0037   0.00    8.6    14
2020/07/03 05:37:11.000  -2295957.3101   5000891.6166   3214161.1357   1  15   0.0046   0.0065   0.0045  -0.0049   0.0046  -0.0037   0.00    8.6    14
2020/07/03 05:37:12.000  -2295957.3098   5000891.6138   3214161.1379   1  15   0.0046   0.0065   0.0045  -0.0049   0.0046  -0.0037   0.00    8.6    14
2020/07/03 05:37:13.000  -2295957.3094   5000891.6120   3214161.1346   1  15   0.0046   0.0065   0.0045  -0.0049   0.0046  -0.0037   0.00    8.6    14
2020/07/03 05:37:14.000  -2295957.3089   5000891.6149   3214161.1356   1  15   0.0046   0.0065   0.0045  -0.0049   0.0046  -0.0037   0.00    8.5    14
2020/07/03 05:37:15.000  -2295957.3090   5000891.6128   3214161.1343   1  15   0.0046   0.0065   0.0045  -0.0049   0.0046  -0.0037   0.00    8.5    14
2020/07/03 05:37:16.000  -2295957.3078   5000891.6108   3214161.1346   1  15   0.0046   0.0065   0.0045  -0.0049   0.0046  -0.0037   0.00    8.5    14
2020/07/03 05:37:17.000  -2295957.3087   5000891.6093   3214161.1333   1  15   0.0046   0.0065   0.0045  -0.0049   0.0046  -0.0037   0.00    8.5    14
2020/07/03 05:37:18.000  -2295957.3086   5000891.6088   3214161.1338   1  15   0.0046   0.0065   0.0045  -0.0049   0.0046  -0.0037   0.00    8.5    14
2020/07/03 05:37:19.000  -2295957.3079   5000891.6107   3214161.1347   1  15   0.0046   0.0065   0.0045  -0.0049   0.0046  -0.0037   0.00    8.5    14
2020/07/03 05:37:20.000  -2295957.3133   5000891.6188   3214161.1385   1  15   0.0046   0.0065   0.0045  -0.0049   0.0046  -0.0037   0.00    8.4    14
2020/07/03 05:37:21.000  -2295957.3159   5000891.6255   3214161.1415   1  15   0.0046   0.0065   0.0045  -0.0049   0.0046  -0.0037   0.00    8.4    14
2020/07/03 05:37:22.000  -2295957.3166   5000891.6257   3214161.1421   1  15   0.0046   0.0065   0.0045  -0.0049   0.0046  -0.0037   0.00    8.4    14
2020/07/03 05:37:23.000  -2295957.3118   5000891.6178   3214161.1384   1  15   0.0046   0.0065   0.0045  -0.0049   0.0046  -0.0037   0.00    8.4    14
2020/07/03 05:37:24.000  -2295957.3115   5000891.6150   3214161.1374   1  15   0.0046   0.0065   0.0045  -0.0049   0.0046  -0.0037   0.00    8.4    14
2020/07/03 05:37:25.000  -2295957.3108   5000891.6134   3214161.1359   1  15   0.0046   0.0065   0.0045  -0.0049   0.0046  -0.0037   0.00    8.4    14
2020/07/03 05:37:26.000  -2295957.3139   5000891.6199   3214161.1402   1  15   0.0046   0.0065   0.0045  -0.0049   0.0046  -0.0037   0.00    8.3    14
2020/07/03 05:37:27.000  -2295957.3125   5000891.6171   3214161.1372   1  15   0.0046   0.0065   0.0045  -0.0049   0.0046  -0.0037   0.00    8.3    14
2020/07/03 05:37:28.000  -2295957.3122   5000891.6157   3214161.1375   1  15   0.0046   0.0065   0.0045  -0.0049   0.0046  -0.0037   0.00    8.3    14
2020/07/03 05:37:29.000  -2295957.3103   5000891.6119   3214161.1356   1  15   0.0046   0.0065   0.0045  -0.0049   0.0046  -0.0037   0.00    8.3    14
2020/07/03 05:37:30.000  -2295957.3100   5000891.6124   3214161.1371   1  15   0.0046   0.0065   0.0045  -0.0049   0.0046  -0.0037   0.00    8.3    14
2020/07/03 05:37:31.000  -2295957.3135   5000891.6179   3214161.1384   1  15   0.0046   0.0065   0.0045  -0.0049   0.0046  -0.0037   0.00    8.3    14
2020/07/03 05:37:32.000  -2295957.3118   5000891.6161   3214161.1393   1  15   0.0046   0.0065   0.0045  -0.0049   0.0046  -0.0037   0.00    8.2    14
2020/07/03 05:37:33.000  -2295957.3109   5000891.6124   3214161.1358   1  15   0.0046   0.0065   0.0045  -0.0049   0.0046  -0.0037   0.00    8.2    14
2020/07/03 05:37:34.000  -2295957.3128   5000891.6152   3214161.1380   1  15   0.0046   0.0065   0.0045  -0.0049   0.0046  -0.0037   0.00    8.2    14
2020/07/03 05:37:35.000  -2295957.3120   5000891.6124   3214161.1370   1  15   0.0046   0.0065   0.0045  -0.0049   0.0046  -0.0037   0.00    8.2    14
2020/07/03 05:37:36.000  -2295957.3121   5000891.6116   3214161.1364   1  15   0.0046   0.0065   0.0045  -0.0049   0.0046  -0.0037   0.00    8.1    14
2020/07/03 05:37:37.000  -2295957.3127   5000891.6152   3214161.1375   1  15   0.0046   0.0065   0.0045  -0.0049   0.0046  -0.0037   0.00    8.1    14
2020/07/03 05:37:38.000  -2295957.3131   5000891.6145   3214161.1376   1  15   0.0046   0.0065   0.0045  -0.0049   0.0046  -0.0037   0.00    8.1    14
2020/07/03 05:37:39.000  -2295957.3111   5000891.6115   3214161.1367   1  15   0.0046   0.0065   0.0045  -0.0049   0.0046  -0.0037   0.00    8.1    14
2020/07/03 05:37:40.000  -2295957.3129   5000891.6134   3214161.1379   1  15   0.0046   0.0065   0.0045  -0.0049   0.0046  -0.0037   0.00    8.0    14
2020/07/03 05:37:41.000  -2295957.3125   5000891.6119   3214161.1369   1  15   0.0046   0.0065   0.0045  -0.0049   0.0046  -0.0037   0.00    8.0    14
2020/07/03 05:37:42.000  -2295957.3116   5000891.6116   3214161.1366   1  15   0.0046   0.0065   0.0045  -0.0049   0.0046  -0.0037   0.00    8.0    14
2020/07/03 05:37:43.000  -2295957.3121   5000891.6142   3214161.1383   1  15   0.0046   0.0065   0.0045  -0.0049   0.0046  -0.0037   0.00    8.0    14
2020/07/03 05:37:44.000  -2295957.3127   5000891.6138   3214161.1388   1  15   0.0046   0.0065   0.0045  -0.0049   0.0046  -0.0037   0.00    8.0    14
2020/07/03 05:37:45.000  -2295957.3126   5000891.6119   3214161.1365   1  15   0.0046   0.0065   0.0045  -0.0049   0.0046  -0.0037   0.00    7.9    14
2020/07/03 05:37:46.000  -2295957.3131   5000891.6142   3214161.1386   1  15   0.0046   0.0065   0.0045  -0.0049   0.0046  -0.0037   0.00    7.9    14
2020/07/03 05:37:47.000  -2295957.3138   5000891.6169   3214161.1396   1  15   0.0046   0.0065   0.0045  -0.0049   0.0046  -0.0037   0.00    7.9    14
2020/07/03 05:37:48.000  -2295957.3144   5000891.6168   3214161.1384   1  15   0.0046   0.0065   0.0045  -0.0049   0.0046  -0.0037   0.00    7.9    14
2020/07/03 05:37:49.000  -2295957.3144   5000891.6145   3214161.1382   1  15   0.0046   0.0065   0.0045  -0.0049   0.0046  -0.0037   0.00    7.9    14
2020/07/03 05:37:50.000  -2295957.3123   5000891.6130   3214161.1368   1  15   0.0046   0.0065   0.0045  -0.0049   0.0046  -0.0037   0.00    7.9    14
2020/07/03 05:37:51.000  -2295957.3132   5000891.6142   3214161.1374   1  15   0.0046   0.0065   0.0045  -0.0049   0.0046  -0.0037   0.00    7.9    14
2020/07/03 05:37:52.000  -2295957.3144   5000891.6142   3214161.1379   1  15   0.0046   0.0065   0.0045  -0.0049   0.0046  -0.0037   0.00    7.9    14
2020/07/03 05:37:53.000  -2295957.3145   5000891.6117   3214161.1377   1  15   0.0046   0.0065   0.0045  -0.0049   0.0046  -0.0037   0.00    7.8    14
2020/07/03 05:37:54.000  -2295957.3132   5000891.6139   3214161.1381   1  15   0.0046   0.0065   0.0045  -0.0049   0.0046  -0.0037   0.00    7.8    14
2020/07/03 05:37:55.000  -2295957.3133   5000891.6115   3214161.1382   1  15   0.0046   0.0065   0.0045  -0.0049   0.0046  -0.0037   0.00    7.8    14
2020/07/03 05:37:56.000  -2295957.3151   5000891.6168   3214161.1399   1  15   0.0046   0.0065   0.0045  -0.0049   0.0046  -0.0037   0.00    7.8    14
2020/07/03 05:37:57.000  -2295957.3161   5000891.6161   3214161.1391   1  15   0.0046   0.0065   0.0045  -0.0049   0.0046  -0.0037   0.00    7.8    14
2020/07/03 05:37:58.000  -2295957.3163   5000891.6199   3214161.1413   1  15   0.0046   0.0065   0.0045  -0.0049   0.0046  -0.0037   0.00    7.8    14
2020/07/03 05:37:59.000  -2295957.3151   5000891.6134   3214161.1382   1  15   0.0046   0.0065   0.0045  -0.0049   0.0046  -0.0037   0.00    7.8    14
2020/07/03 05:38:00.000  -2295957.3170   5000891.6184   3214161.1405   1  15   0.0046   0.0065   0.0045  -0.0049   0.0046  -0.0037   0.00    7.8    14
2020/07/03 05:38:01.000  -2295957.3174   5000891.6191   3214161.1410   1  15   0.0046   0.0065   0.0045  -0.0049   0.0046  -0.0037   0.00    7.8    14
2020/07/03 05:38:02.000  -2295957.3186   5000891.6210   3214161.1423   1  15   0.0046   0.0065   0.0045  -0.0049   0.0046  -0.0037   0.00    7.7    14
2020/07/03 05:38:03.000  -2295957.3177   5000891.6197   3214161.1420   1  15   0.0046   0.0065   0.0045  -0.0049   0.0046  -0.0037   0.00    7.7    14
2020/07/03 05:38:04.000  -2295957.3202   5000891.6233   3214161.1442   1  15   0.0046   0.0065   0.0045  -0.0049   0.0046  -0.0037   0.00    7.7    14
2020/07/03 05:38:05.000  -2295957.3182   5000891.6207   3214161.1430   1  15   0.0046   0.0065   0.0045  -0.0049   0.0046  -0.0037   0.00    7.7    14
2020/07/03 05:38:06.000  -2295957.3183   5000891.6162   3214161.1415   1  15   0.0046   0.0065   0.0045  -0.0049   0.0046  -0.0037   0.00    7.7    14
2020/07/03 05:38:07.000  -2295957.3182   5000891.6211   3214161.1437   1  15   0.0046   0.0065   0.0045  -0.0049   0.0046  -0.0037   0.00    7.7    14
2020/07/03 05:38:08.000  -2295957.3173   5000891.6168   3214161.1406   1  15   0.0046   0.0065   0.0045  -0.0049   0.0046  -0.0037   0.00    7.7    14
2020/07/03 05:38:09.000  -2295957.3163   5000891.6189   3214161.1413   1  15   0.0046   0.0065   0.0045  -0.0049   0.0046  -0.0037   0.00    7.7    14
2020/07/03 05:38:10.000  -2295957.3173   5000891.6166   3214161.1402   1  15   0.0046   0.0065   0.0045  -0.0049   0.0046  -0.0037   0.00    7.7    14
2020/07/03 05:38:11.000  -2295957.3176   5000891.6181   3214161.1413   1  15   0.0046   0.0065   0.0045  -0.0049   0.0046  -0.0037   0.00    7.7    14
2020/07/03 05:38:12.000  -2295957.3165   5000891.6180   3214161.1428   1  15   0.0046   0.0065   0.0045  -0.0049   0.0046  -0.0037   0.00    7.6    14
2020/07/03 05:38:13.000  -2295957.3180   5000891.6225   3214161.1445   1  15   0.0046   0.0065   0.0045  -0.0049   0.0046  -0.0037   0.00    7.6    14
2020/07/03 05:38:14.000  -2295957.3161   5000891.6158   3214161.1411   1  15   0.0046   0.0065   0.0045  -0.0049   0.0046  -0.0037   0.00    7.6    14
2020/07/03 05:38:15.000  -2295957.3164   5000891.6160   3214161.1418   1  15   0.0046   0.0065   0.0045  -0.0049   0.0046  -0.0037   0.00    7.6    14
2020/07/03 05:38:16.000  -2295957.3168   5000891.6184   3214161.1417   1  15   0.0046   0.0065   0.0045  -0.0049   0.0046  -0.0037   0.00    7.6    14
2020/07/03 05:38:17.000  -2295957.3199   5000891.6218   3214161.1470   1  15   0.0047   0.0066   0.0045  -0.0049   0.0046  -0.0037   0.00    7.6    14
2020/07/03 05:38:18.000  -2295957.3187   5000891.6052   3214161.1403   1  14   0.0048   0.0076   0.0049  -0.0053   0.0053  -0.0040   0.00    7.5    14
2020/07/03 05:38:19.000  -2295957.3105   5000891.5944   3214161.1333   1  14   0.0048   0.0079   0.0051  -0.0054   0.0056  -0.0040   0.00    7.6    13
2020/07/03 05:38:20.000  -2295957.3061   5000891.5895   3214161.1291   1  14   0.0048   0.0076   0.0049  -0.0053   0.0053  -0.0040   0.00    7.6    13
2020/07/03 05:38:21.000  -2295957.3073   5000891.5885   3214161.1306   1  14   0.0048   0.0075   0.0048  -0.0053   0.0052  -0.0039   0.00    7.6    13
2020/07/03 05:38:22.000  -2295957.3062   5000891.5896   3214161.1298   1  14   0.0048   0.0074   0.0048  -0.0053   0.0052  -0.0039   0.00    7.6    13
2020/07/03 05:38:23.000  -2295957.3083   5000891.5922   3214161.1328   1  14   0.0048   0.0074   0.0048  -0.0053   0.0052  -0.0039   0.00    7.6    13
2020/07/03 05:38:24.000  -2295957.3075   5000891.5886   3214161.1295   1  14   0.0048   0.0074   0.0048  -0.0053   0.0052  -0.0039   0.00    7.6    13
2020/07/03 05:38:25.000  -2295957.3072   5000891.5905   3214161.1301   1  14   0.0048   0.0074   0.0048  -0.0053   0.0051  -0.0039   0.00    7.7    13
2020/07/03 05:38:26.000  -2295957.3085   5000891.5912   3214161.1307   1  14   0.0048   0.0074   0.0048  -0.0053   0.0051  -0.0039   0.00    7.7    13
2020/07/03 05:38:27.000  -2295957.3089   5000891.5922   3214161.1320   1  15   0.0048   0.0074   0.0048  -0.0053   0.0051  -0.0039   0.00    7.7    13
2020/07/03 05:38:28.000  -2295957.3057   5000891.5877   3214161.1286   1  16   0.0048   0.0073   0.0047  -0.0053   0.0051  -0.0039   0.00    7.7    13
2020/07/03 05:38:29.000  -2295957.3064   5000891.5887   3214161.1311   1  16   0.0048   0.0073   0.0047  -0.0053   0.0051  -0.0039   0.00    7.7    13
2020/07/03 05:38:30.000  -2295957.3048   5000891.5868   3214161.1294   1  16   0.0048   0.0073   0.0047  -0.0053   0.0051  -0.0039   0.00    7.7    13
2020/07/03 05:38:31.000  -2295957.3067   5000891.5894   3214161.1309   1  16   0.0047   0.0069   0.0046  -0.0051   0.0048  -0.0038   0.00    7.7    13
2020/07/03 05:38:32.000  -2295957.3063   5000891.5880   3214161.1290   1  16   0.0047   0.0068   0.0046  -0.0050   0.0048  -0.0038   0.00    7.7    13
2020/07/03 05:38:33.000  -2295957.3063   5000891.5890   3214161.1307   1  16   0.0047   0.0067   0.0046  -0.0050   0.0047  -0.0038   0.00    7.7    13
2020/07/03 05:38:34.000  -2295957.3074   5000891.5899   3214161.1327   1  16   0.0047   0.0067   0.0045  -0.0050   0.0047  -0.0038   0.00    2.0    14
2020/07/03 05:38:35.000  -2295957.3069   5000891.5916   3214161.1319   1  16   0.0046   0.0067   0.0045  -0.0050   0.0047  -0.0038   0.00    2.1    14
2020/07/03 05:38:36.000  -2295957.3063   5000891.5900   3214161.1320   1  16   0.0046   0.0067   0.0045  -0.0050   0.0046  -0.0038   0.00    2.2    14
2020/07/03 05:38:37.000  -2295957.3078   5000891.5913   3214161.1313   1  16   0.0046   0.0066   0.0045  -0.0050   0.0046  -0.0037   0.00    2.4    14
2020/07/03 05:38:38.000  -2295957.3069   5000891.5919   3214161.1325   1  16   0.0046   0.0066   0.0045  -0.0050   0.0046  -0.0037   0.00    2.0    15
2020/07/03 05:38:39.000  -2295957.3078   5000891.5888   3214161.1311   1  16   0.0046   0.0066   0.0045  -0.0050   0.0046  -0.0037   0.00    2.1    15
2020/07/03 05:38:40.000  -2295957.3077   5000891.5911   3214161.1311   1  16   0.0046   0.0066   0.0045  -0.0050   0.0046  -0.0037   0.00    2.1    15
2020/07/03 05:38:41.000  -2295957.3091   5000891.5935   3214161.1318   1  16   0.0046   0.0066   0.0045  -0.0050   0.0046  -0.0037   0.00    2.2    15
2020/07/03 05:38:42.000  -2295957.3081   5000891.5888   3214161.1311   1  16   0.0048   0.0073   0.0047  -0.0053   0.0050  -0.0039   0.00    2.2    15
2020/07/03 05:38:43.000  -2295957.3097   5000891.5950   3214161.1328   1  16   0.0048   0.0073   0.0047  -0.0053   0.0050  -0.0039   0.00    2.3    15
2020/07/03 05:38:44.000  -2295957.3073   5000891.5922   3214161.1323   1  17   0.0048   0.0073   0.0047  -0.0053   0.0050  -0.0039   0.00    2.3    15
2020/07/03 05:38:45.000  -2295957.3070   5000891.5913   3214161.1317   1  17   0.0048   0.0073   0.0047  -0.0053   0.0050  -0.0039   0.00    2.4    15
2020/07/03 05:38:46.000  -2295957.3062   5000891.5907   3214161.1303   1  16   0.0048   0.0073   0.0047  -0.0053   0.0050  -0.0039   0.00    2.4    15
2020/07/03 05:38:47.000  -2295957.3062   5000891.5887   3214161.1301   1  15   0.0048   0.0073   0.0047  -0.0053   0.0050  -0.0039   0.00    2.5    15
2020/07/03 05:38:48.000  -2295957.3073   5000891.5908   3214161.1326   1  15   0.0048   0.0073   0.0047  -0.0053   0.0050  -0.0039   0.00    2.5    15
2020/07/03 05:38:49.000  -2295957.3040   5000891.5871   3214161.1306   1  15   0.0048   0.0073   0.0047  -0.0053   0.0050  -0.0039   0.00    2.6    15
2020/07/03 05:38:50.000  -2295957.3053   5000891.5886   3214161.1319   1  15   0.0048   0.0073   0.0047  -0.0053   0.0050  -0.0039   0.00    2.6    15
2020/07/03 05:38:51.000  -2295957.3053   5000891.5864   3214161.1312   1  15   0.0048   0.0073   0.0047  -0.0053   0.0050  -0.0039   0.00    2.6    15
2020/07/03 05:38:52.000  -2295957.3058   5000891.5884   3214161.1308   1  15   0.0048   0.0073   0.0047  -0.0053   0.0050  -0.0039   0.00    2.7    15
2020/07/03 05:38:53.000  -2295957.3043   5000891.5855   3214161.1303   1  15   0.0048   0.0073   0.0047  -0.0053   0.0050  -0.0039   0.00    2.7    15
2020/07/03 05:38:54.000  -2295957.3051   5000891.5871   3214161.1335   1  15   0.0048   0.0073   0.0047  -0.0053   0.0050  -0.0039   0.00    2.8    15
2020/07/03 05:38:55.000  -2295957.3051   5000891.5882   3214161.1326   1  15   0.0048   0.0073   0.0047  -0.0053   0.0050  -0.0039   0.00    2.8    15
2020/07/03 05:38:56.000  -2295957.3043   5000891.5881   3214161.1321   1  15   0.0048   0.0073   0.0047  -0.0053   0.0050  -0.0039   0.00    2.9    15
2020/07/03 05:38:57.000  -2295957.3034   5000891.5861   3214161.1314   1  15   0.0048   0.0073   0.0047  -0.0053   0.0050  -0.0039   0.00    2.9    15
2020/07/03 05:38:58.000  -2295957.3039   5000891.5881   3214161.1321   1  15   0.0048   0.0073   0.0047  -0.0053   0.0050  -0.0039   0.00    2.9    15
2020/07/03 05:38:59.000  -2295957.3053   5000891.5884   3214161.1330   1  15   0.0048   0.0073   0.0047  -0.0053   0.0050  -0.0039   0.00    3.0    15
2020/07/03 05:39:00.000  -2295957.3049   5000891.5877   3214161.1322   1  15   0.0048   0.0073   0.0047  -0.0053   0.0050  -0.0039   0.00    3.0    15
2020/07/03 05:39:01.000  -2295957.3039   5000891.5880   3214161.1318   1  15   0.0048   0.0073   0.0047  -0.0053   0.0050  -0.0039   0.00    3.1    15
2020/07/03 05:39:02.000  -2295957.3043   5000891.5886   3214161.1325   1  15   0.0048   0.0073   0.0047  -0.0053   0.0050  -0.0039   0.00    3.1    15
2020/07/03 05:39:03.000  -2295957.3064   5000891.5897   3214161.1344   1  15   0.0048   0.0073   0.0047  -0.0053   0.0050  -0.0039   0.00    3.1    15
2020/07/03 05:39:04.000  -2295957.3025   5000891.5846   3214161.1317   1  15   0.0048   0.0073   0.0047  -0.0053   0.0050  -0.0039   0.00    3.2    15
2020/07/03 05:39:05.000  -2295957.3025   5000891.5854   3214161.1318   1  15   0.0048   0.0073   0.0047  -0.0053   0.0050  -0.0039   0.00    3.2    15
2020/07/03 05:39:06.000  -2295957.3041   5000891.5868   3214161.1333   1  15   0.0048   0.0073   0.0047  -0.0053   0.0050  -0.0039   0.00    3.3    15
2020/07/03 05:39:07.000  -2295957.3028   5000891.5851   3214161.1330   1  15   0.0048   0.0073   0.0047  -0.0053   0.0050  -0.0039   0.00    3.3    15
2020/07/03 05:39:08.000  -2295957.3033   5000891.5870   3214161.1338   1  15   0.0048   0.0073   0.0047  -0.0053   0.0050  -0.0039   0.00    3.3    15
2020/07/03 05:39:09.000  -2295957.3024   5000891.5855   3214161.1319   1  15   0.0048   0.0073   0.0047  -0.0053   0.0050  -0.0039   0.00    3.4    15
2020/07/03 05:39:10.000  -2295957.3042   5000891.5881   3214161.1337   1  15   0.0048   0.0073   0.0047  -0.0053   0.0050  -0.0039   0.00    3.4    15
2020/07/03 05:39:11.000  -2295957.3038   5000891.5862   3214161.1323   1  15   0.0048   0.0073   0.0047  -0.0053   0.0050  -0.0039   0.00    3.5    15
2020/07/03 05:39:12.000  -2295957.3039   5000891.5869   3214161.1331   1  15   0.0048   0.0073   0.0047  -0.0053   0.0050  -0.0039   0.00    3.5    15
2020/07/03 05:39:13.000  -2295957.3027   5000891.5887   3214161.1327   1  15   0.0048   0.0073   0.0047  -0.0053   0.0050  -0.0039   0.00    3.5    15
2020/07/03 05:39:14.000  -2295957.3026   5000891.5867   3214161.1326   1  15   0.0048   0.0073   0.0047  -0.0053   0.0050  -0.0039   0.00    3.6    15
