% program   : RTKPOST
% ref pos   :
% (x/y/z-ecef=WGS84,Q=1:fix,2:float,3:sbas,4:dgps,5:single,6:ppp,ns=# of satellites)
%  GPST                 lat(deg)       lon(deg)        h(m)      Q   ns    sdx(m)    sdy(m)    sdz(m)    sdxy(m)   sdyz(m)   sdzx(m)   age(s)  ratio   fixn
2112 455554.000000   30.4875717490  114.5639935490    27.4510    1   10    0.0000    0.0000    0.0000    0.0000    0.0000    0.0000    0.00     0.0      0
2112 455555.000000   30.4875121918  114.5639673916    27.2910    1   10    0.0000    0.0000    0.0000    0.0000    0.0000    0.0000    0.00     0.0      0
2112 455556.000000   30.4874547264  114.5639433806    27.1710    1   10    0.0000    0.0000    0.0000    0.0000    0.0000    0.0000    0.00     0.0      0
2112 455557.000000   30.4873999898  114.5639212571    27.0740    1   10    0.0000    0.0000    0.0000    0.0000    0.0000    0.0000    0.00     0.0      0
2112 455558.000000   30.4873485734  114.5639000920    26.9580    1   10    0.0000    0.0000    0.0000    0.0000    0.0000    0.0000    0.00     0.0      0
2112 455559.000000   30.4873005135  114.5638799419    26.8620    1   10    0.0000    0.0000    0.0000    0.0000    0.0000    0.0000    0.00     0.0      0
2112 455560.000000   30.4872561443  114.5638610983    26.7780    1   10    0.0000    0.0000    0.0000    0.0000    0.0000    0.0000    0.00     0.0      0
2112 455561.000000   30.4872159757  114.5638438396    26.6970    1   10    0.0000    0.0000    0.0000    0.0000    0.0000    0.0000    0.00     0.0      0
2112 455562.000000   30.4871759604  114.5638263221    26.6190    1   10    0.0000    0.0000    0.0000    0.0000    0.0000    0.0000    0.00     0.0      0
2112 455563.000000   30.4871284973  114.5638050326    26.5280    1   10    0.0000    0.0000    0.0000    0.0000    0.0000    0.0000    0.00     0.0      0
2112 455564.000000   30.4870732668  114.5637797941    26.4310    1   10    0.0000    0.0000    0.0000    0.0000    0.0000    0.0000    0.00     0.0      0
2112 455565.000000   30.4870115845  114.5637509289    26.3080    1   10    0.0000    0.0000    0.0000    0.0000    0.0000    0.0000    0.00     0.0      0
2112 455566.000000   30.4869450009  114.5637189368    26.1730    1   10    0.0000    0.0000    0.0000    0.0000    0.0000    0.0000    0.00     0.0      0
2112 455567.000000   30.4868794484  114.5636865187    26.0410    1   10    0.0000    0.0000    0.0000    0.0000    0.0000    0.0000    0.00     0.0      0
2112 455568.000000   30.4868166630  114.5636555514    25.9170    1   10    0.0000    0.0000    0.0000    0.0000    0.0000    0.0000    0.00     0.0      0
2112 455569.000000   30.4867562668  114.5636279478    25.8090    1   10    0.0000    0.0000    0.0000    0.0000    0.0000    0.0000    0.00     0.0      0
2112 455570.000000   30.4866988217  114.5636040137    25.7090    1   10    0.0000    0.0000    0.0000    0.0000    0.0000    0.0000    0.00     0.0      0
2112 455571.000000   30.4866454392  114.5635834764    25.6100    1   10    0.0000    0.0000    0.0000    0.0000    0.0000    0.0000    0.00     0.0      0
2112 455572.000000   30.4865985581  114.5635657182    25.5110    1   10    0.0000    0.0000    0.0000    0.0000    0.0000    0.0000    0.00     0.0      0
2112 455573.000000   30.4865613901  114.5635514703    25.4350    1   10    0.0000    0.0000    0.0000    0.0000    0.0000    0.0000    0.00     0.0      0
2112 455574.000000   30.4865373130  114.5635422356    25.3930    1   10    0.0000    0.0000    0.0000    0.0000    0.0000    0.0000    0.00     0.0      0
2112 455575.000000   30.4865192254  114.5635352866    25.3600    1   10    0.0000    0.0000    0.0000    0.0000    0.0000    0.0000    0.00     0.0      0
2112 455576.000000   30.4865050063  114.5635298323    25.3310    1   10    0.0000    0.0000    0.0000    0.0000    0.0000    0.0000    0.00     0.0      0
2112 455577.000000   30.4864948555  114.5635259748    25.3160    1   10    0.0000    0.0000    0.0000    0.0000    0.0000    0.0000    0.00     0.0      0
2112 455578.000000   30.4864888424  114.5635236654    25.3020    1   10    0.0000    0.0000    0.0000    0.0000    0.0000    0.0000    0.00     0.0      0
2112 455579.000000   30.4864876586  114.5635232195    25.3000    1   10    0.0000    0.0000    0.0000    0.0000    0.0000    0.0000    0.00     0.0      0
2112 455580.000000   30.4864876735  114.5635232372    25.3000    1   10    0.0000    0.0000    0.0000    0.0000    0.0000    0.0000    0.00     0.0      0
2112 455581.000000   30.4864876586  114.5635232380    25.3000    1   10    0.0000    0.0000    0.0000    0.0000    0.0000    0.0000    0.00     0.0      0
2112 455582.000000   30.4864876601  114.5635232289    25.3000    1   10    0.0000    0.0000    0.0000    0.0000    0.0000    0.0000    0.00     0.0      0
2112 455583.000000   30.4864876632  114.5635232303    25.3000    1   10    0.0000    0.0000    0.0000    0.0000    0.0000    0.0000    0.00     0.0      0
2112 455584.000000   30.4864876659  114.5635232326    25.3000    1   10    0.0000    0.0000    0.0000    0.0000    0.0000    0.0000    0.00     0.0      0
2112 455585.000000   30.4864876675  114.5635232388    25.3010    1   10    0.0000    0.0000    0.0000    0.0000    0.0000    0.0000    0.00     0.0      0
2112 455586.000000   30.4864876657  114.5635232389    25.3000    1   10    0.0000    0.0000    0.0000    0.0000    0.0000    0.0000    0.00     0.0      0
2112 455587.000000   30.4864876715  114.5635232404    25.3000    1   10    0.0000    0.0000    0.0000    0.0000    0.0000    0.0000    0.00     0.0      0
2112 455588.000000   30.4864876729  114.5635232491    25.2990    1   10    0.0000    0.0000    0.0000    0.0000    0.0000    0.0000    0.00     0.0      0
2112 455589.000000   30.4864876694  114.5635232333    25.2990    1   10    0.0000    0.0000    0.0000    0.0000    0.0000    0.0000    0.00     0.0      0
2112 455590.000000   30.4864876701  114.5635232291    25.2980    1   10    0.0000    0.0000    0.0000    0.0000    0.0000    0.0000    0.00     0.0      0
2112 455591.000000   30.4864876705  114.5635232309    25.2980    1   10    0.0000    0.0000    0.0000    0.0000    0.0000    0.0000    0.00     0.0      0
2112 455592.000000   30.4864876697  114.5635232311    25.2960    1   10    0.0000    0.0000    0.0000    0.0000    0.0000    0.0000    0.00     0.0      0
2112 455593.000000   30.4864876718  114.5635232311    25.2950    1   10    0.0000    0.0000    0.0000    0.0000    0.0000    0.0000    0.00     0.0      0
2112 455594.000000   30.4864876754  114.5635232287    25.2960    1   10    0.0000    0.0000    0.0000    0.0000    0.0000    0.0000    0.00     0.0      0
2112 455595.000000   30.4864876770  114.5635232252    25.2960    1   10    0.0000    0.0000    0.0000    0.0000    0.0000    0.0000    0.00     0.0      0
2112 455596.000000   30.4864875049  114.5635231678    25.2970    1   10    0.0000    0.0000    0.0000    0.0000    0.0000    0.0000    0.00     0.0      0
2112 455597.000000   30.4864870861  114.5635230329    25.2970    1   10    0.0000    0.0000    0.0000    0.0000    0.0000    0.0000    0.00     0.0      0
2112 455598.000000   30.4864866164  114.5635228534    25.2960    1   10    0.0000    0.0000    0.0000    0.0000    0.0000    0.0000    0.00     0.0      0
2112 455599.000000   30.4864859981  114.5635226104    25.2920    1   10    0.0000    0.0000    0.0000    0.0000    0.0000    0.0000    0.00     0.0      0
2112 455600.000000   30.4864852648  114.5635223286    25.2900    1   10    0.0000    0.0000    0.0000    0.0000    0.0000    0.0000    0.00     0.0      0
2112 455601.000000   30.4864844061  114.5635220162    25.2900    1   10    0.0000    0.0000    0.0000    0.0000    0.0000    0.0000    0.00     0.0      0
2112 455602.000000   30.4864832839  114.5635216085    25.2900    1   10    0.0000    0.0000    0.0000    0.0000    0.0000    0.0000    0.00     0.0      0
2112 455603.000000   30.4864818254  114.5635210664    25.2860    1   10    0.0000    0.0000    0.0000    0.0000    0.0000    0.0000    0.00     0.0      0
2112 455604.000000   30.4864800434  114.5635204015    25.2800    1   10    0.0000    0.0000    0.0000    0.0000    0.0000    0.0000    0.00     0.0      0
2112 455605.000000   30.4864778889  114.5635196223    25.2740    1   10    0.0000    0.0000    0.0000    0.0000    0.0000    0.0000    0.00     0.0      0
2112 455606.000000   30.4864753911  114.5635187209    25.2680    1   10    0.0000    0.0000    0.0000    0.0000    0.0000    0.0000    0.00     0.0      0
2112 455607.000000   30.4864725099  114.5635176579    25.2640    1   10    0.0000    0.0000    0.0000    0.0000    0.0000    0.0000    0.00     0.0      0
2112 455608.000000   30.4864693628  114.5635165146    25.2560    1   10    0.0000    0.0000    0.0000    0.0000    0.0000    0.0000    0.00     0.0      0
2112 455609.000000   30.4864655721  114.5635151130    25.2440    1   10    0.0000    0.0000    0.0000    0.0000    0.0000    0.0000    0.00     0.0      0
2112 455610.000000   30.4864613306  114.5635137163    25.2380    1   10    0.0000    0.0000    0.0000    0.0000    0.0000    0.0000    0.00     0.0      0
2112 455611.000000   30.4864568550  114.5635124949    25.2330    1   10    0.0000    0.0000    0.0000    0.0000    0.0000    0.0000    0.00     0.0      0
2112 455612.000000   30.4864519637  114.5635113933    25.2270    1   10    0.0000    0.0000    0.0000    0.0000    0.0000    0.0000    0.00     0.0      0
2112 455613.000000   30.4864469248  114.5635105177    25.2190    1   10    0.0000    0.0000    0.0000    0.0000    0.0000    0.0000    0.00     0.0      0
2112 455614.000000   30.4864416417  114.5635096950    25.2070    1   10    0.0000    0.0000    0.0000    0.0000    0.0000    0.0000    0.00     0.0      0
2112 455615.000000   30.4864360356  114.5635088350    25.1930    1   10    0.0000    0.0000    0.0000    0.0000    0.0000    0.0000    0.00     0.0      0
2112 455616.000000   30.4864303167  114.5635079111    25.1800    1   10    0.0000    0.0000    0.0000    0.0000    0.0000    0.0000    0.00     0.0      0
2112 455617.000000   30.4864243297  114.5635070146    25.1710    1   10    0.0000    0.0000    0.0000    0.0000    0.0000    0.0000    0.00     0.0      0
2112 455618.000000   30.4864182421  114.5635061708    25.1610    1   10    0.0000    0.0000    0.0000    0.0000    0.0000    0.0000    0.00     0.0      0
2112 455619.000000   30.4864127970  114.5635054780    25.1520    1   10    0.0000    0.0000    0.0000    0.0000    0.0000    0.0000    0.00     0.0      0
2112 455620.000000   30.4864086572  114.5635048775    25.1470    1   10    0.0000    0.0000    0.0000    0.0000    0.0000    0.0000    0.00     0.0      0
2112 455621.000000   30.4864060515  114.5635045012    25.1420    1   10    0.0000    0.0000    0.0000    0.0000    0.0000    0.0000    0.00     0.0      0
2112 455622.000000   30.4864059587  114.5635044887    25.1440    1   10    0.0000    0.0000    0.0000    0.0000    0.0000    0.0000    0.00     0.0      0
2112 455623.000000   30.4864059566  114.5635044894    25.1430    1   10    0.0000    0.0000    0.0000    0.0000    0.0000    0.0000    0.00     0.0      0
2112 455624.000000   30.4864059616  114.5635044900    25.1410    1   10    0.0000    0.0000    0.0000    0.0000    0.0000    0.0000    0.00     0.0      0
2112 455625.000000   30.4864059685  114.5635044925    25.1400    1   10    0.0000    0.0000    0.0000    0.0000    0.0000    0.0000    0.00     0.0      0
2112 455626.000000   30.4864059686  114.5635044896    25.1400    1   10    0.0000    0.0000    0.0000    0.0000    0.0000    0.0000    0.00     0.0      0
2112 455627.000000   30.4864059658  114.5635044833    25.1400    1   10    0.0000    0.0000    0.0000    0.0000    0.0000    0.0000    0.00     0.0      0
2112 455628.000000   30.4864059671  114.5635044764    25.1420    1   10    0.0000    0.0000    0.0000    0.0000    0.0000    0.0000    0.00     0.0      0
2112 455629.000000   30.4864059692  114.5635044771    25.1430    1   10    0.0000    0.0000    0.0000    0.0000    0.0000    0.0000    0.00     0.0      0
2112 455630.000000   30.4864059698  114.5635044805    25.1430    1   10    0.0000    0.0000    0.0000    0.0000    0.0000    0.0000    0.00     0.0      0
2112 455631.000000   30.4864059728  114.5635044794    25.1430    1   10    0.0000    0.0000    0.0000    0.0000    0.0000    0.0000    0.00     0.0      0
2112 455632.000000   30.4864059656  114.5635044758    25.1430    1   10    0.0000    0.0000    0.0000    0.0000    0.0000    0.0000    0.00     0.0      0
2112 455633.000000   30.4864059624  114.5635044708    25.1440    1   10    0.0000    0.0000    0.0000    0.0000    0.0000    0.0000    0.00     0.0      0
2112 455634.000000   30.4864059649  114.5635044705    25.1450    1   10    0.0000    0.0000    0.0000    0.0000    0.0000    0.0000    0.00     0.0      0
2112 455635.000000   30.4864059588  114.5635044717    25.1460    1   10    0.0000    0.0000    0.0000    0.0000    0.0000    0.0000    0.00     0.0      0
2112 455636.000000   30.4864059547  114.5635044768    25.1460    1   10    0.0000    0.0000    0.0000    0.0000    0.0000    0.0000    0.00     0.0      0
2112 455637.000000   30.4864059482  114.5635044690    25.1460    1   10    0.0000    0.0000    0.0000    0.0000    0.0000    0.0000    0.00     0.0      0
2112 455638.000000   30.4864059427  114.5635044684    25.1490    1   10    0.0000    0.0000    0.0000    0.0000    0.0000    0.0000    0.00     0.0      0
2112 455639.000000   30.4864059338  114.5635044804    25.1500    1   10    0.0000    0.0000    0.0000    0.0000    0.0000    0.0000    0.00     0.0      0
2112 455640.000000   30.4864059341  114.5635044790    25.1510    1   10    0.0000    0.0000    0.0000    0.0000    0.0000    0.0000    0.00     0.0      0
2112 455641.000000   30.4864059395  114.5635044770    25.1520    1   10    0.0000    0.0000    0.0000    0.0000    0.0000    0.0000    0.00     0.0      0
2112 455642.000000   30.4864059386  114.5635044836    25.1510    1   10    0.0000    0.0000    0.0000    0.0000    0.0000    0.0000    0.00     0.0      0
2112 455643.000000   30.4864059335  114.5635044847    25.1490    1   10    0.0000    0.0000    0.0000    0.0000    0.0000    0.0000    0.00     0.0      0
2112 455644.000000   30.4864059324  114.5635044771    25.1480    1   10    0.0000    0.0000    0.0000    0.0000    0.0000    0.0000    0.00     0.0      0
2112 455645.000000   30.4864059291  114.5635044742    25.1480    1   10    0.0000    0.0000    0.0000    0.0000    0.0000    0.0000    0.00     0.0      0
2112 455646.000000   30.4864059234  114.5635044788    25.1490    1   10    0.0000    0.0000    0.0000    0.0000    0.0000    0.0000    0.00     0.0      0
2112 455647.000000   30.4864059170  114.5635044711    25.1500    1   10    0.0000    0.0000    0.0000    0.0000    0.0000    0.0000    0.00     0.0      0
2112 455648.000000   30.4864059265  114.5635044764    25.1500    1   10    0.0000    0.0000    0.0000    0.0000    0.0000    0.0000    0.00     0.0      0
2112 455649.000000   30.4864059268  114.5635044858    25.1500    1   10    0.0000    0.0000    0.0000    0.0000    0.0000    0.0000    0.00     0.0      0
2112 455650.000000   30.4864059354  114.5635044877    25.1500    1   10    0.0000    0.0000    0.0000    0.0000    0.0000    0.0000    0.00     0.0      0
2112 455651.000000   30.4864059374  114.5635044866    25.1480    1   10    0.0000    0.0000    0.0000    0.0000    0.0000    0.0000    0.00     0.0      0
2112 455652.000000   30.4864059357  114.5635044864    25.1470    1   10    0.0000    0.0000    0.0000    0.0000    0.0000    0.0000    0.00     0.0      0
2112 455653.000000   30.4864059306  114.5635044824    25.1470    1   10    0.0000    0.0000    0.0000    0.0000    0.0000    0.0000    0.00     0.0      0
2112 455654.000000   30.4864059369  114.5635044854    25.1460    1   10    0.0000    0.0000    0.0000    0.0000    0.0000    0.0000    0.00     0.0      0
2112 455655.000000   30.4864059433  114.5635044886    25.1460    1   10    0.0000    0.0000    0.0000    0.0000    0.0000    0.0000    0.00     0.0      0
2112 455656.000000   30.4864059484  114.5635044966    25.1450    1   10    0.0000    0.0000    0.0000    0.0000    0.0000    0.0000    0.00     0.0      0
2112 455657.000000   30.4864059515  114.5635044985    25.1470    1   10    0.0000    0.0000    0.0000    0.0000    0.0000    0.0000    0.00     0.0      0
2112 455658.000000   30.4864059344  114.5635044985    25.1490    1   10    0.0000    0.0000    0.0000    0.0000    0.0000    0.0000    0.00     0.0      0
2112 455659.000000   30.4864059325  114.5635044968    25.1490    1   10    0.0000    0.0000    0.0000    0.0000    0.0000    0.0000    0.00     0.0      0
2112 455660.000000   30.4864059394  114.5635044888    25.1480    1   10    0.0000    0.0000    0.0000    0.0000    0.0000    0.0000    0.00     0.0      0
2112 455661.000000   30.4864059372  114.5635044834    25.1480    1   10    0.0000    0.0000    0.0000    0.0000    0.0000    0.0000    0.00     0.0      0
2112 455662.000000   30.4864059349  114.5635044877    25.1480    1   10    0.0000    0.0000    0.0000    0.0000    0.0000    0.0000    0.00     0.0      0
2112 455663.000000   30.4864059358  114.5635044844    25.1480    1   10    0.0000    0.0000    0.0000    0.0000    0.0000    0.0000    0.00     0.0      0
2112 455664.000000   30.4864059427  114.5635044818    25.1480    1   10    0.0000    0.0000    0.0000    0.0000    0.0000    0.0000    0.00     0.0      0
2112 455665.000000   30.4864059478  114.5635044887    25.1470    1   10    0.0000    0.0000    0.0000    0.0000    0.0000    0.0000    0.00     0.0      0
2112 455666.000000   30.4864059399  114.5635044884    25.1480    1   10    0.0000    0.0000    0.0000    0.0000    0.0000    0.0000    0.00     0.0      0
2112 455667.000000   30.4864059331  114.5635044796    25.1480    1   10    0.0000    0.0000    0.0000    0.0000    0.0000    0.0000    0.00     0.0      0
2112 455668.000000   30.4864059378  114.5635044876    25.1490    1   10    0.0000    0.0000    0.0000    0.0000    0.0000    0.0000    0.00     0.0      0
2112 455669.000000   30.4864044377  114.5635043861    25.1510    1   10    0.0000    0.0000    0.0000    0.0000    0.0000    0.0000    0.00     0.0      0
2112 455670.000000   30.4863958649  114.5635043691    25.1440    1   10    0.0000    0.0000    0.0000    0.0000    0.0000    0.0000    0.00     0.0      0
2112 455671.000000   30.4863745509  114.5635060306    25.1140    1   10    0.0000    0.0000    0.0000    0.0000    0.0000    0.0000    0.00     0.0      0
2112 455672.000000   30.4863429690  114.5635087105    25.0610    1   10    0.0000    0.0000    0.0000    0.0000    0.0000    0.0000    0.00     0.0      0
2112 455673.000000   30.4863048087  114.5635104418    25.0010    1   10    0.0000    0.0000    0.0000    0.0000    0.0000    0.0000    0.00     0.0      0
2112 455674.000000   30.4862640861  114.5635108681    24.9380    1   10    0.0000    0.0000    0.0000    0.0000    0.0000    0.0000    0.00     0.0      0
2112 455675.000000   30.4862219508  114.5635096454    24.8670    1   10    0.0000    0.0000    0.0000    0.0000    0.0000    0.0000    0.00     0.0      0
2112 455676.000000   30.4861786772  114.5635072390    24.7980    1   10    0.0000    0.0000    0.0000    0.0000    0.0000    0.0000    0.00     0.0      0
2112 455677.000000   30.4861345594  114.5635050325    24.7160    1   10    0.0000    0.0000    0.0000    0.0000    0.0000    0.0000    0.00     0.0      0
2112 455678.000000   30.4860901037  114.5635045309    24.6330    1   10    0.0000    0.0000    0.0000    0.0000    0.0000    0.0000    0.00     0.0      0
2112 455679.000000   30.4860456634  114.5635047825    24.5600    1   10    0.0000    0.0000    0.0000    0.0000    0.0000    0.0000    0.00     0.0      0
2112 455680.000000   30.4860054725  114.5635047582    24.4940    1   10    0.0000    0.0000    0.0000    0.0000    0.0000    0.0000    0.00     0.0      0
2112 455681.000000   30.4859718667  114.5635047154    24.4380    1   10    0.0000    0.0000    0.0000    0.0000    0.0000    0.0000    0.00     0.0      0
2112 455682.000000   30.4859451435  114.5635039846    24.4000    1   10    0.0000    0.0000    0.0000    0.0000    0.0000    0.0000    0.00     0.0      0
2112 455683.000000   30.4859208922  114.5635019286    24.3610    1   10    0.0000    0.0000    0.0000    0.0000    0.0000    0.0000    0.00     0.0      0
2112 455684.000000   30.4858983124  114.5634993173    24.3200    1   10    0.0000    0.0000    0.0000    0.0000    0.0000    0.0000    0.00     0.0      0
2112 455685.000000   30.4858773713  114.5634974856    24.2750    1   10    0.0000    0.0000    0.0000    0.0000    0.0000    0.0000    0.00     0.0      0
2112 455686.000000   30.4858580856  114.5634963734    24.2340    1   10    0.0000    0.0000    0.0000    0.0000    0.0000    0.0000    0.00     0.0      0
2112 455687.000000   30.4858392667  114.5634956069    24.1950    1   10    0.0000    0.0000    0.0000    0.0000    0.0000    0.0000    0.00     0.0      0
2112 455688.000000   30.4858199955  114.5634951845    24.1620    1   10    0.0000    0.0000    0.0000    0.0000    0.0000    0.0000    0.00     0.0      0
2112 455689.000000   30.4858008616  114.5634951373    24.1240    1   10    0.0000    0.0000    0.0000    0.0000    0.0000    0.0000    0.00     0.0      0
2112 455690.000000   30.4857817371  114.5634954912    24.0820    1   10    0.0000    0.0000    0.0000    0.0000    0.0000    0.0000    0.00     0.0      0
2112 455691.000000   30.4857609059  114.5634963618    24.0380    1   10    0.0000    0.0000    0.0000    0.0000    0.0000    0.0000    0.00     0.0      0
2112 455692.000000   30.4857367219  114.5634980835    23.9940    1   10    0.0000    0.0000    0.0000    0.0000    0.0000    0.0000    0.00     0.0      0
2112 455693.000000   30.4857120619  114.5635003569    23.9540    1   10    0.0000    0.0000    0.0000    0.0000    0.0000    0.0000    0.00     0.0      0
2112 455694.000000   30.4856888574  114.5635025194    23.9270    1   10    0.0000    0.0000    0.0000    0.0000    0.0000    0.0000    0.00     0.0      0
2112 455695.000000   30.4856672893  114.5635043610    23.8970    1   10    0.0000    0.0000    0.0000    0.0000    0.0000    0.0000    0.00     0.0      0
2112 455696.000000   30.4856475082  114.5635058596    23.8630    1   10    0.0000    0.0000    0.0000    0.0000    0.0000    0.0000    0.00     0.0      0
2112 455697.000000   30.4856289706  114.5635074259    23.8340    1   10    0.0000    0.0000    0.0000    0.0000    0.0000    0.0000    0.00     0.0      0
2112 455698.000000   30.4856098553  114.5635091758    23.8030    1   10    0.0000    0.0000    0.0000    0.0000    0.0000    0.0000    0.00     0.0      0
2112 455699.000000   30.4855906883  114.5635110335    23.7760    1   10    0.0000    0.0000    0.0000    0.0000    0.0000    0.0000    0.00     0.0      0
2112 455700.000000   30.4855718434  114.5635129518    23.7440    1   10    0.0000    0.0000    0.0000    0.0000    0.0000    0.0000    0.00     0.0      0
2112 455701.000000   30.4855529195  114.5635149665    23.7090    1   10    0.0000    0.0000    0.0000    0.0000    0.0000    0.0000    0.00     0.0      0
2112 455702.000000   30.4855340301  114.5635171073    23.6760    1   10    0.0000    0.0000    0.0000    0.0000    0.0000    0.0000    0.00     0.0      0
2112 455703.000000   30.4855120004  114.5635196803    23.6400    1   10    0.0000    0.0000    0.0000    0.0000    0.0000    0.0000    0.00     0.0      0
2112 455704.000000   30.4854817874  114.5635232805    23.5940    1   10    0.0000    0.0000    0.0000    0.0000    0.0000    0.0000    0.00     0.0      0
2112 455705.000000   30.4854455193  114.5635276627    23.5360    1   10    0.0000    0.0000    0.0000    0.0000    0.0000    0.0000    0.00     0.0      0
2112 455706.000000   30.4854132745  114.5635315006    23.4910    1   10    0.0000    0.0000    0.0000    0.0000    0.0000    0.0000    0.00     0.0      0
2112 455707.000000   30.4853865923  114.5635343419    23.4650    1   10    0.0000    0.0000    0.0000    0.0000    0.0000    0.0000    0.00     0.0      0
2112 455708.000000   30.4853626625  114.5635364981    23.4460    1   10    0.0000    0.0000    0.0000    0.0000    0.0000    0.0000    0.00     0.0      0
2112 455709.000000   30.4853419398  114.5635380875    23.4280    1   10    0.0000    0.0000    0.0000    0.0000    0.0000    0.0000    0.00     0.0      0
2112 455710.000000   30.4853262014  114.5635395567    23.4130    1   10    0.0000    0.0000    0.0000    0.0000    0.0000    0.0000    0.00     0.0      0
2112 455711.000000   30.4853158104  114.5635405024    23.4010    1   10    0.0000    0.0000    0.0000    0.0000    0.0000    0.0000    0.00     0.0      0
2112 455712.000000   30.4853120617  114.5635408421    23.3950    1   10    0.0000    0.0000    0.0000    0.0000    0.0000    0.0000    0.00     0.0      0
2112 455713.000000   30.4853120980  114.5635408366    23.3950    1   10    0.0000    0.0000    0.0000    0.0000    0.0000    0.0000    0.00     0.0      0
2112 455714.000000   30.4853120106  114.5635408452    23.3950    1   10    0.0000    0.0000    0.0000    0.0000    0.0000    0.0000    0.00     0.0      0
2112 455715.000000   30.4853118063  114.5635408594    23.3960    1   10    0.0000    0.0000    0.0000    0.0000    0.0000    0.0000    0.00     0.0      0
2112 455716.000000   30.4853116320  114.5635408683    23.3970    1   10    0.0000    0.0000    0.0000    0.0000    0.0000    0.0000    0.00     0.0      0
2112 455717.000000   30.4853114705  114.5635408784    23.3970    1   10    0.0000    0.0000    0.0000    0.0000    0.0000    0.0000    0.00     0.0      0
2112 455718.000000   30.4853112612  114.5635408895    23.3970    1   10    0.0000    0.0000    0.0000    0.0000    0.0000    0.0000    0.00     0.0      0
2112 455719.000000   30.4853109400  114.5635409169    23.3990    1   10    0.0000    0.0000    0.0000    0.0000    0.0000    0.0000    0.00     0.0      0
2112 455720.000000   30.4853104587  114.5635409571    23.4010    1   10    0.0000    0.0000    0.0000    0.0000    0.0000    0.0000    0.00     0.0      0
2112 455721.000000   30.4853098768  114.5635410011    23.4010    1   10    0.0000    0.0000    0.0000    0.0000    0.0000    0.0000    0.00     0.0      0
2112 455722.000000   30.4853090857  114.5635410331    23.4010    1   10    0.0000    0.0000    0.0000    0.0000    0.0000    0.0000    0.00     0.0      0
2112 455723.000000   30.4853081338  114.5635410886    23.3970    1   10    0.0000    0.0000    0.0000    0.0000    0.0000    0.0000    0.00     0.0      0
2112 455724.000000   30.4853072877  114.5635411619    23.3930    1   10    0.0000    0.0000    0.0000    0.0000    0.0000    0.0000    0.00     0.0      0
2112 455725.000000   30.4853065612  114.5635412316    23.3940    1   10    0.0000    0.0000    0.0000    0.0000    0.0000    0.0000    0.00     0.0      0
2112 455726.000000   30.4853060520  114.5635412720    23.3950    1   10    0.0000    0.0000    0.0000    0.0000    0.0000    0.0000    0.00     0.0      0
2112 455727.000000   30.4853057977  114.5635412987    23.3960    1   10    0.0000    0.0000    0.0000    0.0000    0.0000    0.0000    0.00     0.0      0
2112 455728.000000   30.4853057027  114.5635412974    23.3970    1   10    0.0000    0.0000    0.0000    0.0000    0.0000    0.0000    0.00     0.0      0
2112 455729.000000   30.4853056547  114.5635412997    23.3970    1   10    0.0000    0.0000    0.0000    0.0000    0.0000    0.0000    0.00     0.0      0
2112 455730.000000   30.4853056320  114.5635413109    23.3960    1   10    0.0000    0.0000    0.0000    0.0000    0.0000    0.0000    0.00     0.0      0
2112 455731.000000   30.4853056055  114.5635413238    23.3930    1   10    0.0000    0.0000    0.0000    0.0000    0.0000    0.0000    0.00     0.0      0
2112 455732.000000   30.4853055769  114.5635413281    23.3910    1   10    0.0000    0.0000    0.0000    0.0000    0.0000    0.0000    0.00     0.0      0
2112 455733.000000   30.4853055406  114.5635413316    23.3900    1   10    0.0000    0.0000    0.0000    0.0000    0.0000    0.0000    0.00     0.0      0
2112 455734.000000   30.4853055065  114.5635413325    23.3900    1   10    0.0000    0.0000    0.0000    0.0000    0.0000    0.0000    0.00     0.0      0
2112 455735.000000   30.4853054818  114.5635413366    23.3890    1   10    0.0000    0.0000    0.0000    0.0000    0.0000    0.0000    0.00     0.0      0
2112 455736.000000   30.4853054604  114.5635413456    23.3890    1   10    0.0000    0.0000    0.0000    0.0000    0.0000    0.0000    0.00     0.0      0
2112 455737.000000   30.4853054444  114.5635413457    23.3890    1   10    0.0000    0.0000    0.0000    0.0000    0.0000    0.0000    0.00     0.0      0
2112 455738.000000   30.4853054141  114.5635413410    23.3910    1   10    0.0000    0.0000    0.0000    0.0000    0.0000    0.0000    0.00     0.0      0
2112 455739.000000   30.4853053965  114.5635413364    23.3930    1   10    0.0000    0.0000    0.0000    0.0000    0.0000    0.0000    0.00     0.0      0
2112 455740.000000   30.4853053718  114.5635413483    23.3930    1   10    0.0000    0.0000    0.0000    0.0000    0.0000    0.0000    0.00     0.0      0
2112 455741.000000   30.4853053519  114.5635413503    23.3950    1   10    0.0000    0.0000    0.0000    0.0000    0.0000    0.0000    0.00     0.0      0
2112 455742.000000   30.4853053348  114.5635413488    23.3950    1   10    0.0000    0.0000    0.0000    0.0000    0.0000    0.0000    0.00     0.0      0
2112 455743.000000   30.4853053177  114.5635413616    23.3960    1   10    0.0000    0.0000    0.0000    0.0000    0.0000    0.0000    0.00     0.0      0
2112 455744.000000   30.4853052950  114.5635413549    23.3960    1   10    0.0000    0.0000    0.0000    0.0000    0.0000    0.0000    0.00     0.0      0
2112 455745.000000   30.4853052692  114.5635413661    23.3970    1   10    0.0000    0.0000    0.0000    0.0000    0.0000    0.0000    0.00     0.0      0
2112 455746.000000   30.4853052560  114.5635413704    23.3960    1   10    0.0000    0.0000    0.0000    0.0000    0.0000    0.0000    0.00     0.0      0
2112 455747.000000   30.4853052431  114.5635413702    23.3960    1   10    0.0000    0.0000    0.0000    0.0000    0.0000    0.0000    0.00     0.0      0
2112 455748.000000   30.4853052257  114.5635413686    23.3970    1   10    0.0000    0.0000    0.0000    0.0000    0.0000    0.0000    0.00     0.0      0
2112 455749.000000   30.4853052161  114.5635413702    23.3970    1   10    0.0000    0.0000    0.0000    0.0000    0.0000    0.0000    0.00     0.0      0
2112 455750.000000   30.4853051993  114.5635413702    23.3970    1   10    0.0000    0.0000    0.0000    0.0000    0.0000    0.0000    0.00     0.0      0
2112 455751.000000   30.4853051801  114.5635413698    23.3960    1   10    0.0000    0.0000    0.0000    0.0000    0.0000    0.0000    0.00     0.0      0
2112 455752.000000   30.4853051653  114.5635413651    23.3950    1   10    0.0000    0.0000    0.0000    0.0000    0.0000    0.0000    0.00     0.0      0
2112 455753.000000   30.4853051585  114.5635413729    23.3950    1   10    0.0000    0.0000    0.0000    0.0000    0.0000    0.0000    0.00     0.0      0
2112 455754.000000   30.4853051443  114.5635413770    23.3950    1   10    0.0000    0.0000    0.0000    0.0000    0.0000    0.0000    0.00     0.0      0
2112 455755.000000   30.4853051177  114.5635413773    23.3950    1   10    0.0000    0.0000    0.0000    0.0000    0.0000    0.0000    0.00     0.0      0
2112 455756.000000   30.4853050919  114.5635413801    23.3950    1   10    0.0000    0.0000    0.0000    0.0000    0.0000    0.0000    0.00     0.0      0
2112 455757.000000   30.4853050904  114.5635413758    23.3960    1   10    0.0000    0.0000    0.0000    0.0000    0.0000    0.0000    0.00     0.0      0
2112 455758.000000   30.4853050865  114.5635413798    23.3970    1   10    0.0000    0.0000    0.0000    0.0000    0.0000    0.0000    0.00     0.0      0
2112 455759.000000   30.4853050749  114.5635413796    23.3950    1   10    0.0000    0.0000    0.0000    0.0000    0.0000    0.0000    0.00     0.0      0
2112 455760.000000   30.4853050542  114.5635413892    23.3950    1   10    0.0000    0.0000    0.0000    0.0000    0.0000    0.0000    0.00     0.0      0
2112 455761.000000   30.4853050451  114.5635413892    23.3950    1   10    0.0000    0.0000    0.0000    0.0000    0.0000    0.0000    0.00     0.0      0
2112 455762.000000   30.4853050302  114.5635413852    23.3960    1   10    0.0000    0.0000    0.0000    0.0000    0.0000    0.0000    0.00     0.0      0
2112 455763.000000   30.4853050146  114.5635413865    23.3950    1   10    0.0000    0.0000    0.0000    0.0000    0.0000    0.0000    0.00     0.0      0
2112 455764.000000   30.4853050031  114.5635413850    23.3950    1   10    0.0000    0.0000    0.0000    0.0000    0.0000    0.0000    0.00     0.0      0
2112 455765.000000   30.4853049798  114.5635413910    23.3950    1   10    0.0000    0.0000    0.0000    0.0000    0.0000    0.0000    0.00     0.0      0
2112 455766.000000   30.4853049706  114.5635413915    23.3940    1   10    0.0000    0.0000    0.0000    0.0000    0.0000    0.0000    0.00     0.0      0
2112 455767.000000   30.4853049570  114.5635413975    23.3940    1   10    0.0000    0.0000    0.0000    0.0000    0.0000    0.0000    0.00     0.0      0
2112 455768.000000   30.4853049443  114.5635414006    23.3930    1   10    0.0000    0.0000    0.0000    0.0000    0.0000    0.0000    0.00     0.0      0
2112 455769.000000   30.4853049356  114.5635413980    23.3920    1   10    0.0000    0.0000    0.0000    0.0000    0.0000    0.0000    0.00     0.0      0
2112 455770.000000   30.4853049220  114.5635414006    23.3930    1   10    0.0000    0.0000    0.0000    0.0000    0.0000    0.0000    0.00     0.0      0
2112 455771.000000   30.4853049080  114.5635413979    23.3920    1   10    0.0000    0.0000    0.0000    0.0000    0.0000    0.0000    0.00     0.0      0
2112 455772.000000   30.4853048936  114.5635414082    23.3920    1   10    0.0000    0.0000    0.0000    0.0000    0.0000    0.0000    0.00     0.0      0
2112 455773.000000   30.4853048871  114.5635414086    23.3930    1   10    0.0000    0.0000    0.0000    0.0000    0.0000    0.0000    0.00     0.0      0
2112 455774.000000   30.4853048684  114.5635414020    23.3940    1   10    0.0000    0.0000    0.0000    0.0000    0.0000    0.0000    0.00     0.0      0
2112 455775.000000   30.4853048500  114.5635413964    23.3930    1   10    0.0000    0.0000    0.0000    0.0000    0.0000    0.0000    0.00     0.0      0
2112 455776.000000   30.4853048414  114.5635413941    23.3920    1   10    0.0000    0.0000    0.0000    0.0000    0.0000    0.0000    0.00     0.0      0
2112 455777.000000   30.4853048240  114.5635413929    23.3910    1   10    0.0000    0.0000    0.0000    0.0000    0.0000    0.0000    0.00     0.0      0
2112 455778.000000   30.4853047969  114.5635413913    23.3910    1   10    0.0000    0.0000    0.0000    0.0000    0.0000    0.0000    0.00     0.0      0
2112 455779.000000   30.4853047758  114.5635413914    23.3930    1   10    0.0000    0.0000    0.0000    0.0000    0.0000    0.0000    0.00     0.0      0
2112 455780.000000   30.4853047600  114.5635413951    23.3920    1   10    0.0000    0.0000    0.0000    0.0000    0.0000    0.0000    0.00     0.0      0
2112 455781.000000   30.4853047371  114.5635413936    23.3900    1   10    0.0000    0.0000    0.0000    0.0000    0.0000    0.0000    0.00     0.0      0
2112 455782.000000   30.4853047184  114.5635413901    23.3890    1   10    0.0000    0.0000    0.0000    0.0000    0.0000    0.0000    0.00     0.0      0
2112 455783.000000   30.4853046950  114.5635414004    23.3900    1   10    0.0000    0.0000    0.0000    0.0000    0.0000    0.0000    0.00     0.0      0
2112 455784.000000   30.4853046716  114.5635414076    23.3890    1   10    0.0000    0.0000    0.0000    0.0000    0.0000    0.0000    0.00     0.0      0
2112 455785.000000   30.4853046241  114.5635414067    23.3900    1   10    0.0000    0.0000    0.0000    0.0000    0.0000    0.0000    0.00     0.0      0
2112 455786.000000   30.4853046110  114.5635414090    23.3890    1   10    0.0000    0.0000    0.0000    0.0000    0.0000    0.0000    0.00     0.0      0
2112 455787.000000   30.4853046004  114.5635414064    23.3870    1   10    0.0000    0.0000    0.0000    0.0000    0.0000    0.0000    0.00     0.0      0
2112 455788.000000   30.4853045881  114.5635414133    23.3860    1   10    0.0000    0.0000    0.0000    0.0000    0.0000    0.0000    0.00     0.0      0
2112 455789.000000   30.4853045701  114.5635414193    23.3870    1   10    0.0000    0.0000    0.0000    0.0000    0.0000    0.0000    0.00     0.0      0
2112 455790.000000   30.4853045516  114.5635414193    23.3900    1   10    0.0000    0.0000    0.0000    0.0000    0.0000    0.0000    0.00     0.0      0
2112 455791.000000   30.4853045254  114.5635414145    23.3900    1   10    0.0000    0.0000    0.0000    0.0000    0.0000    0.0000    0.00     0.0      0
2112 455792.000000   30.4853045043  114.5635414100    23.3910    1   10    0.0000    0.0000    0.0000    0.0000    0.0000    0.0000    0.00     0.0      0
2112 455793.000000   30.4853044945  114.5635414152    23.3900    1   10    0.0000    0.0000    0.0000    0.0000    0.0000    0.0000    0.00     0.0      0
2112 455794.000000   30.4853044803  114.5635414284    23.3890    1   10    0.0000    0.0000    0.0000    0.0000    0.0000    0.0000    0.00     0.0      0
2112 455795.000000   30.4853044655  114.5635414310    23.3870    1   10    0.0000    0.0000    0.0000    0.0000    0.0000    0.0000    0.00     0.0      0
2112 455796.000000   30.4853044627  114.5635414294    23.3860    1   10    0.0000    0.0000    0.0000    0.0000    0.0000    0.0000    0.00     0.0      0
2112 455797.000000   30.4853044521  114.5635414298    23.3850    1   10    0.0000    0.0000    0.0000    0.0000    0.0000    0.0000    0.00     0.0      0
2112 455798.000000   30.4853044319  114.5635414219    23.3850    1   10    0.0000    0.0000    0.0000    0.0000    0.0000    0.0000    0.00     0.0      0
2112 455799.000000   30.4853044167  114.5635414235    23.3860    1   10    0.0000    0.0000    0.0000    0.0000    0.0000    0.0000    0.00     0.0      0
2112 455800.000000   30.4853044142  114.5635414256    23.3850    1   10    0.0000    0.0000    0.0000    0.0000    0.0000    0.0000    0.00     0.0      0
2112 455801.000000   30.4853044112  114.5635414259    23.3850    1   10    0.0000    0.0000    0.0000    0.0000    0.0000    0.0000    0.00     0.0      0
2112 455802.000000   30.4853044099  114.5635414222    23.3820    1   10    0.0000    0.0000    0.0000    0.0000    0.0000    0.0000    0.00     0.0      0
2112 455803.000000   30.4853043944  114.5635414236    23.3820    1   10    0.0000    0.0000    0.0000    0.0000    0.0000    0.0000    0.00     0.0      0
2112 455804.000000   30.4853043811  114.5635414239    23.3830    1   10    0.0000    0.0000    0.0000    0.0000    0.0000    0.0000    0.00     0.0      0
2112 455805.000000   30.4853043712  114.5635414209    23.3860    1   10    0.0000    0.0000    0.0000    0.0000    0.0000    0.0000    0.00     0.0      0
2112 455806.000000   30.4853043556  114.5635414172    23.3870    1   10    0.0000    0.0000    0.0000    0.0000    0.0000    0.0000    0.00     0.0      0
2112 455807.000000   30.4853043346  114.5635414141    23.3850    1   10    0.0000    0.0000    0.0000    0.0000    0.0000    0.0000    0.00     0.0      0
2112 455808.000000   30.4853043221  114.5635414230    23.3840    1   10    0.0000    0.0000    0.0000    0.0000    0.0000    0.0000    0.00     0.0      0
2112 455809.000000   30.4853043168  114.5635414287    23.3830    1   10    0.0000    0.0000    0.0000    0.0000    0.0000    0.0000    0.00     0.0      0
2112 455810.000000   30.4853043032  114.5635414305    23.3830    1   10    0.0000    0.0000    0.0000    0.0000    0.0000    0.0000    0.00     0.0      0
2112 455811.000000   30.4853042980  114.5635414314    23.3850    1   10    0.0000    0.0000    0.0000    0.0000    0.0000    0.0000    0.00     0.0      0
2112 455812.000000   30.4853042875  114.5635414350    23.3850    1   10    0.0000    0.0000    0.0000    0.0000    0.0000    0.0000    0.00     0.0      0
2112 455813.000000   30.4853042738  114.5635414402    23.3850    1   10    0.0000    0.0000    0.0000    0.0000    0.0000    0.0000    0.00     0.0      0
2112 455814.000000   30.4853042588  114.5635414405    23.3870    1   10    0.0000    0.0000    0.0000    0.0000    0.0000    0.0000    0.00     0.0      0
2112 455815.000000   30.4853042428  114.5635414257    23.3870    1   10    0.0000    0.0000    0.0000    0.0000    0.0000    0.0000    0.00     0.0      0
2112 455816.000000   30.4853042332  114.5635414290    23.3860    1   10    0.0000    0.0000    0.0000    0.0000    0.0000    0.0000    0.00     0.0      0
2112 455817.000000   30.4853042154  114.5635414358    23.3870    1   10    0.0000    0.0000    0.0000    0.0000    0.0000    0.0000    0.00     0.0      0
2112 455818.000000   30.4853042033  114.5635414313    23.3870    1   10    0.0000    0.0000    0.0000    0.0000    0.0000    0.0000    0.00     0.0      0
2112 455819.000000   30.4853042067  114.5635414382    23.3860    1   10    0.0000    0.0000    0.0000    0.0000    0.0000    0.0000    0.00     0.0      0
2112 455820.000000   30.4853041836  114.5635414296    23.3850    1   10    0.0000    0.0000    0.0000    0.0000    0.0000    0.0000    0.00     0.0      0
2112 455821.000000   30.4853041696  114.5635414292    23.3840    1   10    0.0000    0.0000    0.0000    0.0000    0.0000    0.0000    0.00     0.0      0
2112 455822.000000   30.4853041575  114.5635414334    23.3840    1   10    0.0000    0.0000    0.0000    0.0000    0.0000    0.0000    0.00     0.0      0
2112 455823.000000   30.4853041479  114.5635414342    23.3840    1   10    0.0000    0.0000    0.0000    0.0000    0.0000    0.0000    0.00     0.0      0
2112 455824.000000   30.4853041428  114.5635414371    23.3850    1   10    0.0000    0.0000    0.0000    0.0000    0.0000    0.0000    0.00     0.0      0
2112 455825.000000   30.4853041263  114.5635414417    23.3850    1   10    0.0000    0.0000    0.0000    0.0000    0.0000    0.0000    0.00     0.0      0
2112 455826.000000   30.4853041146  114.5635414344    23.3860    1   10    0.0000    0.0000    0.0000    0.0000    0.0000    0.0000    0.00     0.0      0
2112 455827.000000   30.4853040983  114.5635414314    23.3870    1   10    0.0000    0.0000    0.0000    0.0000    0.0000    0.0000    0.00     0.0      0
2112 455828.000000   30.4853040913  114.5635414377    23.3880    1   10    0.0000    0.0000    0.0000    0.0000    0.0000    0.0000    0.00     0.0      0
2112 455829.000000   30.4853040835  114.5635414418    23.3890    1   10    0.0000    0.0000    0.0000    0.0000    0.0000    0.0000    0.00     0.0      0
2112 455830.000000   30.4853040701  114.5635414399    23.3880    1   10    0.0000    0.0000    0.0000    0.0000    0.0000    0.0000    0.00     0.0      0
2112 455831.000000   30.4853040676  114.5635414420    23.3880    1   10    0.0000    0.0000    0.0000    0.0000    0.0000    0.0000    0.00     0.0      0
2112 455832.000000   30.4853040515  114.5635414533    23.3900    1   10    0.0000    0.0000    0.0000    0.0000    0.0000    0.0000    0.00     0.0      0
2112 455833.000000   30.4853040413  114.5635414646    23.3910    1   10    0.0000    0.0000    0.0000    0.0000    0.0000    0.0000    0.00     0.0      0
2112 455834.000000   30.4853040344  114.5635414682    23.3910    1   10    0.0000    0.0000    0.0000    0.0000    0.0000    0.0000    0.00     0.0      0
2112 455835.000000   30.4853040319  114.5635414689    23.3900    1   10    0.0000    0.0000    0.0000    0.0000    0.0000    0.0000    0.00     0.0      0
2112 455836.000000   30.4853040194  114.5635414632    23.3900    1   10    0.0000    0.0000    0.0000    0.0000    0.0000    0.0000    0.00     0.0      0
2112 455837.000000   30.4853040092  114.5635414603    23.3900    1   10    0.0000    0.0000    0.0000    0.0000    0.0000    0.0000    0.00     0.0      0
2112 455838.000000   30.4853040029  114.5635414711    23.3890    1   10    0.0000    0.0000    0.0000    0.0000    0.0000    0.0000    0.00     0.0      0
2112 455839.000000   30.4853039940  114.5635414713    23.3870    1   10    0.0000    0.0000    0.0000    0.0000    0.0000    0.0000    0.00     0.0      0
2112 455840.000000   30.4853039825  114.5635414643    23.3870    1   10    0.0000    0.0000    0.0000    0.0000    0.0000    0.0000    0.00     0.0      0
2112 455841.000000   30.4853039743  114.5635414668    23.3870    1   10    0.0000    0.0000    0.0000    0.0000    0.0000    0.0000    0.00     0.0      0
2112 455842.000000   30.4853039632  114.5635414763    23.3890    1   10    0.0000    0.0000    0.0000    0.0000    0.0000    0.0000    0.00     0.0      0
2112 455843.000000   30.4853039552  114.5635414699    23.3900    1   10    0.0000    0.0000    0.0000    0.0000    0.0000    0.0000    0.00     0.0      0
2112 455844.000000   30.4853039511  114.5635414809    23.3890    1   10    0.0000    0.0000    0.0000    0.0000    0.0000    0.0000    0.00     0.0      0
2112 455845.000000   30.4853039454  114.5635414951    23.3880    1   10    0.0000    0.0000    0.0000    0.0000    0.0000    0.0000    0.00     0.0      0
2112 455846.000000   30.4853039292  114.5635414883    23.3880    1   10    0.0000    0.0000    0.0000    0.0000    0.0000    0.0000    0.00     0.0      0
2112 455847.000000   30.4853039230  114.5635414833    23.3880    1   10    0.0000    0.0000    0.0000    0.0000    0.0000    0.0000    0.00     0.0      0
2112 455848.000000   30.4853039099  114.5635414961    23.3890    1   10    0.0000    0.0000    0.0000    0.0000    0.0000    0.0000    0.00     0.0      0
2112 455849.000000   30.4853039058  114.5635414978    23.3910    1   10    0.0000    0.0000    0.0000    0.0000    0.0000    0.0000    0.00     0.0      0
2112 455850.000000   30.4853039025  114.5635414954    23.3910    1   10    0.0000    0.0000    0.0000    0.0000    0.0000    0.0000    0.00     0.0      0
2112 455851.000000   30.4853038932  114.5635414950    23.3920    1   10    0.0000    0.0000    0.0000    0.0000    0.0000    0.0000    0.00     0.0      0
2112 455852.000000   30.4853038860  114.5635414866    23.3910    1   10    0.0000    0.0000    0.0000    0.0000    0.0000    0.0000    0.00     0.0      0
2112 455853.000000   30.4853038787  114.5635414924    23.3910    1   10    0.0000    0.0000    0.0000    0.0000    0.0000    0.0000    0.00     0.0      0
2112 455854.000000   30.4853038754  114.5635414918    23.3920    1   10    0.0000    0.0000    0.0000    0.0000    0.0000    0.0000    0.00     0.0      0
2112 455855.000000   30.4853038648  114.5635414855    23.3920    1   10    0.0000    0.0000    0.0000    0.0000    0.0000    0.0000    0.00     0.0      0
2112 455856.000000   30.4853038493  114.5635414874    23.3920    1   10    0.0000    0.0000    0.0000    0.0000    0.0000    0.0000    0.00     0.0      0
2112 455857.000000   30.4853038277  114.5635414857    23.3940    1   10    0.0000    0.0000    0.0000    0.0000    0.0000    0.0000    0.00     0.0      0
2112 455858.000000   30.4853038199  114.5635414784    23.3930    1   10    0.0000    0.0000    0.0000    0.0000    0.0000    0.0000    0.00     0.0      0
2112 455859.000000   30.4853038214  114.5635414807    23.3910    1   10    0.0000    0.0000    0.0000    0.0000    0.0000    0.0000    0.00     0.0      0
2112 455860.000000   30.4853038179  114.5635414839    23.3920    1   10    0.0000    0.0000    0.0000    0.0000    0.0000    0.0000    0.00     0.0      0
2112 455861.000000   30.4853037994  114.5635414881    23.3910    1   10    0.0000    0.0000    0.0000    0.0000    0.0000    0.0000    0.00     0.0      0
2112 455862.000000   30.4853037896  114.5635414887    23.3920    1   10    0.0000    0.0000    0.0000    0.0000    0.0000    0.0000    0.00     0.0      0
2112 455863.000000   30.4853037815  114.5635414849    23.3920    1   10    0.0000    0.0000    0.0000    0.0000    0.0000    0.0000    0.00     0.0      0
2112 455864.000000   30.4853037705  114.5635415011    23.3920    1   10    0.0000    0.0000    0.0000    0.0000    0.0000    0.0000    0.00     0.0      0
2112 455865.000000   30.4853037649  114.5635414873    23.3910    1   10    0.0000    0.0000    0.0000    0.0000    0.0000    0.0000    0.00     0.0      0
2112 455866.000000   30.4853037639  114.5635414947    23.3910    1   10    0.0000    0.0000    0.0000    0.0000    0.0000    0.0000    0.00     0.0      0
2112 455867.000000   30.4853037509  114.5635415032    23.3900    1   10    0.0000    0.0000    0.0000    0.0000    0.0000    0.0000    0.00     0.0      0
2112 455868.000000   30.4853037447  114.5635415126    23.3900    1   10    0.0000    0.0000    0.0000    0.0000    0.0000    0.0000    0.00     0.0      0
2112 455869.000000   30.4853037374  114.5635415106    23.3910    1   10    0.0000    0.0000    0.0000    0.0000    0.0000    0.0000    0.00     0.0      0
2112 455870.000000   30.4853037237  114.5635415051    23.3920    1   10    0.0000    0.0000    0.0000    0.0000    0.0000    0.0000    0.00     0.0      0
2112 455871.000000   30.4853037224  114.5635415057    23.3910    1   10    0.0000    0.0000    0.0000    0.0000    0.0000    0.0000    0.00     0.0      0
2112 455872.000000   30.4853037190  114.5635415040    23.3910    1   10    0.0000    0.0000    0.0000    0.0000    0.0000    0.0000    0.00     0.0      0
2112 455873.000000   30.4853037202  114.5635415083    23.3920    1   10    0.0000    0.0000    0.0000    0.0000    0.0000    0.0000    0.00     0.0      0
2112 455874.000000   30.4853037185  114.5635415119    23.3920    1   10    0.0000    0.0000    0.0000    0.0000    0.0000    0.0000    0.00     0.0      0
2112 455875.000000   30.4853037142  114.5635415067    23.3910    1   10    0.0000    0.0000    0.0000    0.0000    0.0000    0.0000    0.00     0.0      0
2112 455876.000000   30.4853037119  114.5635415072    23.3900    1   10    0.0000    0.0000    0.0000    0.0000    0.0000    0.0000    0.00     0.0      0
2112 455877.000000   30.4853037041  114.5635415019    23.3900    1   10    0.0000    0.0000    0.0000    0.0000    0.0000    0.0000    0.00     0.0      0
2112 455878.000000   30.4853036973  114.5635415138    23.3900    1   10    0.0000    0.0000    0.0000    0.0000    0.0000    0.0000    0.00     0.0      0
2112 455879.000000   30.4853036934  114.5635415175    23.3900    1   10    0.0000    0.0000    0.0000    0.0000    0.0000    0.0000    0.00     0.0      0
2112 455880.000000   30.4853036835  114.5635415127    23.3910    1   10    0.0000    0.0000    0.0000    0.0000    0.0000    0.0000    0.00     0.0      0
2112 455881.000000   30.4853036818  114.5635415157    23.3940    1   10    0.0000    0.0000    0.0000    0.0000    0.0000    0.0000    0.00     0.0      0
2112 455882.000000   30.4853036777  114.5635415233    23.3950    1   10    0.0000    0.0000    0.0000    0.0000    0.0000    0.0000    0.00     0.0      0
2112 455883.000000   30.4853036785  114.5635415266    23.3950    1   10    0.0000    0.0000    0.0000    0.0000    0.0000    0.0000    0.00     0.0      0
2112 455884.000000   30.4853036802  114.5635415263    23.3940    1   10    0.0000    0.0000    0.0000    0.0000    0.0000    0.0000    0.00     0.0      0
2112 455885.000000   30.4853036754  114.5635415256    23.3930    1   10    0.0000    0.0000    0.0000    0.0000    0.0000    0.0000    0.00     0.0      0
2112 455886.000000   30.4853036704  114.5635415168    23.3920    1   10    0.0000    0.0000    0.0000    0.0000    0.0000    0.0000    0.00     0.0      0
2112 455887.000000   30.4853036642  114.5635415163    23.3910    1   10    0.0000    0.0000    0.0000    0.0000    0.0000    0.0000    0.00     0.0      0
2112 455888.000000   30.4853036638  114.5635415230    23.3920    1   10    0.0000    0.0000    0.0000    0.0000    0.0000    0.0000    0.00     0.0      0
2112 455889.000000   30.4853036675  114.5635415193    23.3910    1   10    0.0000    0.0000    0.0000    0.0000    0.0000    0.0000    0.00     0.0      0
2112 455890.000000   30.4853036686  114.5635415177    23.3890    1   10    0.0000    0.0000    0.0000    0.0000    0.0000    0.0000    0.00     0.0      0
2112 455891.000000   30.4853036586  114.5635415190    23.3870    1   10    0.0000    0.0000    0.0000    0.0000    0.0000    0.0000    0.00     0.0      0
2112 455892.000000   30.4853036468  114.5635415155    23.3870    1   10    0.0000    0.0000    0.0000    0.0000    0.0000    0.0000    0.00     0.0      0
2112 455893.000000   30.4853036477  114.5635415160    23.3870    1   10    0.0000    0.0000    0.0000    0.0000    0.0000    0.0000    0.00     0.0      0
2112 455894.000000   30.4853036538  114.5635415240    23.3890    1   10    0.0000    0.0000    0.0000    0.0000    0.0000    0.0000    0.00     0.0      0
2112 455895.000000   30.4853036490  114.5635415230    23.3910    1   10    0.0000    0.0000    0.0000    0.0000    0.0000    0.0000    0.00     0.0      0
2112 455896.000000   30.4853036460  114.5635415265    23.3910    1   10    0.0000    0.0000    0.0000    0.0000    0.0000    0.0000    0.00     0.0      0
2112 455897.000000   30.4853036266  114.5635415288    23.3910    1   10    0.0000    0.0000    0.0000    0.0000    0.0000    0.0000    0.00     0.0      0
2112 455898.000000   30.4853036280  114.5635415312    23.3900    1   10    0.0000    0.0000    0.0000    0.0000    0.0000    0.0000    0.00     0.0      0
2112 455899.000000   30.4853036318  114.5635415367    23.3890    1   10    0.0000    0.0000    0.0000    0.0000    0.0000    0.0000    0.00     0.0      0
2112 455900.000000   30.4853036350  114.5635415385    23.3890    1   10    0.0000    0.0000    0.0000    0.0000    0.0000    0.0000    0.00     0.0      0
2112 455901.000000   30.4853036350  114.5635415318    23.3890    1   10    0.0000    0.0000    0.0000    0.0000    0.0000    0.0000    0.00     0.0      0
2112 455902.000000   30.4853036316  114.5635415330    23.3890    1   10    0.0000    0.0000    0.0000    0.0000    0.0000    0.0000    0.00     0.0      0
2112 455903.000000   30.4853036339  114.5635415391    23.3890    1   10    0.0000    0.0000    0.0000    0.0000    0.0000    0.0000    0.00     0.0      0
2112 455904.000000   30.4853036288  114.5635415345    23.3890    1   10    0.0000    0.0000    0.0000    0.0000    0.0000    0.0000    0.00     0.0      0
2112 455905.000000   30.4853036203  114.5635415330    23.3900    1   10    0.0000    0.0000    0.0000    0.0000    0.0000    0.0000    0.00     0.0      0
2112 455906.000000   30.4853036143  114.5635415280    23.3900    1   10    0.0000    0.0000    0.0000    0.0000    0.0000    0.0000    0.00     0.0      0
2112 455907.000000   30.4853036070  114.5635415230    23.3890    1   10    0.0000    0.0000    0.0000    0.0000    0.0000    0.0000    0.00     0.0      0
2112 455908.000000   30.4853036065  114.5635415236    23.3880    1   10    0.0000    0.0000    0.0000    0.0000    0.0000    0.0000    0.00     0.0      0
2112 455909.000000   30.4853036091  114.5635415244    23.3850    1   10    0.0000    0.0000    0.0000    0.0000    0.0000    0.0000    0.00     0.0      0
2112 455910.000000   30.4853036013  114.5635415278    23.3840    1   10    0.0000    0.0000    0.0000    0.0000    0.0000    0.0000    0.00     0.0      0
2112 455911.000000   30.4853036073  114.5635415257    23.3850    1   10    0.0000    0.0000    0.0000    0.0000    0.0000    0.0000    0.00     0.0      0
2112 455912.000000   30.4853036068  114.5635415269    23.3840    1   10    0.0000    0.0000    0.0000    0.0000    0.0000    0.0000    0.00     0.0      0
2112 455913.000000   30.4853036102  114.5635415193    23.3830    1   10    0.0000    0.0000    0.0000    0.0000    0.0000    0.0000    0.00     0.0      0
2112 455914.000000   30.4853036114  114.5635415249    23.3820    1   10    0.0000    0.0000    0.0000    0.0000    0.0000    0.0000    0.00     0.0      0
2112 455915.000000   30.4853036103  114.5635415310    23.3840    1   10    0.0000    0.0000    0.0000    0.0000    0.0000    0.0000    0.00     0.0      0
2112 455916.000000   30.4853036057  114.5635415320    23.3860    1   10    0.0000    0.0000    0.0000    0.0000    0.0000    0.0000    0.00     0.0      0
2112 455917.000000   30.4853035984  114.5635415304    23.3880    1   10    0.0000    0.0000    0.0000    0.0000    0.0000    0.0000    0.00     0.0      0
2112 455918.000000   30.4853028445  114.5635416080    23.3910    1   10    0.0000    0.0000    0.0000    0.0000    0.0000    0.0000    0.00     0.0      0
2112 455919.000000   30.4852969304  114.5635423540    23.3950    1   10    0.0000    0.0000    0.0000    0.0000    0.0000    0.0000    0.00     0.0      0
2112 455920.000000   30.4852801815  114.5635455437    23.3780    1   10    0.0000    0.0000    0.0000    0.0000    0.0000    0.0000    0.00     0.0      0
2112 455921.000000   30.4852543435  114.5635524549    23.3520    1   10    0.0000    0.0000    0.0000    0.0000    0.0000    0.0000    0.00     0.0      0
2112 455922.000000   30.4852245149  114.5635620055    23.3220    1   10    0.0000    0.0000    0.0000    0.0000    0.0000    0.0000    0.00     0.0      0
2112 455923.000000   30.4851924665  114.5635732813    23.2910    1   10    0.0000    0.0000    0.0000    0.0000    0.0000    0.0000    0.00     0.0      0
2112 455924.000000   30.4851569210  114.5635840058    23.2620    1   10    0.0000    0.0000    0.0000    0.0000    0.0000    0.0000    0.00     0.0      0
2112 455925.000000   30.4851190893  114.5635932967    23.2430    1   10    0.0000    0.0000    0.0000    0.0000    0.0000    0.0000    0.00     0.0      0
2112 455926.000000   30.4850813888  114.5636005928    23.2200    1   10    0.0000    0.0000    0.0000    0.0000    0.0000    0.0000    0.00     0.0      0
2112 455927.000000   30.4850448757  114.5636068224    23.1920    1   10    0.0000    0.0000    0.0000    0.0000    0.0000    0.0000    0.00     0.0      0
2112 455928.000000   30.4850130218  114.5636118129    23.1740    1   10    0.0000    0.0000    0.0000    0.0000    0.0000    0.0000    0.00     0.0      0
2112 455929.000000   30.4849824890  114.5636161266    23.1630    1   10    0.0000    0.0000    0.0000    0.0000    0.0000    0.0000    0.00     0.0      0
2112 455930.000000   30.4849515339  114.5636201226    23.1480    1   10    0.0000    0.0000    0.0000    0.0000    0.0000    0.0000    0.00     0.0      0
2112 455931.000000   30.4849203975  114.5636238940    23.1330    1   10    0.0000    0.0000    0.0000    0.0000    0.0000    0.0000    0.00     0.0      0
2112 455932.000000   30.4848890917  114.5636274726    23.1160    1   10    0.0000    0.0000    0.0000    0.0000    0.0000    0.0000    0.00     0.0      0
2112 455933.000000   30.4848575899  114.5636309245    23.1070    1   10    0.0000    0.0000    0.0000    0.0000    0.0000    0.0000    0.00     0.0      0
2112 455934.000000   30.4848259112  114.5636343087    23.1060    1   10    0.0000    0.0000    0.0000    0.0000    0.0000    0.0000    0.00     0.0      0
2112 455935.000000   30.4847941483  114.5636377566    23.1040    1   10    0.0000    0.0000    0.0000    0.0000    0.0000    0.0000    0.00     0.0      0
2112 455936.000000   30.4847623447  114.5636412564    23.1040    1   10    0.0000    0.0000    0.0000    0.0000    0.0000    0.0000    0.00     0.0      0
2112 455937.000000   30.4847303735  114.5636448666    23.0950    1   10    0.0000    0.0000    0.0000    0.0000    0.0000    0.0000    0.00     0.0      0
2112 455938.000000   30.4846970582  114.5636486880    23.0690    1   10    0.0000    0.0000    0.0000    0.0000    0.0000    0.0000    0.00     0.0      0
