% program   : RTKPOST
% ref pos   :
% (x/y/z-ecef=WGS84,Q=1:fix,2:float,3:sbas,4:dgps,5:single,6:ppp,ns=# of satellites)
%  GPST                 lat(deg)       lon(deg)        h(m)      Q   ns    sdx(m)    sdy(m)    sdz(m)    sdxy(m)   sdyz(m)   sdzx(m)   age(s)  ratio   fixn
2112 450670.000000   30.4888589105  114.5587749170    27.2270    1   10    0.0000    0.0000    0.0000    0.0000    0.0000    0.0000    0.00     0.0      0
2112 450671.000000   30.4888483121  114.5588620461    27.3080    1   10    0.0000    0.0000    0.0000    0.0000    0.0000    0.0000    0.00     0.0      0
2112 450672.000000   30.4888378313  114.5589518297    27.4340    1   10    0.0000    0.0000    0.0000    0.0000    0.0000    0.0000    0.00     0.0      0
2112 450673.000000   30.4888274142  114.5590425578    27.5520    1   10    0.0000    0.0000    0.0000    0.0000    0.0000    0.0000    0.00     0.0      0
2112 450674.000000   30.4888167400  114.5591342976    27.6560    1   10    0.0000    0.0000    0.0000    0.0000    0.0000    0.0000    0.00     0.0      0
2112 450675.000000   30.4888051736  114.5592268594    27.7610    1   10    0.0000    0.0000    0.0000    0.0000    0.0000    0.0000    0.00     0.0      0
2112 450676.000000   30.4887924971  114.5593207805    27.8640    1   10    0.0000    0.0000    0.0000    0.0000    0.0000    0.0000    0.00     0.0      0
2112 450677.000000   30.4887786041  114.5594165502    27.9720    1   10    0.0000    0.0000    0.0000    0.0000    0.0000    0.0000    0.00     0.0      0
2112 450678.000000   30.4887637111  114.5595141423    28.0610    1   10    0.0000    0.0000    0.0000    0.0000    0.0000    0.0000    0.00     0.0      0
2112 450679.000000   30.4887486144  114.5596137130    28.1480    1   10    0.0000    0.0000    0.0000    0.0000    0.0000    0.0000    0.00     0.0      0
2112 450680.000000   30.4887333589  114.5597153886    28.2160    1   10    0.0000    0.0000    0.0000    0.0000    0.0000    0.0000    0.00     0.0      0
2112 450681.000000   30.4887182298  114.5598186339    28.2560    1   10    0.0000    0.0000    0.0000    0.0000    0.0000    0.0000    0.00     0.0      0
2112 450682.000000   30.4887034329  114.5599226230    28.3030    1   10    0.0000    0.0000    0.0000    0.0000    0.0000    0.0000    0.00     0.0      0
2112 450683.000000   30.4886888066  114.5600274403    28.3260    1   10    0.0000    0.0000    0.0000    0.0000    0.0000    0.0000    0.00     0.0      0
2112 450684.000000   30.4886742648  114.5601331199    28.3720    1   10    0.0000    0.0000    0.0000    0.0000    0.0000    0.0000    0.00     0.0      0
2112 450685.000000   30.4886595639  114.5602399523    28.4010    1   10    0.0000    0.0000    0.0000    0.0000    0.0000    0.0000    0.00     0.0      0
2112 450686.000000   30.4886444022  114.5603487985    28.4240    1   10    0.0000    0.0000    0.0000    0.0000    0.0000    0.0000    0.00     0.0      0
2112 450687.000000   30.4886287596  114.5604596717    28.4420    1   10    0.0000    0.0000    0.0000    0.0000    0.0000    0.0000    0.00     0.0      0
2112 450688.000000   30.4886126456  114.5605722873    28.4850    1   10    0.0000    0.0000    0.0000    0.0000    0.0000    0.0000    0.00     0.0      0
2112 450689.000000   30.4885962973  114.5606862584    28.5270    1   10    0.0000    0.0000    0.0000    0.0000    0.0000    0.0000    0.00     0.0      0
2112 450690.000000   30.4885797951  114.5608009610    28.5540    1   10    0.0000    0.0000    0.0000    0.0000    0.0000    0.0000    0.00     0.0      0
2112 450691.000000   30.4885630678  114.5609163328    28.5840    1   10    0.0000    0.0000    0.0000    0.0000    0.0000    0.0000    0.00     0.0      0
2112 450692.000000   30.4885463080  114.5610312426    28.6200    1   10    0.0000    0.0000    0.0000    0.0000    0.0000    0.0000    0.00     0.0      0
2112 450693.000000   30.4885296020  114.5611452009    28.6590    1   10    0.0000    0.0000    0.0000    0.0000    0.0000    0.0000    0.00     0.0      0
2112 450694.000000   30.4885132718  114.5612589699    28.6960    1   10    0.0000    0.0000    0.0000    0.0000    0.0000    0.0000    0.00     0.0      0
2112 450695.000000   30.4884972189  114.5613730828    28.7330    1   10    0.0000    0.0000    0.0000    0.0000    0.0000    0.0000    0.00     0.0      0
2112 450696.000000   30.4884811553  114.5614878986    28.7620    1   10    0.0000    0.0000    0.0000    0.0000    0.0000    0.0000    0.00     0.0      0
2112 450697.000000   30.4884648734  114.5616040592    28.7980    1   10    0.0000    0.0000    0.0000    0.0000    0.0000    0.0000    0.00     0.0      0
2112 450698.000000   30.4884483471  114.5617218720    28.8340    1   10    0.0000    0.0000    0.0000    0.0000    0.0000    0.0000    0.00     0.0      0
2112 450699.000000   30.4884315248  114.5618413335    28.8620    1   10    0.0000    0.0000    0.0000    0.0000    0.0000    0.0000    0.00     0.0      0
2112 450700.000000   30.4884144608  114.5619623472    28.9040    1   10    0.0000    0.0000    0.0000    0.0000    0.0000    0.0000    0.00     0.0      0
2112 450701.000000   30.4883971940  114.5620847545    28.9470    1   10    0.0000    0.0000    0.0000    0.0000    0.0000    0.0000    0.00     0.0      0
2112 450702.000000   30.4883798174  114.5622077672    28.9750    1   10    0.0000    0.0000    0.0000    0.0000    0.0000    0.0000    0.00     0.0      0
2112 450703.000000   30.4883626180  114.5623290751    29.0040    1   10    0.0000    0.0000    0.0000    0.0000    0.0000    0.0000    0.00     0.0      0
2112 450704.000000   30.4883456443  114.5624485070    29.0330    1   10    0.0000    0.0000    0.0000    0.0000    0.0000    0.0000    0.00     0.0      0
2112 450705.000000   30.4883284756  114.5625685867    29.0630    1   10    0.0000    0.0000    0.0000    0.0000    0.0000    0.0000    0.00     0.0      0
2112 450706.000000   30.4883111277  114.5626903835    29.0710    1   10    0.0000    0.0000    0.0000    0.0000    0.0000    0.0000    0.00     0.0      0
2112 450707.000000   30.4882937616  114.5628135651    29.0680    1   10    0.0000    0.0000    0.0000    0.0000    0.0000    0.0000    0.00     0.0      0
2112 450708.000000   30.4882767011  114.5629356792    29.0550    1   10    0.0000    0.0000    0.0000    0.0000    0.0000    0.0000    0.00     0.0      0
2112 450709.000000   30.4882601963  114.5630543833    29.0070    1   10    0.0000    0.0000    0.0000    0.0000    0.0000    0.0000    0.00     0.0      0
2112 450710.000000   30.4882440754  114.5631694083    28.9710    1   10    0.0000    0.0000    0.0000    0.0000    0.0000    0.0000    0.00     0.0      0
2112 450711.000000   30.4882285128  114.5632805944    28.9350    1   10    0.0000    0.0000    0.0000    0.0000    0.0000    0.0000    0.00     0.0      0
2112 450712.000000   30.4882139390  114.5633879542    28.9140    1   10    0.0000    0.0000    0.0000    0.0000    0.0000    0.0000    0.00     0.0      0
2112 450713.000000   30.4882006602  114.5634912478    28.8810    1   10    0.0000    0.0000    0.0000    0.0000    0.0000    0.0000    0.00     0.0      0
2112 450714.000000   30.4881885855  114.5635901759    28.8470    1   10    0.0000    0.0000    0.0000    0.0000    0.0000    0.0000    0.00     0.0      0
2112 450715.000000   30.4881775902  114.5636827429    28.8210    1   10    0.0000    0.0000    0.0000    0.0000    0.0000    0.0000    0.00     0.0      0
2112 450716.000000   30.4881675052  114.5637687909    28.8080    1   10    0.0000    0.0000    0.0000    0.0000    0.0000    0.0000    0.00     0.0      0
2112 450717.000000   30.4881574545  114.5638493581    28.7980    1   10    0.0000    0.0000    0.0000    0.0000    0.0000    0.0000    0.00     0.0      0
2112 450718.000000   30.4881478691  114.5639225938    28.8080    1   10    0.0000    0.0000    0.0000    0.0000    0.0000    0.0000    0.00     0.0      0
2112 450719.000000   30.4881392771  114.5639861191    28.8210    1   10    0.0000    0.0000    0.0000    0.0000    0.0000    0.0000    0.00     0.0      0
2112 450720.000000   30.4881321992  114.5640420580    28.8560    1   10    0.0000    0.0000    0.0000    0.0000    0.0000    0.0000    0.00     0.0      0
2112 450721.000000   30.4881303859  114.5640958258    28.9420    1   10    0.0000    0.0000    0.0000    0.0000    0.0000    0.0000    0.00     0.0      0
2112 450722.000000   30.4881395557  114.5641494148    29.1050    1   10    0.0000    0.0000    0.0000    0.0000    0.0000    0.0000    0.00     0.0      0
2112 450723.000000   30.4881601158  114.5642010820    29.2670    1   10    0.0000    0.0000    0.0000    0.0000    0.0000    0.0000    0.00     0.0      0
2112 450724.000000   30.4881920290  114.5642473899    29.4710    1   10    0.0000    0.0000    0.0000    0.0000    0.0000    0.0000    0.00     0.0      0
2112 450725.000000   30.4882346938  114.5642848227    29.6850    1   10    0.0000    0.0000    0.0000    0.0000    0.0000    0.0000    0.00     0.0      0
2112 450726.000000   30.4882864275  114.5643115551    29.8990    1   10    0.0000    0.0000    0.0000    0.0000    0.0000    0.0000    0.00     0.0      0
2112 450727.000000   30.4883427717  114.5643349230    30.1310    1   10    0.0000    0.0000    0.0000    0.0000    0.0000    0.0000    0.00     0.0      0
2112 450728.000000   30.4884020599  114.5643602601    30.3920    1   10    0.0000    0.0000    0.0000    0.0000    0.0000    0.0000    0.00     0.0      0
2112 450729.000000   30.4884650276  114.5643870101    30.6380    1   10    0.0000    0.0000    0.0000    0.0000    0.0000    0.0000    0.00     0.0      0
2112 450730.000000   30.4885316311  114.5644150551    30.9100    1   10    0.0000    0.0000    0.0000    0.0000    0.0000    0.0000    0.00     0.0      0
2112 450731.000000   30.4886014425  114.5644442739    31.1920    1   10    0.0000    0.0000    0.0000    0.0000    0.0000    0.0000    0.00     0.0      0
2112 450732.000000   30.4886729582  114.5644741920    31.4600    1   10    0.0000    0.0000    0.0000    0.0000    0.0000    0.0000    0.00     0.0      0
2112 450733.000000   30.4887433400  114.5645038727    31.7290    1   10    0.0000    0.0000    0.0000    0.0000    0.0000    0.0000    0.00     0.0      0
2112 450734.000000   30.4888104123  114.5645325640    31.9780    1   10    0.0000    0.0000    0.0000    0.0000    0.0000    0.0000    0.00     0.0      0
2112 450735.000000   30.4888711577  114.5645594573    32.1580    1   10    0.0000    0.0000    0.0000    0.0000    0.0000    0.0000    0.00     0.0      0
2112 450736.000000   30.4889249464  114.5645854206    32.3470    1   10    0.0000    0.0000    0.0000    0.0000    0.0000    0.0000    0.00     0.0      0
2112 450737.000000   30.4889733231  114.5646129754    32.5050    1   10    0.0000    0.0000    0.0000    0.0000    0.0000    0.0000    0.00     0.0      0
2112 450738.000000   30.4890161366  114.5646459843    32.7080    1   10    0.0000    0.0000    0.0000    0.0000    0.0000    0.0000    0.00     0.0      0
2112 450739.000000   30.4890528875  114.5646858855    32.7810    1   10    0.0000    0.0000    0.0000    0.0000    0.0000    0.0000    0.00     0.0      0
2112 450740.000000   30.4890827317  114.5647351163    32.7850    1   10    0.0000    0.0000    0.0000    0.0000    0.0000    0.0000    0.00     0.0      0
2112 450741.000000   30.4891003230  114.5647923382    32.8310    1   10    0.0000    0.0000    0.0000    0.0000    0.0000    0.0000    0.00     0.0      0
2112 450742.000000   30.4891037676  114.5648552596    32.8690    1   10    0.0000    0.0000    0.0000    0.0000    0.0000    0.0000    0.00     0.0      0
2112 450743.000000   30.4890959120  114.5649221302    32.8800    1   10    0.0000    0.0000    0.0000    0.0000    0.0000    0.0000    0.00     0.0      0
2112 450744.000000   30.4890853825  114.5649951225    32.8930    1   10    0.0000    0.0000    0.0000    0.0000    0.0000    0.0000    0.00     0.0      0
2112 450745.000000   30.4890746108  114.5650747369    32.9260    1   10    0.0000    0.0000    0.0000    0.0000    0.0000    0.0000    0.00     0.0      0
2112 450746.000000   30.4890637403  114.5651603170    32.9460    1   10    0.0000    0.0000    0.0000    0.0000    0.0000    0.0000    0.00     0.0      0
2112 450747.000000   30.4890522658  114.5652512213    32.9880    1   10    0.0000    0.0000    0.0000    0.0000    0.0000    0.0000    0.00     0.0      0
2112 450748.000000   30.4890411741  114.5653471389    33.0260    1   10    0.0000    0.0000    0.0000    0.0000    0.0000    0.0000    0.00     0.0      0
2112 450749.000000   30.4890299222  114.5654490166    33.0760    1   10    0.0000    0.0000    0.0000    0.0000    0.0000    0.0000    0.00     0.0      0
2112 450750.000000   30.4890177707  114.5655562006    33.1610    1   10    0.0000    0.0000    0.0000    0.0000    0.0000    0.0000    0.00     0.0      0
2112 450751.000000   30.4890034909  114.5656677003    33.2520    1   10    0.0000    0.0000    0.0000    0.0000    0.0000    0.0000    0.00     0.0      0
2112 450752.000000   30.4889882321  114.5657832211    33.3640    1   10    0.0000    0.0000    0.0000    0.0000    0.0000    0.0000    0.00     0.0      0
2112 450753.000000   30.4889736570  114.5659018604    33.4870    1   10    0.0000    0.0000    0.0000    0.0000    0.0000    0.0000    0.00     0.0      0
2112 450754.000000   30.4889589409  114.5660219729    33.6300    1   10    0.0000    0.0000    0.0000    0.0000    0.0000    0.0000    0.00     0.0      0
2112 450755.000000   30.4889435065  114.5661432177    33.7890    1   10    0.0000    0.0000    0.0000    0.0000    0.0000    0.0000    0.00     0.0      0
2112 450756.000000   30.4889270141  114.5662648489    33.9220    1   10    0.0000    0.0000    0.0000    0.0000    0.0000    0.0000    0.00     0.0      0
2112 450757.000000   30.4889098774  114.5663864056    34.0700    1   10    0.0000    0.0000    0.0000    0.0000    0.0000    0.0000    0.00     0.0      0
2112 450758.000000   30.4888926117  114.5665075574    34.2310    1   10    0.0000    0.0000    0.0000    0.0000    0.0000    0.0000    0.00     0.0      0
2112 450759.000000   30.4888761543  114.5666285681    34.3660    1   10    0.0000    0.0000    0.0000    0.0000    0.0000    0.0000    0.00     0.0      0
2112 450760.000000   30.4888600676  114.5667507847    34.5170    1   10    0.0000    0.0000    0.0000    0.0000    0.0000    0.0000    0.00     0.0      0
2112 450761.000000   30.4888440499  114.5668749591    34.6740    1   10    0.0000    0.0000    0.0000    0.0000    0.0000    0.0000    0.00     0.0      0
2112 450762.000000   30.4888296188  114.5670012721    34.8360    1   10    0.0000    0.0000    0.0000    0.0000    0.0000    0.0000    0.00     0.0      0
2112 450763.000000   30.4888166991  114.5671291827    35.0010    1   10    0.0000    0.0000    0.0000    0.0000    0.0000    0.0000    0.00     0.0      0
2112 450764.000000   30.4888049733  114.5672566523    35.1700    1   10    0.0000    0.0000    0.0000    0.0000    0.0000    0.0000    0.00     0.0      0
2112 450765.000000   30.4887946177  114.5673838602    35.3410    1   10    0.0000    0.0000    0.0000    0.0000    0.0000    0.0000    0.00     0.0      0
2112 450766.000000   30.4887839332  114.5675120424    35.5060    1   10    0.0000    0.0000    0.0000    0.0000    0.0000    0.0000    0.00     0.0      0
2112 450767.000000   30.4887747121  114.5676417020    35.6660    1   10    0.0000    0.0000    0.0000    0.0000    0.0000    0.0000    0.00     0.0      0
2112 450768.000000   30.4887672255  114.5677729860    35.8140    1   10    0.0000    0.0000    0.0000    0.0000    0.0000    0.0000    0.00     0.0      0
2112 450769.000000   30.4887598756  114.5679059527    36.0120    1   10    0.0000    0.0000    0.0000    0.0000    0.0000    0.0000    0.00     0.0      0
2112 450770.000000   30.4887517892  114.5680410418    36.2030    1   10    0.0000    0.0000    0.0000    0.0000    0.0000    0.0000    0.00     0.0      0
2112 450771.000000   30.4887422590  114.5681783674    36.4030    1   10    0.0000    0.0000    0.0000    0.0000    0.0000    0.0000    0.00     0.0      0
2112 450772.000000   30.4887306066  114.5683178745    36.5840    1   10    0.0000    0.0000    0.0000    0.0000    0.0000    0.0000    0.00     0.0      0
2112 450773.000000   30.4887174825  114.5684597642    36.7360    1   10    0.0000    0.0000    0.0000    0.0000    0.0000    0.0000    0.00     0.0      0
2112 450774.000000   30.4887030444  114.5686039899    36.8970    1   10    0.0000    0.0000    0.0000    0.0000    0.0000    0.0000    0.00     0.0      0
2112 450775.000000   30.4886875830  114.5687505118    37.0240    1   10    0.0000    0.0000    0.0000    0.0000    0.0000    0.0000    0.00     0.0      0
2112 450776.000000   30.4886701871  114.5688991036    37.1570    1   10    0.0000    0.0000    0.0000    0.0000    0.0000    0.0000    0.00     0.0      0
2112 450777.000000   30.4886506130  114.5690497122    37.2660    1   10    0.0000    0.0000    0.0000    0.0000    0.0000    0.0000    0.00     0.0      0
2112 450778.000000   30.4886295369  114.5692024477    37.3480    1   10    0.0000    0.0000    0.0000    0.0000    0.0000    0.0000    0.00     0.0      0
2112 450779.000000   30.4886074215  114.5693575279    37.4220    1   10    0.0000    0.0000    0.0000    0.0000    0.0000    0.0000    0.00     0.0      0
2112 450780.000000   30.4885852698  114.5695151602    37.4780    1   10    0.0000    0.0000    0.0000    0.0000    0.0000    0.0000    0.00     0.0      0
2112 450781.000000   30.4885630326  114.5696753065    37.5180    1   10    0.0000    0.0000    0.0000    0.0000    0.0000    0.0000    0.00     0.0      0
2112 450782.000000   30.4885404236  114.5698379803    37.5430    1   10    0.0000    0.0000    0.0000    0.0000    0.0000    0.0000    0.00     0.0      0
2112 450783.000000   30.4885173137  114.5700031554    37.5610    1   10    0.0000    0.0000    0.0000    0.0000    0.0000    0.0000    0.00     0.0      0
2112 450784.000000   30.4884937899  114.5701708761    37.5420    1   10    0.0000    0.0000    0.0000    0.0000    0.0000    0.0000    0.00     0.0      0
2112 450785.000000   30.4884696665  114.5703411643    37.5150    1   10    0.0000    0.0000    0.0000    0.0000    0.0000    0.0000    0.00     0.0      0
2112 450786.000000   30.4884447909  114.5705131502    37.4740    1   10    0.0000    0.0000    0.0000    0.0000    0.0000    0.0000    0.00     0.0      0
2112 450787.000000   30.4884196609  114.5706856298    37.4110    1   10    0.0000    0.0000    0.0000    0.0000    0.0000    0.0000    0.00     0.0      0
2112 450788.000000   30.4883943849  114.5708587605    37.3170    1   10    0.0000    0.0000    0.0000    0.0000    0.0000    0.0000    0.00     0.0      0
2112 450789.000000   30.4883690585  114.5710328358    37.2210    1   10    0.0000    0.0000    0.0000    0.0000    0.0000    0.0000    0.00     0.0      0
2112 450790.000000   30.4883432976  114.5712079459    37.1100    1   10    0.0000    0.0000    0.0000    0.0000    0.0000    0.0000    0.00     0.0      0
2112 450791.000000   30.4883174220  114.5713838269    36.9770    1   10    0.0000    0.0000    0.0000    0.0000    0.0000    0.0000    0.00     0.0      0
2112 450792.000000   30.4882920357  114.5715588676    36.8030    1   10    0.0000    0.0000    0.0000    0.0000    0.0000    0.0000    0.00     0.0      0
2112 450793.000000   30.4882670585  114.5717325312    36.6290    1   10    0.0000    0.0000    0.0000    0.0000    0.0000    0.0000    0.00     0.0      0
2112 450794.000000   30.4882422868  114.5719049800    36.4330    1   10    0.0000    0.0000    0.0000    0.0000    0.0000    0.0000    0.00     0.0      0
2112 450795.000000   30.4882174487  114.5720767235    36.2190    1   10    0.0000    0.0000    0.0000    0.0000    0.0000    0.0000    0.00     0.0      0
2112 450796.000000   30.4881929200  114.5722482330    35.9920    1   10    0.0000    0.0000    0.0000    0.0000    0.0000    0.0000    0.00     0.0      0
2112 450797.000000   30.4881690049  114.5724197419    35.7530    1   10    0.0000    0.0000    0.0000    0.0000    0.0000    0.0000    0.00     0.0      0
2112 450798.000000   30.4881449024  114.5725912158    35.4830    1   10    0.0000    0.0000    0.0000    0.0000    0.0000    0.0000    0.00     0.0      0
2112 450799.000000   30.4881202514  114.5727626682    35.2010    1   10    0.0000    0.0000    0.0000    0.0000    0.0000    0.0000    0.00     0.0      0
2112 450800.000000   30.4880957340  114.5729340688    34.9100    1   10    0.0000    0.0000    0.0000    0.0000    0.0000    0.0000    0.00     0.0      0
2112 450801.000000   30.4880712718  114.5731055862    34.5980    1   10    0.0000    0.0000    0.0000    0.0000    0.0000    0.0000    0.00     0.0      0
2112 450802.000000   30.4880468101  114.5732774802    34.2810    1   10    0.0000    0.0000    0.0000    0.0000    0.0000    0.0000    0.00     0.0      0
2112 450803.000000   30.4880222196  114.5734501625    33.9680    1   10    0.0000    0.0000    0.0000    0.0000    0.0000    0.0000    0.00     0.0      0
2112 450804.000000   30.4879974437  114.5736238578    33.6510    1   10    0.0000    0.0000    0.0000    0.0000    0.0000    0.0000    0.00     0.0      0
2112 450805.000000   30.4879723845  114.5737985193    33.3370    1   10    0.0000    0.0000    0.0000    0.0000    0.0000    0.0000    0.00     0.0      0
2112 450806.000000   30.4879470527  114.5739741947    32.9990    1   10    0.0000    0.0000    0.0000    0.0000    0.0000    0.0000    0.00     0.0      0
2112 450807.000000   30.4879220345  114.5741508687    32.6680    1   10    0.0000    0.0000    0.0000    0.0000    0.0000    0.0000    0.00     0.0      0
2112 450808.000000   30.4878973854  114.5743283798    32.3350    1   10    0.0000    0.0000    0.0000    0.0000    0.0000    0.0000    0.00     0.0      0
2112 450809.000000   30.4878724972  114.5745065349    31.9930    1   10    0.0000    0.0000    0.0000    0.0000    0.0000    0.0000    0.00     0.0      0
2112 450810.000000   30.4878474042  114.5746852836    31.6740    1   10    0.0000    0.0000    0.0000    0.0000    0.0000    0.0000    0.00     0.0      0
2112 450811.000000   30.4878219874  114.5748644109    31.3530    1   10    0.0000    0.0000    0.0000    0.0000    0.0000    0.0000    0.00     0.0      0
2112 450812.000000   30.4877963067  114.5750440529    31.0320    1   10    0.0000    0.0000    0.0000    0.0000    0.0000    0.0000    0.00     0.0      0
2112 450813.000000   30.4877705468  114.5752241674    30.6940    1   10    0.0000    0.0000    0.0000    0.0000    0.0000    0.0000    0.00     0.0      0
2112 450814.000000   30.4877449703  114.5754048048    30.3600    1   10    0.0000    0.0000    0.0000    0.0000    0.0000    0.0000    0.00     0.0      0
2112 450815.000000   30.4877192656  114.5755859291    30.0210    1   10    0.0000    0.0000    0.0000    0.0000    0.0000    0.0000    0.00     0.0      0
2112 450816.000000   30.4876930802  114.5757674720    29.6980    1   10    0.0000    0.0000    0.0000    0.0000    0.0000    0.0000    0.00     0.0      0
2112 450817.000000   30.4876672514  114.5759491889    29.3730    1   10    0.0000    0.0000    0.0000    0.0000    0.0000    0.0000    0.00     0.0      0
2112 450818.000000   30.4876422824  114.5761302586    29.0400    1   10    0.0000    0.0000    0.0000    0.0000    0.0000    0.0000    0.00     0.0      0
2112 450819.000000   30.4876174366  114.5763095510    28.7230    1   10    0.0000    0.0000    0.0000    0.0000    0.0000    0.0000    0.00     0.0      0
2112 450820.000000   30.4875923200  114.5764865988    28.3940    1   10    0.0000    0.0000    0.0000    0.0000    0.0000    0.0000    0.00     0.0      0
2112 450821.000000   30.4875669291  114.5766614374    28.0680    1   10    0.0000    0.0000    0.0000    0.0000    0.0000    0.0000    0.00     0.0      0
2112 450822.000000   30.4875413662  114.5768341164    27.7370    1   10    0.0000    0.0000    0.0000    0.0000    0.0000    0.0000    0.00     0.0      0
2112 450823.000000   30.4875158748  114.5770046825    27.4080    1   10    0.0000    0.0000    0.0000    0.0000    0.0000    0.0000    0.00     0.0      0
2112 450824.000000   30.4874911788  114.5771732523    27.0910    1   10    0.0000    0.0000    0.0000    0.0000    0.0000    0.0000    0.00     0.0      0
2112 450825.000000   30.4874672748  114.5773397572    26.7940    1   10    0.0000    0.0000    0.0000    0.0000    0.0000    0.0000    0.00     0.0      0
2112 450826.000000   30.4874435936  114.5775041647    26.4900    1   10    0.0000    0.0000    0.0000    0.0000    0.0000    0.0000    0.00     0.0      0
2112 450827.000000   30.4874201788  114.5776666249    26.1850    1   10    0.0000    0.0000    0.0000    0.0000    0.0000    0.0000    0.00     0.0      0
2112 450828.000000   30.4873966474  114.5778278707    25.8860    1   10    0.0000    0.0000    0.0000    0.0000    0.0000    0.0000    0.00     0.0      0
2112 450829.000000   30.4873731045  114.5779881835    25.5870    1   10    0.0000    0.0000    0.0000    0.0000    0.0000    0.0000    0.00     0.0      0
2112 450830.000000   30.4873504222  114.5781466612    25.3200    1   10    0.0000    0.0000    0.0000    0.0000    0.0000    0.0000    0.00     0.0      0
2112 450831.000000   30.4873284345  114.5783028909    25.0170    1   10    0.0000    0.0000    0.0000    0.0000    0.0000    0.0000    0.00     0.0      0
2112 450832.000000   30.4873071543  114.5784560720    24.7390    1   10    0.0000    0.0000    0.0000    0.0000    0.0000    0.0000    0.00     0.0      0
2112 450833.000000   30.4872868332  114.5786056854    24.4720    1   10    0.0000    0.0000    0.0000    0.0000    0.0000    0.0000    0.00     0.0      0
2112 450834.000000   30.4872671877  114.5787516252    24.1940    1   10    0.0000    0.0000    0.0000    0.0000    0.0000    0.0000    0.00     0.0      0
2112 450835.000000   30.4872481303  114.5788938623    23.9510    1   10    0.0000    0.0000    0.0000    0.0000    0.0000    0.0000    0.00     0.0      0
2112 450836.000000   30.4872296111  114.5790322516    23.7320    1   10    0.0000    0.0000    0.0000    0.0000    0.0000    0.0000    0.00     0.0      0
2112 450837.000000   30.4872116245  114.5791659710    23.5350    1   10    0.0000    0.0000    0.0000    0.0000    0.0000    0.0000    0.00     0.0      0
2112 450838.000000   30.4871940555  114.5792933312    23.3830    1   10    0.0000    0.0000    0.0000    0.0000    0.0000    0.0000    0.00     0.0      0
2112 450839.000000   30.4871773006  114.5794131306    23.2320    1   10    0.0000    0.0000    0.0000    0.0000    0.0000    0.0000    0.00     0.0      0
2112 450840.000000   30.4871615222  114.5795246500    23.0710    1   10    0.0000    0.0000    0.0000    0.0000    0.0000    0.0000    0.00     0.0      0
2112 450841.000000   30.4871467956  114.5796275466    22.9460    1   10    0.0000    0.0000    0.0000    0.0000    0.0000    0.0000    0.00     0.0      0
2112 450842.000000   30.4871332791  114.5797213688    22.8370    1   10    0.0000    0.0000    0.0000    0.0000    0.0000    0.0000    0.00     0.0      0
2112 450843.000000   30.4871210212  114.5798056138    22.7510    1   10    0.0000    0.0000    0.0000    0.0000    0.0000    0.0000    0.00     0.0      0
2112 450844.000000   30.4871103421  114.5798786112    22.6660    1   10    0.0000    0.0000    0.0000    0.0000    0.0000    0.0000    0.00     0.0      0
2112 450845.000000   30.4871018052  114.5799372592    22.6000    1   10    0.0000    0.0000    0.0000    0.0000    0.0000    0.0000    0.00     0.0      0
2112 450846.000000   30.4870957813  114.5799791771    22.5570    1   10    0.0000    0.0000    0.0000    0.0000    0.0000    0.0000    0.00     0.0      0
2112 450847.000000   30.4870920479  114.5800056564    22.5340    1   10    0.0000    0.0000    0.0000    0.0000    0.0000    0.0000    0.00     0.0      0
2112 450848.000000   30.4870891187  114.5800266053    22.5130    1   10    0.0000    0.0000    0.0000    0.0000    0.0000    0.0000    0.00     0.0      0
2112 450849.000000   30.4870867896  114.5800436156    22.5000    1   10    0.0000    0.0000    0.0000    0.0000    0.0000    0.0000    0.00     0.0      0
2112 450850.000000   30.4870852111  114.5800552115    22.4960    1   10    0.0000    0.0000    0.0000    0.0000    0.0000    0.0000    0.00     0.0      0
2112 450851.000000   30.4870844118  114.5800611097    22.4960    1   10    0.0000    0.0000    0.0000    0.0000    0.0000    0.0000    0.00     0.0      0
2112 450852.000000   30.4870842932  114.5800620637    22.4970    1   10    0.0000    0.0000    0.0000    0.0000    0.0000    0.0000    0.00     0.0      0
2112 450853.000000   30.4870843018  114.5800620535    22.4970    1   10    0.0000    0.0000    0.0000    0.0000    0.0000    0.0000    0.00     0.0      0
2112 450854.000000   30.4870843024  114.5800620528    22.4940    1   10    0.0000    0.0000    0.0000    0.0000    0.0000    0.0000    0.00     0.0      0
2112 450855.000000   30.4870843056  114.5800620433    22.4940    1   10    0.0000    0.0000    0.0000    0.0000    0.0000    0.0000    0.00     0.0      0
2112 450856.000000   30.4870843004  114.5800620431    22.4930    1   10    0.0000    0.0000    0.0000    0.0000    0.0000    0.0000    0.00     0.0      0
2112 450857.000000   30.4870843072  114.5800620449    22.4910    1   10    0.0000    0.0000    0.0000    0.0000    0.0000    0.0000    0.00     0.0      0
2112 450858.000000   30.4870843084  114.5800620448    22.4880    1   10    0.0000    0.0000    0.0000    0.0000    0.0000    0.0000    0.00     0.0      0
2112 450859.000000   30.4870843076  114.5800620385    22.4870    1   10    0.0000    0.0000    0.0000    0.0000    0.0000    0.0000    0.00     0.0      0
2112 450860.000000   30.4870843137  114.5800620319    22.4870    1   10    0.0000    0.0000    0.0000    0.0000    0.0000    0.0000    0.00     0.0      0
2112 450861.000000   30.4870843082  114.5800620300    22.4870    1   10    0.0000    0.0000    0.0000    0.0000    0.0000    0.0000    0.00     0.0      0
2112 450862.000000   30.4870843143  114.5800620293    22.4890    1   10    0.0000    0.0000    0.0000    0.0000    0.0000    0.0000    0.00     0.0      0
2112 450863.000000   30.4870843121  114.5800620360    22.4890    1   10    0.0000    0.0000    0.0000    0.0000    0.0000    0.0000    0.00     0.0      0
2112 450864.000000   30.4870843076  114.5800620388    22.4870    1   10    0.0000    0.0000    0.0000    0.0000    0.0000    0.0000    0.00     0.0      0
2112 450865.000000   30.4870843134  114.5800620332    22.4870    1   10    0.0000    0.0000    0.0000    0.0000    0.0000    0.0000    0.00     0.0      0
2112 450866.000000   30.4870843203  114.5800620340    22.4880    1   10    0.0000    0.0000    0.0000    0.0000    0.0000    0.0000    0.00     0.0      0
2112 450867.000000   30.4870843187  114.5800620429    22.4880    1   10    0.0000    0.0000    0.0000    0.0000    0.0000    0.0000    0.00     0.0      0
2112 450868.000000   30.4870843120  114.5800620365    22.4870    1   10    0.0000    0.0000    0.0000    0.0000    0.0000    0.0000    0.00     0.0      0
2112 450869.000000   30.4870843024  114.5800620312    22.4870    1   10    0.0000    0.0000    0.0000    0.0000    0.0000    0.0000    0.00     0.0      0
2112 450870.000000   30.4870843089  114.5800620261    22.4880    1   10    0.0000    0.0000    0.0000    0.0000    0.0000    0.0000    0.00     0.0      0
2112 450871.000000   30.4870843073  114.5800620277    22.4870    1   10    0.0000    0.0000    0.0000    0.0000    0.0000    0.0000    0.00     0.0      0
2112 450872.000000   30.4870843121  114.5800620282    22.4880    1   10    0.0000    0.0000    0.0000    0.0000    0.0000    0.0000    0.00     0.0      0
2112 450873.000000   30.4870843180  114.5800620323    22.4890    1   10    0.0000    0.0000    0.0000    0.0000    0.0000    0.0000    0.00     0.0      0
2112 450874.000000   30.4870843212  114.5800620398    22.4900    1   10    0.0000    0.0000    0.0000    0.0000    0.0000    0.0000    0.00     0.0      0
2112 450875.000000   30.4870843194  114.5800620335    22.4890    1   10    0.0000    0.0000    0.0000    0.0000    0.0000    0.0000    0.00     0.0      0
2112 450876.000000   30.4870843114  114.5800620211    22.4880    1   10    0.0000    0.0000    0.0000    0.0000    0.0000    0.0000    0.00     0.0      0
2112 450877.000000   30.4870843138  114.5800620181    22.4870    1   10    0.0000    0.0000    0.0000    0.0000    0.0000    0.0000    0.00     0.0      0
2112 450878.000000   30.4870843155  114.5800620265    22.4870    1   10    0.0000    0.0000    0.0000    0.0000    0.0000    0.0000    0.00     0.0      0
2112 450879.000000   30.4870843140  114.5800620378    22.4870    1   10    0.0000    0.0000    0.0000    0.0000    0.0000    0.0000    0.00     0.0      0
2112 450880.000000   30.4870843247  114.5800620272    22.4880    1   10    0.0000    0.0000    0.0000    0.0000    0.0000    0.0000    0.00     0.0      0
2112 450881.000000   30.4870843278  114.5800620120    22.4880    1   10    0.0000    0.0000    0.0000    0.0000    0.0000    0.0000    0.00     0.0      0
2112 450882.000000   30.4870843205  114.5800620129    22.4880    1   10    0.0000    0.0000    0.0000    0.0000    0.0000    0.0000    0.00     0.0      0
2112 450883.000000   30.4870843175  114.5800620164    22.4880    1   10    0.0000    0.0000    0.0000    0.0000    0.0000    0.0000    0.00     0.0      0
2112 450884.000000   30.4870843113  114.5800620259    22.4880    1   10    0.0000    0.0000    0.0000    0.0000    0.0000    0.0000    0.00     0.0      0
2112 450885.000000   30.4870842891  114.5800621839    22.4910    1   10    0.0000    0.0000    0.0000    0.0000    0.0000    0.0000    0.00     0.0      0
2112 450886.000000   30.4870838456  114.5800654500    22.4920    1   10    0.0000    0.0000    0.0000    0.0000    0.0000    0.0000    0.00     0.0      0
2112 450887.000000   30.4870822856  114.5800771348    22.4850    1   10    0.0000    0.0000    0.0000    0.0000    0.0000    0.0000    0.00     0.0      0
2112 450888.000000   30.4870790047  114.5801018608    22.4730    1   10    0.0000    0.0000    0.0000    0.0000    0.0000    0.0000    0.00     0.0      0
2112 450889.000000   30.4870740018  114.5801398349    22.4470    1   10    0.0000    0.0000    0.0000    0.0000    0.0000    0.0000    0.00     0.0      0
2112 450890.000000   30.4870672824  114.5801897601    22.3990    1   10    0.0000    0.0000    0.0000    0.0000    0.0000    0.0000    0.00     0.0      0
2112 450891.000000   30.4870590524  114.5802498818    22.3540    1   10    0.0000    0.0000    0.0000    0.0000    0.0000    0.0000    0.00     0.0      0
2112 450892.000000   30.4870495731  114.5803186090    22.3170    1   10    0.0000    0.0000    0.0000    0.0000    0.0000    0.0000    0.00     0.0      0
2112 450893.000000   30.4870388609  114.5803944903    22.3210    1   10    0.0000    0.0000    0.0000    0.0000    0.0000    0.0000    0.00     0.0      0
2112 450894.000000   30.4870271232  114.5804766152    22.3110    1   10    0.0000    0.0000    0.0000    0.0000    0.0000    0.0000    0.00     0.0      0
2112 450895.000000   30.4870142841  114.5805647156    22.2880    1   10    0.0000    0.0000    0.0000    0.0000    0.0000    0.0000    0.00     0.0      0
2112 450896.000000   30.4870004263  114.5806588856    22.2420    1   10    0.0000    0.0000    0.0000    0.0000    0.0000    0.0000    0.00     0.0      0
2112 450897.000000   30.4869856007  114.5807592003    22.1940    1   10    0.0000    0.0000    0.0000    0.0000    0.0000    0.0000    0.00     0.0      0
2112 450898.000000   30.4869698887  114.5808653650    22.1630    1   10    0.0000    0.0000    0.0000    0.0000    0.0000    0.0000    0.00     0.0      0
2112 450899.000000   30.4869538381  114.5809766114    22.1890    1   10    0.0000    0.0000    0.0000    0.0000    0.0000    0.0000    0.00     0.0      0
2112 450900.000000   30.4869373094  114.5810925345    22.1760    1   10    0.0000    0.0000    0.0000    0.0000    0.0000    0.0000    0.00     0.0      0
2112 450901.000000   30.4869199879  114.5812129471    22.1920    1   10    0.0000    0.0000    0.0000    0.0000    0.0000    0.0000    0.00     0.0      0
2112 450902.000000   30.4869020705  114.5813374844    22.2200    1   10    0.0000    0.0000    0.0000    0.0000    0.0000    0.0000    0.00     0.0      0
2112 450903.000000   30.4868839118  114.5814656552    22.3060    1   10    0.0000    0.0000    0.0000    0.0000    0.0000    0.0000    0.00     0.0      0
2112 450904.000000   30.4868654514  114.5815972278    22.3420    1   10    0.0000    0.0000    0.0000    0.0000    0.0000    0.0000    0.00     0.0      0
2112 450905.000000   30.4868466796  114.5817319899    22.4280    1   10    0.0000    0.0000    0.0000    0.0000    0.0000    0.0000    0.00     0.0      0
2112 450906.000000   30.4868271865  114.5818696459    22.5330    1   10    0.0000    0.0000    0.0000    0.0000    0.0000    0.0000    0.00     0.0      0
2112 450907.000000   30.4868070208  114.5820100592    22.6460    1   10    0.0000    0.0000    0.0000    0.0000    0.0000    0.0000    0.00     0.0      0
2112 450908.000000   30.4867861859  114.5821530923    22.7320    1   10    0.0000    0.0000    0.0000    0.0000    0.0000    0.0000    0.00     0.0      0
2112 450909.000000   30.4867656463  114.5822988381    22.8210    1   10    0.0000    0.0000    0.0000    0.0000    0.0000    0.0000    0.00     0.0      0
2112 450910.000000   30.4867456983  114.5824471343    22.9200    1   10    0.0000    0.0000    0.0000    0.0000    0.0000    0.0000    0.00     0.0      0
2112 450911.000000   30.4867269081  114.5825981358    22.9720    1   10    0.0000    0.0000    0.0000    0.0000    0.0000    0.0000    0.00     0.0      0
2112 450912.000000   30.4867092041  114.5827516904    23.0970    1   10    0.0000    0.0000    0.0000    0.0000    0.0000    0.0000    0.00     0.0      0
2112 450913.000000   30.4866918449  114.5829072763    23.2280    1   10    0.0000    0.0000    0.0000    0.0000    0.0000    0.0000    0.00     0.0      0
2112 450914.000000   30.4866744976  114.5830649978    23.2890    1   10    0.0000    0.0000    0.0000    0.0000    0.0000    0.0000    0.00     0.0      0
2112 450915.000000   30.4866571381  114.5832247402    23.4490    1   10    0.0000    0.0000    0.0000    0.0000    0.0000    0.0000    0.00     0.0      0
2112 450916.000000   30.4866400320  114.5833864018    23.5420    1   10    0.0000    0.0000    0.0000    0.0000    0.0000    0.0000    0.00     0.0      0
2112 450917.000000   30.4866235986  114.5835499921    23.6860    1   10    0.0000    0.0000    0.0000    0.0000    0.0000    0.0000    0.00     0.0      0
2112 450918.000000   30.4866077315  114.5837154056    23.8020    1   10    0.0000    0.0000    0.0000    0.0000    0.0000    0.0000    0.00     0.0      0
2112 450919.000000   30.4865924519  114.5838826393    23.9100    1   10    0.0000    0.0000    0.0000    0.0000    0.0000    0.0000    0.00     0.0      0
2112 450920.000000   30.4865777916  114.5840516540    24.0100    1   10    0.0000    0.0000    0.0000    0.0000    0.0000    0.0000    0.00     0.0      0
2112 450921.000000   30.4865638155  114.5842224505    24.1290    1   10    0.0000    0.0000    0.0000    0.0000    0.0000    0.0000    0.00     0.0      0
2112 450922.000000   30.4865508605  114.5843949258    24.2420    1   10    0.0000    0.0000    0.0000    0.0000    0.0000    0.0000    0.00     0.0      0
2112 450923.000000   30.4865395349  114.5845690873    24.3440    1   10    0.0000    0.0000    0.0000    0.0000    0.0000    0.0000    0.00     0.0      0
2112 450924.000000   30.4865294852  114.5847447640    24.4660    1   10    0.0000    0.0000    0.0000    0.0000    0.0000    0.0000    0.00     0.0      0
2112 450925.000000   30.4865203587  114.5849215774    24.5770    1   10    0.0000    0.0000    0.0000    0.0000    0.0000    0.0000    0.00     0.0      0
2112 450926.000000   30.4865115999  114.5850980769    24.7020    1   10    0.0000    0.0000    0.0000    0.0000    0.0000    0.0000    0.00     0.0      0
2112 450927.000000   30.4865035863  114.5852743693    24.8460    1   10    0.0000    0.0000    0.0000    0.0000    0.0000    0.0000    0.00     0.0      0
2112 450928.000000   30.4864959038  114.5854505470    24.9880    1   10    0.0000    0.0000    0.0000    0.0000    0.0000    0.0000    0.00     0.0      0
2112 450929.000000   30.4864884586  114.5856268219    25.1030    1   10    0.0000    0.0000    0.0000    0.0000    0.0000    0.0000    0.00     0.0      0
2112 450930.000000   30.4864815644  114.5858031980    25.2300    1   10    0.0000    0.0000    0.0000    0.0000    0.0000    0.0000    0.00     0.0      0
2112 450931.000000   30.4864751664  114.5859796491    25.3410    1   10    0.0000    0.0000    0.0000    0.0000    0.0000    0.0000    0.00     0.0      0
2112 450932.000000   30.4864698779  114.5861561999    25.4590    1   10    0.0000    0.0000    0.0000    0.0000    0.0000    0.0000    0.00     0.0      0
2112 450933.000000   30.4864657824  114.5863328865    25.5660    1   10    0.0000    0.0000    0.0000    0.0000    0.0000    0.0000    0.00     0.0      0
2112 450934.000000   30.4864626153  114.5865095922    25.6820    1   10    0.0000    0.0000    0.0000    0.0000    0.0000    0.0000    0.00     0.0      0
2112 450935.000000   30.4864605346  114.5866860100    25.7950    1   10    0.0000    0.0000    0.0000    0.0000    0.0000    0.0000    0.00     0.0      0
2112 450936.000000   30.4864594237  114.5868623906    25.9170    1   10    0.0000    0.0000    0.0000    0.0000    0.0000    0.0000    0.00     0.0      0
2112 450937.000000   30.4864588614  114.5870391100    26.0130    1   10    0.0000    0.0000    0.0000    0.0000    0.0000    0.0000    0.00     0.0      0
2112 450938.000000   30.4864594334  114.5872163433    26.1360    1   10    0.0000    0.0000    0.0000    0.0000    0.0000    0.0000    0.00     0.0      0
2112 450939.000000   30.4864607694  114.5873942388    26.2440    1   10    0.0000    0.0000    0.0000    0.0000    0.0000    0.0000    0.00     0.0      0
2112 450940.000000   30.4864631388  114.5875728936    26.3620    1   10    0.0000    0.0000    0.0000    0.0000    0.0000    0.0000    0.00     0.0      0
2112 450941.000000   30.4864663608  114.5877523247    26.4870    1   10    0.0000    0.0000    0.0000    0.0000    0.0000    0.0000    0.00     0.0      0
2112 450942.000000   30.4864702512  114.5879326375    26.6110    1   10    0.0000    0.0000    0.0000    0.0000    0.0000    0.0000    0.00     0.0      0
2112 450943.000000   30.4864752758  114.5881137230    26.7680    1   10    0.0000    0.0000    0.0000    0.0000    0.0000    0.0000    0.00     0.0      0
2112 450944.000000   30.4864812323  114.5882955799    26.8780    1   10    0.0000    0.0000    0.0000    0.0000    0.0000    0.0000    0.00     0.0      0
2112 450945.000000   30.4864879270  114.5884783601    26.9880    1   10    0.0000    0.0000    0.0000    0.0000    0.0000    0.0000    0.00     0.0      0
2112 450946.000000   30.4864956560  114.5886617741    27.1270    1   10    0.0000    0.0000    0.0000    0.0000    0.0000    0.0000    0.00     0.0      0
2112 450947.000000   30.4865041772  114.5888454451    27.2160    1   10    0.0000    0.0000    0.0000    0.0000    0.0000    0.0000    0.00     0.0      0
2112 450948.000000   30.4865137019  114.5890256423    27.2970    1   10    0.0000    0.0000    0.0000    0.0000    0.0000    0.0000    0.00     0.0      0
2112 450949.000000   30.4865246000  114.5892008894    27.3630    1   10    0.0000    0.0000    0.0000    0.0000    0.0000    0.0000    0.00     0.0      0
2112 450950.000000   30.4865363677  114.5893713445    27.4000    1   10    0.0000    0.0000    0.0000    0.0000    0.0000    0.0000    0.00     0.0      0
2112 450951.000000   30.4865481201  114.5895373289    27.4160    1   10    0.0000    0.0000    0.0000    0.0000    0.0000    0.0000    0.00     0.0      0
2112 450952.000000   30.4865598971  114.5896985861    27.4140    1   10    0.0000    0.0000    0.0000    0.0000    0.0000    0.0000    0.00     0.0      0
2112 450953.000000   30.4865735078  114.5898521110    27.3960    1   10    0.0000    0.0000    0.0000    0.0000    0.0000    0.0000    0.00     0.0      0
2112 450954.000000   30.4865884906  114.5899959919    27.3500    1   10    0.0000    0.0000    0.0000    0.0000    0.0000    0.0000    0.00     0.0      0
2112 450955.000000   30.4866037327  114.5901297920    27.3130    1   10    0.0000    0.0000    0.0000    0.0000    0.0000    0.0000    0.00     0.0      0
2112 450956.000000   30.4866187365  114.5902529281    27.2600    1   10    0.0000    0.0000    0.0000    0.0000    0.0000    0.0000    0.00     0.0      0
2112 450957.000000   30.4866331904  114.5903649543    27.1980    1   10    0.0000    0.0000    0.0000    0.0000    0.0000    0.0000    0.00     0.0      0
2112 450958.000000   30.4866463422  114.5904657758    27.1500    1   10    0.0000    0.0000    0.0000    0.0000    0.0000    0.0000    0.00     0.0      0
2112 450959.000000   30.4866570996  114.5905571751    27.0900    1   10    0.0000    0.0000    0.0000    0.0000    0.0000    0.0000    0.00     0.0      0
2112 450960.000000   30.4866657824  114.5906388699    27.0310    1   10    0.0000    0.0000    0.0000    0.0000    0.0000    0.0000    0.00     0.0      0
2112 450961.000000   30.4866730074  114.5907092994    26.9690    1   10    0.0000    0.0000    0.0000    0.0000    0.0000    0.0000    0.00     0.0      0
2112 450962.000000   30.4866787772  114.5907672699    26.9100    1   10    0.0000    0.0000    0.0000    0.0000    0.0000    0.0000    0.00     0.0      0
2112 450963.000000   30.4866830104  114.5908111502    26.8600    1   10    0.0000    0.0000    0.0000    0.0000    0.0000    0.0000    0.00     0.0      0
2112 450964.000000   30.4866857089  114.5908396393    26.8410    1   10    0.0000    0.0000    0.0000    0.0000    0.0000    0.0000    0.00     0.0      0
2112 450965.000000   30.4866876698  114.5908605820    26.8230    1   10    0.0000    0.0000    0.0000    0.0000    0.0000    0.0000    0.00     0.0      0
2112 450966.000000   30.4866893350  114.5908777928    26.8030    1   10    0.0000    0.0000    0.0000    0.0000    0.0000    0.0000    0.00     0.0      0
2112 450967.000000   30.4866906301  114.5908913854    26.7820    1   10    0.0000    0.0000    0.0000    0.0000    0.0000    0.0000    0.00     0.0      0
2112 450968.000000   30.4866916262  114.5909011776    26.7760    1   10    0.0000    0.0000    0.0000    0.0000    0.0000    0.0000    0.00     0.0      0
2112 450969.000000   30.4866921352  114.5909064691    26.7730    1   10    0.0000    0.0000    0.0000    0.0000    0.0000    0.0000    0.00     0.0      0
2112 450970.000000   30.4866922985  114.5909079732    26.7700    1   10    0.0000    0.0000    0.0000    0.0000    0.0000    0.0000    0.00     0.0      0
2112 450971.000000   30.4866923655  114.5909085340    26.7670    1   10    0.0000    0.0000    0.0000    0.0000    0.0000    0.0000    0.00     0.0      0
2112 450972.000000   30.4866924437  114.5909092232    26.7650    1   10    0.0000    0.0000    0.0000    0.0000    0.0000    0.0000    0.00     0.0      0
2112 450973.000000   30.4866924768  114.5909095981    26.7650    1   10    0.0000    0.0000    0.0000    0.0000    0.0000    0.0000    0.00     0.0      0
2112 450974.000000   30.4866924601  114.5909096082    26.7680    1   10    0.0000    0.0000    0.0000    0.0000    0.0000    0.0000    0.00     0.0      0
2112 450975.000000   30.4866924626  114.5909096067    26.7690    1   10    0.0000    0.0000    0.0000    0.0000    0.0000    0.0000    0.00     0.0      0
2112 450976.000000   30.4866924585  114.5909096093    26.7700    1   10    0.0000    0.0000    0.0000    0.0000    0.0000    0.0000    0.00     0.0      0
2112 450977.000000   30.4866924495  114.5909096121    26.7690    1   10    0.0000    0.0000    0.0000    0.0000    0.0000    0.0000    0.00     0.0      0
2112 450978.000000   30.4866924525  114.5909096051    26.7680    1   10    0.0000    0.0000    0.0000    0.0000    0.0000    0.0000    0.00     0.0      0
2112 450979.000000   30.4866924665  114.5909095997    26.7680    1   10    0.0000    0.0000    0.0000    0.0000    0.0000    0.0000    0.00     0.0      0
2112 450980.000000   30.4866924717  114.5909096001    26.7690    1   10    0.0000    0.0000    0.0000    0.0000    0.0000    0.0000    0.00     0.0      0
2112 450981.000000   30.4866924712  114.5909096171    26.7710    1   10    0.0000    0.0000    0.0000    0.0000    0.0000    0.0000    0.00     0.0      0
2112 450982.000000   30.4866924643  114.5909096225    26.7720    1   10    0.0000    0.0000    0.0000    0.0000    0.0000    0.0000    0.00     0.0      0
2112 450983.000000   30.4866924619  114.5909096182    26.7720    1   10    0.0000    0.0000    0.0000    0.0000    0.0000    0.0000    0.00     0.0      0
2112 450984.000000   30.4866924598  114.5909096073    26.7710    1   10    0.0000    0.0000    0.0000    0.0000    0.0000    0.0000    0.00     0.0      0
2112 450985.000000   30.4866924612  114.5909096110    26.7680    1   10    0.0000    0.0000    0.0000    0.0000    0.0000    0.0000    0.00     0.0      0
2112 450986.000000   30.4866924561  114.5909096129    26.7680    1   10    0.0000    0.0000    0.0000    0.0000    0.0000    0.0000    0.00     0.0      0
2112 450987.000000   30.4866924453  114.5909096069    26.7690    1   10    0.0000    0.0000    0.0000    0.0000    0.0000    0.0000    0.00     0.0      0
2112 450988.000000   30.4866924387  114.5909095974    26.7690    1   10    0.0000    0.0000    0.0000    0.0000    0.0000    0.0000    0.00     0.0      0
2112 450989.000000   30.4866924367  114.5909095953    26.7700    1   10    0.0000    0.0000    0.0000    0.0000    0.0000    0.0000    0.00     0.0      0
2112 450990.000000   30.4866924394  114.5909096073    26.7710    1   10    0.0000    0.0000    0.0000    0.0000    0.0000    0.0000    0.00     0.0      0
2112 450991.000000   30.4866924470  114.5909096084    26.7700    1   10    0.0000    0.0000    0.0000    0.0000    0.0000    0.0000    0.00     0.0      0
2112 450992.000000   30.4866924577  114.5909095952    26.7690    1   10    0.0000    0.0000    0.0000    0.0000    0.0000    0.0000    0.00     0.0      0
2112 450993.000000   30.4866924528  114.5909095971    26.7680    1   10    0.0000    0.0000    0.0000    0.0000    0.0000    0.0000    0.00     0.0      0
2112 450994.000000   30.4866925397  114.5909108253    26.7690    1   10    0.0000    0.0000    0.0000    0.0000    0.0000    0.0000    0.00     0.0      0
2112 450995.000000   30.4866932045  114.5909176686    26.7690    1   10    0.0000    0.0000    0.0000    0.0000    0.0000    0.0000    0.00     0.0      0
2112 450996.000000   30.4866949408  114.5909351702    26.7600    1   10    0.0000    0.0000    0.0000    0.0000    0.0000    0.0000    0.00     0.0      0
2112 450997.000000   30.4866980638  114.5909658902    26.7270    1   10    0.0000    0.0000    0.0000    0.0000    0.0000    0.0000    0.00     0.0      0
2112 450998.000000   30.4867025513  114.5910084764    26.6790    1   10    0.0000    0.0000    0.0000    0.0000    0.0000    0.0000    0.00     0.0      0
2112 450999.000000   30.4867082157  114.5910618621    26.6180    1   10    0.0000    0.0000    0.0000    0.0000    0.0000    0.0000    0.00     0.0      0
2112 451000.000000   30.4867151575  114.5911251946    26.5430    1   10    0.0000    0.0000    0.0000    0.0000    0.0000    0.0000    0.00     0.0      0
2112 451001.000000   30.4867236558  114.5911976037    26.4480    1   10    0.0000    0.0000    0.0000    0.0000    0.0000    0.0000    0.00     0.0      0
2112 451002.000000   30.4867336914  114.5912785236    26.3360    1   10    0.0000    0.0000    0.0000    0.0000    0.0000    0.0000    0.00     0.0      0
2112 451003.000000   30.4867450781  114.5913673351    26.2130    1   10    0.0000    0.0000    0.0000    0.0000    0.0000    0.0000    0.00     0.0      0
2112 451004.000000   30.4867575004  114.5914632733    26.0840    1   10    0.0000    0.0000    0.0000    0.0000    0.0000    0.0000    0.00     0.0      0
2112 451005.000000   30.4867711310  114.5915658962    25.9270    1   10    0.0000    0.0000    0.0000    0.0000    0.0000    0.0000    0.00     0.0      0
2112 451006.000000   30.4867858679  114.5916749379    25.7640    1   10    0.0000    0.0000    0.0000    0.0000    0.0000    0.0000    0.00     0.0      0
2112 451007.000000   30.4868015574  114.5917900577    25.5880    1   10    0.0000    0.0000    0.0000    0.0000    0.0000    0.0000    0.00     0.0      0
2112 451008.000000   30.4868182117  114.5919107471    25.3980    1   10    0.0000    0.0000    0.0000    0.0000    0.0000    0.0000    0.00     0.0      0
2112 451009.000000   30.4868359927  114.5920365607    25.2090    1   10    0.0000    0.0000    0.0000    0.0000    0.0000    0.0000    0.00     0.0      0
2112 451010.000000   30.4868554090  114.5921671861    25.0010    1   10    0.0000    0.0000    0.0000    0.0000    0.0000    0.0000    0.00     0.0      0
2112 451011.000000   30.4868763342  114.5923024527    24.7940    1   10    0.0000    0.0000    0.0000    0.0000    0.0000    0.0000    0.00     0.0      0
2112 451012.000000   30.4868976244  114.5924423514    24.5790    1   10    0.0000    0.0000    0.0000    0.0000    0.0000    0.0000    0.00     0.0      0
2112 451013.000000   30.4869188780  114.5925868881    24.3610    1   10    0.0000    0.0000    0.0000    0.0000    0.0000    0.0000    0.00     0.0      0
2112 451014.000000   30.4869403811  114.5927358051    24.1320    1   10    0.0000    0.0000    0.0000    0.0000    0.0000    0.0000    0.00     0.0      0
2112 451015.000000   30.4869626655  114.5928889243    23.8930    1   10    0.0000    0.0000    0.0000    0.0000    0.0000    0.0000    0.00     0.0      0
2112 451016.000000   30.4869862004  114.5930457763    23.6460    1   10    0.0000    0.0000    0.0000    0.0000    0.0000    0.0000    0.00     0.0      0
2112 451017.000000   30.4870105922  114.5932028397    23.3970    1   10    0.0000    0.0000    0.0000    0.0000    0.0000    0.0000    0.00     0.0      0
2112 451018.000000   30.4870353080  114.5933581918    23.1500    1   10    0.0000    0.0000    0.0000    0.0000    0.0000    0.0000    0.00     0.0      0
2112 451019.000000   30.4870604176  114.5935134845    22.8990    1   10    0.0000    0.0000    0.0000    0.0000    0.0000    0.0000    0.00     0.0      0
2112 451020.000000   30.4870859754  114.5936697206    22.6440    1   10    0.0000    0.0000    0.0000    0.0000    0.0000    0.0000    0.00     0.0      0
2112 451021.000000   30.4871130013  114.5938269389    22.4010    1   10    0.0000    0.0000    0.0000    0.0000    0.0000    0.0000    0.00     0.0      0
2112 451022.000000   30.4871417367  114.5939850666    22.1480    1   10    0.0000    0.0000    0.0000    0.0000    0.0000    0.0000    0.00     0.0      0
2112 451023.000000   30.4871717996  114.5941423689    21.8810    1   10    0.0000    0.0000    0.0000    0.0000    0.0000    0.0000    0.00     0.0      0
2112 451024.000000   30.4872027996  114.5942980275    21.6250    1   10    0.0000    0.0000    0.0000    0.0000    0.0000    0.0000    0.00     0.0      0
2112 451025.000000   30.4872347302  114.5944527784    21.3970    1   10    0.0000    0.0000    0.0000    0.0000    0.0000    0.0000    0.00     0.0      0
2112 451026.000000   30.4872674907  114.5946068995    21.1360    1   10    0.0000    0.0000    0.0000    0.0000    0.0000    0.0000    0.00     0.0      0
2112 451027.000000   30.4873014940  114.5947602917    20.8990    1   10    0.0000    0.0000    0.0000    0.0000    0.0000    0.0000    0.00     0.0      0
2112 451028.000000   30.4873365299  114.5949130382    20.6710    1   10    0.0000    0.0000    0.0000    0.0000    0.0000    0.0000    0.00     0.0      0
2112 451029.000000   30.4873720439  114.5950649076    20.4300    1   10    0.0000    0.0000    0.0000    0.0000    0.0000    0.0000    0.00     0.0      0
2112 451030.000000   30.4874084124  114.5952157857    20.2080    1   10    0.0000    0.0000    0.0000    0.0000    0.0000    0.0000    0.00     0.0      0
2112 451031.000000   30.4874452483  114.5953661658    19.9610    1   10    0.0000    0.0000    0.0000    0.0000    0.0000    0.0000    0.00     0.0      0
2112 451032.000000   30.4874821561  114.5955162483    19.7290    1   10    0.0000    0.0000    0.0000    0.0000    0.0000    0.0000    0.00     0.0      0
2112 451033.000000   30.4875192393  114.5956660272    19.4890    1   10    0.0000    0.0000    0.0000    0.0000    0.0000    0.0000    0.00     0.0      0
2112 451034.000000   30.4875569943  114.5958153432    19.2520    1   10    0.0000    0.0000    0.0000    0.0000    0.0000    0.0000    0.00     0.0      0
2112 451035.000000   30.4875956540  114.5959643686    19.0190    1   10    0.0000    0.0000    0.0000    0.0000    0.0000    0.0000    0.00     0.0      0
2112 451036.000000   30.4876339549  114.5961145509    18.7820    1   10    0.0000    0.0000    0.0000    0.0000    0.0000    0.0000    0.00     0.0      0
2112 451037.000000   30.4876723366  114.5962672122    18.5230    1   10    0.0000    0.0000    0.0000    0.0000    0.0000    0.0000    0.00     0.0      0
2112 451038.000000   30.4877122283  114.5964219765    18.2700    1   10    0.0000    0.0000    0.0000    0.0000    0.0000    0.0000    0.00     0.0      0
2112 451039.000000   30.4877545946  114.5965771480    18.0480    1   10    0.0000    0.0000    0.0000    0.0000    0.0000    0.0000    0.00     0.0      0
2112 451040.000000   30.4877991211  114.5967312683    17.7680    1   10    0.0000    0.0000    0.0000    0.0000    0.0000    0.0000    0.00     0.0      0
2112 451041.000000   30.4878450751  114.5968840806    17.5210    1   10    0.0000    0.0000    0.0000    0.0000    0.0000    0.0000    0.00     0.0      0
2112 451042.000000   30.4878912799  114.5970350488    17.2800    1   10    0.0000    0.0000    0.0000    0.0000    0.0000    0.0000    0.00     0.0      0
2112 451043.000000   30.4879374576  114.5971854087    17.0520    1   10    0.0000    0.0000    0.0000    0.0000    0.0000    0.0000    0.00     0.0      0
2112 451044.000000   30.4879829062  114.5973360316    16.8110    1   10    0.0000    0.0000    0.0000    0.0000    0.0000    0.0000    0.00     0.0      0
2112 451045.000000   30.4880275621  114.5974870642    16.6070    1   10    0.0000    0.0000    0.0000    0.0000    0.0000    0.0000    0.00     0.0      0
2112 451046.000000   30.4880723198  114.5976382501    16.3410    1   10    0.0000    0.0000    0.0000    0.0000    0.0000    0.0000    0.00     0.0      0
2112 451047.000000   30.4881165374  114.5977885062    16.1190    1   10    0.0000    0.0000    0.0000    0.0000    0.0000    0.0000    0.00     0.0      0
2112 451048.000000   30.4881612180  114.5979362077    15.8290    1   10    0.0000    0.0000    0.0000    0.0000    0.0000    0.0000    0.00     0.0      0
2112 451049.000000   30.4882047308  114.5980819877    15.6020    1   10    0.0000    0.0000    0.0000    0.0000    0.0000    0.0000    0.00     0.0      0
2112 451050.000000   30.4882465327  114.5982257958    15.3880    1   10    0.0000    0.0000    0.0000    0.0000    0.0000    0.0000    0.00     0.0      0
2112 451051.000000   30.4882872761  114.5983682116    15.2260    1   10    0.0000    0.0000    0.0000    0.0000    0.0000    0.0000    0.00     0.0      0
2112 451052.000000   30.4883270606  114.5985102528    15.1030    1   10    0.0000    0.0000    0.0000    0.0000    0.0000    0.0000    0.00     0.0      0
2112 451053.000000   30.4883656214  114.5986515428    14.9460    1   10    0.0000    0.0000    0.0000    0.0000    0.0000    0.0000    0.00     0.0      0
2112 451054.000000   30.4884030460  114.5987905385    14.8010    1   10    0.0000    0.0000    0.0000    0.0000    0.0000    0.0000    0.00     0.0      0
