     3.03           OBSERVATION DATA    M: Mixed            RINEX VERSION / TYPE
Log2rnx                                                     PGM / RUN BY / DATE
Log2rnx                                                     MARKER NAME
RINEX Logger user   Log2rnx                                 OBSERVER / AGENCY
                    NONE                NON-NONE            REC # / TYPE / VERS
                    NONE                                    ANT # / TYPE
        0.0           0.0           0.0                     APPROX POSITION XYZ
        0.0000        0.0000        0.0000                  ANTENNA: DELTA H/E/N
G   12 C1C L1C D1C S1C C2W L2W D2W S2W C5X L5X D5X S5X      SYS / # / OBS TYPES
R    8 C1C L1C D1C S1C C2C L2C D2C S2C                      SYS / # / OBS TYPES
E   12 C1C L1C D1C S1C C5X L5X D5X S5X C7X L7X D7X S7X      SYS / # / OBS TYPES
C   12 C1I L1I D1I S1I C7I L7I D7I S7X C6I L6I D6I S6I      SYS / # / OBS TYPES
  0000    00    00    00    00    0.0000000     GPS         TIME OF FIRST OBS
                                                            END OF HEADER
> 2020 08 07 12 04  4.0000840  0 23
G10  21888607.017    -7562056.6040       2267.201          46.000                                                                    21888604.329    -1529588.8250       1693.031          38.000  
G18  21765734.084     5784687.2400      -3093.932          40.000                                                                                                                                  
G20  19978518.643    -2938296.7780        379.769          38.000                                                                                                                                  
G21  23058893.654    -3907361.1110        851.265          42.000                                                                                                                                  
G24  20684889.636     3431943.0490      -2112.518          40.000                                                                    20684891.137      463835.8740      -1577.587          39.000  
G32                                                                                                                                  23359944.340     -754208.0900       1253.043          43.000  
R06  21056689.594     2925449.2630      -1299.806          37.000                                                                                                                                  
R09  20079851.254    -9144495.0410       2046.556          35.000                                                                                                                                  
R16  21352909.135     3430426.6440      -2748.648          32.000                                                                                                                                  
R07  20653449.858    -2896238.7890        956.596          39.000                                                                                                                                  
C13  36322558.913     3632323.7680      -1491.070          35.000                                                                                                                                  
C16  36656454.259     1592474.4380       -466.505          36.000                                                                                                                                  
C19  23063202.567    -4734847.9080       1553.626          47.000                                                                                                                                  
C20  22440085.742      637006.9270       -480.680          36.000                                                                                                                                  
C29  25798203.463                       -2640.147          30.000                                                                                                                                  
C32  25509388.207                       -2264.524          14.000                                                                                                                                  
C35  26106668.623     2572119.8970      -1422.907          42.000                                                                                                                                  
C36  25922372.406                        3008.093          25.000                                                                                                                                  
C37  23222382.773     2195408.1790      -1529.562          34.000                                                                                                                                  
E03                                                                  24304721.081                        -588.907          24.000                                                                  
E08                                                                  23048248.027     -222419.3570        576.587          33.000                                                                  
E13                                                                  25740170.251      -17954.1490       -177.080          40.000                                                                  
E15                                                                  25153483.303      764534.1180      -1917.629          40.000                                                                  
> 2020 08 07 12 04  5.0000840  0 23
G10  21888173.518    -7564322.8360       2266.232          47.000                                                                    21888172.332    -1531281.1050       1692.280          38.000  
G18  21766318.980     5787780.6170      -3093.377          40.000                                                                                                                                  
G20  19978446.399    -2938676.0630        379.285          38.000                                                                                                                                  
G21  23058730.861    -3908211.1430        850.033          42.000                                                                                                                                  
G24  20685291.969     3434056.1540      -2113.105          41.000                                                                    20685292.562      465413.7950      -1577.921          40.000  
G32  23359622.366                        1678.116          33.000                                                                    23359624.163     -755460.7350       1252.645          44.000  
R06  21056919.536     2926749.3360      -1300.073          34.000                                                                                                                                  
R09  20079460.614    -9146541.9990       2046.958          33.000                                                                                                                                  
R16  21353428.977                       -2749.651          33.000                                                                                                                                  
R07  20653277.781    -2897194.4330        955.643          39.000                                                                                                                                  
C13  36322843.718     3633814.4240      -1490.656          36.000                                                                                                                                  
C16  36656542.696     1592941.3750       -466.936          37.000                                                                                                                                  
C19  23062902.475    -4736400.6240       1552.717          47.000                                                                                                                                  
C20  22440180.479      637487.7830       -480.856          39.000                                                                                                                                  
C29  25798708.612                       -2638.962          30.000                                                                                                                                  
C32  25509821.705                       -2259.114          14.000                                                                                                                                  
C35  26106943.238     2573543.6860      -1423.789          42.000                                                                                                                                  
C36  25921815.692                        3012.469          25.000                                                                                                                                  
C37  23222675.971     2196938.2190      -1530.040          33.000                                                                                                                                  
E03                                                                  24304870.681                        -588.434          26.000                                                                  
E08                                                                  23048102.318     -222995.2660        575.909          32.000                                                                  
E13                                                                  25740213.108      -17776.2160       -177.933          40.000                                                                  
E15                                                                  25153971.962      766451.4910      -1917.374          40.000                                                                  
> 2020 08 07 12 04  6.0000830  0 22
G10  21887443.526    -7567357.6830       2266.032          46.000                                                                    21887441.135    -1533547.4010       1692.181          37.000  
G18  21766611.588     5790105.2100      -3093.405          40.000                                                                                                                                  
G20  19978074.066    -2939823.8540        378.977          38.000                                                                                                                                  
G21  23058270.387    -3909829.4760        849.519          41.000                                                                                                                                  
G24  20685394.194     3435400.7330      -2113.391          41.000                                                                    20685395.398      466417.9230      -1578.242          39.000  
G32  23359003.897                        1677.935          31.000                                                                    23359005.991     -757287.4160       1252.566          44.000  
R06  21056882.404     2927268.7160      -1300.066          34.000                                                                                                                                  
R09  20078782.238    -9149369.9270       2046.692          32.000                                                                                                                                  
R16  21353676.947     3435145.1920      -2750.344          32.000                                                                                                                                  
R07  20652808.041    -2898933.2330        955.642          40.000                                                                                                                                  
C13  36322830.511     3634543.1170      -1490.516          36.000                                                                                                                                  
C16  36656333.139     1592646.2820       -466.731          37.000                                                                                                                                  
C19  23062304.685    -4738715.1180       1552.669          47.000                                                                                                                                  
C20  22439971.829      637206.8570       -480.898          38.000                                                                                                                                  
C29  25798918.767                       -2637.727          30.000                                                                                                                                  
C35  26106915.948     2574206.1270      -1424.265          40.000                                                                                                                                  
C36  25920933.097                        3014.266          26.000                                                                                                                                  
C37  23222675.066     2197706.6580      -1530.262          34.000                                                                                                                                  
E03                                                                  24304718.989                        -588.074          26.000                                                                  
E08                                                                  23047653.535     -224145.3750        575.994          33.000                                                                  
E13                                                                  25739960.990      -18171.9940       -178.336          41.000                                                                  
E15                                                                  25154160.235      767794.7580      -1917.379          40.000                                                                  
> 2020 08 07 12 04  7.0000830  0 23
G10  21887014.233    -7569624.3330       2266.650          47.000                                                                    21887010.324    -1535240.0060       1692.605          37.000  
G18  21767199.765     5793199.2390      -3094.028          41.000                                                                                                                                  
G20  19978004.212    -2940202.6370        378.784          39.000                                                                                                                                  
G21  23058107.594    -3910679.2480        849.771          42.000                                                                                                                                  
G24  20685794.119     3437514.2900      -2113.557          40.000                                                                    20685796.806      467996.2160      -1578.293          38.000  
G32  23358686.408                        1678.921          31.000                                                                    23358686.408     -758540.2850       1252.869          44.000  
R06  21057126.742     2928568.8360      -1300.120          36.000                                                                                                                                  
R09  20078402.993    -9151415.4890       2045.562          35.000                                                                                                                                  
R16  21354179.705     3437895.8130      -2750.621          34.000                                                                                                                                  
R07  20652634.760    -2899889.5050        956.273          41.000                                                                                                                                  
C13  36323120.411     3636033.8680      -1490.751          36.000                                                                                                                                  
C16  36656420.983     1593112.3990       -466.117          36.000                                                                                                                                  
C19  23062007.002    -4740268.5570       1553.439          47.000                                                                                                                                  
C20  22440064.159      637687.6200       -480.764          37.000                                                                                                                                  
C29  25799423.916                       -2636.406          30.000                                                                                                                                  
C32  25510364.637                       -2279.665          15.000                                                                                                                                  
C35  26107189.969                       -1423.128          41.000                                                                                                                                  
C36  25920356.594                        3010.823          27.000                                                                                                                                  
C37  23222968.858     2199237.3280      -1530.670          35.000                                                                                                                                  
E03                                                                  24304876.076    -1134478.7220       -588.205          23.000                                                                  
E08                                                                  23047506.343     -224721.9600        576.585          32.000                                                                  
E13                                                                  25740004.755      -17993.9570       -178.037          40.000                                                                  
E15                                                                  25154649.487      769712.4130      -1917.656          40.000                                                                  
> 2020 08 07 12 04  8.0000830  0 23
G10  21886577.122    -7571892.0980       2267.766          47.000                                                                    21886579.234    -1536933.4830       1693.476          37.000  
G18  21767787.366     5796293.8630      -3094.624          41.000                                                                                                                                  
G20  19977930.450    -2940581.5230        378.885          39.000                                                                                                                                  
G21  23057946.598    -3911529.8420        850.595          41.000                                                                                                                                  
G24  20686197.027     3439627.9960      -2113.706          39.000                                                                    20686198.231      469574.6470      -1578.431          37.000  
G32  23358370.123                        1679.366          30.000                                                                    23358366.825     -759794.1230       1253.838          44.000  
R06  21057372.267     2929869.2670      -1300.432          35.000                                                                                                                                  
R09  20078017.762    -9153459.9440       2044.455          36.000                                                                                                                                  
R16  21354692.043     3440646.5880      -2750.775          33.000                                                                                                                                  
R07  20652453.086    -2900846.9170        957.411          41.000                                                                                                                                  
C13  36323401.622     3637524.5250      -1490.657          35.000                                                                                                                                  
C16  36656512.719     1593577.4790       -465.080          38.000                                                                                                                                  
C19  23061706.597    -4741823.2700       1554.713          46.000                                                                                                                                  
C20  22440157.988      638168.3980       -480.777          38.000                                                                                                                                  
C29  25799931.770     7591728.9790      -2638.472          31.000                                                                                                                                  
C32  25510815.829                       -2283.196          15.000                                                                                                                                  
C35  26107460.080     2577052.9510      -1422.364          41.000                                                                                                                                  
C36  25919779.201                        3009.796          27.000                                                                                                                                  
C37  23223259.666     2200768.2420      -1530.914          34.000                                                                                                                                  
E03                                                                  24305025.677                        -587.348          24.000                                                                  
E08                                                                  23047360.930     -225299.3630        577.403          31.000                                                                  
E13                                                                  25740050.021      -17816.5450       -177.413          40.000                                                                  
E15                                                                  25155138.145      771629.9790      -1917.566          40.000                                                                  
> 2020 08 07 12 04  9.0000830  0 23
G10  21886149.924    -7573354.3530       2268.862          47.000                                                                    21886147.219    -1538025.3960       1694.250          38.000  
G18  21768376.450     5800196.0170      -3095.549          41.000                                                                                                                                  
G20  19977860.004    -2940153.6640        378.748          39.000                                                                                                                                  
G21  23057783.526    -3911574.6350        851.400          41.000                                                                                                                                  
G24  20686599.952     3442548.5480      -2113.946          39.000                                                                    20686601.749      471755.5860      -1578.603          38.000  
G32  23358047.556                        1681.468          30.000                                                                    23358046.648     -760446.3090       1254.522          44.000  
R06  21057628.349     2931988.9710      -1300.641          36.000                                                                                                                                  
R09  20077647.870    -9154683.2760       2042.972          36.000                                                                                                                                  
R16  21355221.832     3444217.6960      -2751.182          33.000                                                                                                                                  
R07  20652286.454    -2900983.7410        958.480          40.000                                                                                                                                  
C13  36323691.225     3639814.7160      -1490.918          35.000                                                                                                                                  
C16  36656601.157     1594841.0030       -464.250          38.000                                                                                                                                  
C19  23061408.006    -4742579.8950       1555.900          46.000                                                                                                                                  
C20  22440243.739      639448.0410       -480.369          36.000                                                                                                                                  
C29  25800438.716     7595166.7300      -2638.479          31.000                                                                                                                                  
C32  25511263.113                       -2277.684          17.000                                                                                                                                  
C35  26107735.881     2579274.5170      -1422.293          42.000                                                                                                                                  
C36  25919198.807                        3009.682          29.000                                                                                                                                  
C37  23223557.349     2203098.8220      -1531.307          35.000                                                                                                                                  
E03                                                                  24305177.668                        -587.825          24.000                                                                  
E08                                                                  23047213.144     -225275.4760        578.449          31.000                                                                  
E13                                                                  25740095.287      -17037.3010       -176.908          40.000                                                                  
E15                                                                  25155627.711      774150.1300      -1917.816          40.000                                                                  
> 2020 08 07 12 04 10.0000830  0 23
G10  21885718.223    -7575624.3370       2269.984          47.000                                                                    21885715.832    -1539720.5570       1695.161          38.000  
G18  21768965.849     5803292.4730      -3096.456          41.000                                                                                                                                  
G20  19977788.353    -2940532.3850        378.721          40.000                                                                                                                                  
G21  23057621.937    -3912426.8350        852.200          40.000                                                                                                                                  
G24  20687001.673     3444662.6550      -2114.108          40.000                                                                    20687004.971      473334.2620      -1578.676          38.000  
G32  23357726.175                        1680.145          32.000                                                                    23357727.379     -761701.6120       1255.303          44.000  
R06  21057867.870     2933289.9410      -1300.970          35.000                                                                                                                                  
R09  20077268.031    -9156724.7170       2041.441          35.000                                                                                                                                  
R16  21355738.969     3446968.9760      -2751.281          33.000                                                                                                                                  
R07  20652106.281    -2901943.2540        959.514          40.000                                                                                                                                  
C13  36323974.530     3641305.9620      -1491.245          35.000                                                                                                                                  
C16  36656691.689     1595304.1700       -463.168          38.000                                                                                                                                  
C19  23061110.009    -4744137.1800       1557.284          46.000                                                                                                                                  
C20  22440338.773      639928.9000       -480.859          37.000                                                                                                                                  
C29  25800943.865                       -2637.519          30.000                                                                                                                                  
C32  25511672.932                       -2286.160          24.000                                                                                                                                  
C35  26108008.401     2580695.8430      -1421.326          42.000                                                                                                                                  
C36  25918622.008                        3007.975          27.000                                                                                                                                  
C37  23223850.862     2204630.5730      -1531.751          36.000                                                                                                                                  
E03                                                                  24305327.565    -1132114.1240       -586.878          22.000                                                                  
E08                                                                  23047066.231     -225854.8470        579.371          31.000                                                                  
E13                                                                  25740139.959      -16861.0490       -176.252          40.000                                                                  
E15                                                                  25156114.868      776068.2140      -1918.084          39.000                                                                  
> 2020 08 07 12 04 11.0000830  0 23
G10  21885284.131    -7577894.9010       2270.564          46.000                                                                    21885283.224    -1541416.0650       1695.508          38.000  
G18  21769554.951     5806389.3770      -3096.904          41.000                                                                                                                                  
G20  19977713.701    -2940910.8510        378.467          39.000                                                                                                                                  
G21  23057460.348    -3913279.3520        852.517          41.000                                                                                                                                  
G24  20687406.100     3446777.1230      -2114.468          40.000                                                                    20687405.803      474913.2770      -1579.016          38.000  
G32  23357405.998                        1685.332          33.000                                                                    23357407.499     -762957.4520       1255.840          44.000  
R06  21058114.006     2934591.2220      -1301.281          35.000                                                                                                                                  
R09  20076876.500    -9158765.2210       2040.504          35.000                                                                                                                                  
R16  21356259.998     3449720.9560      -2751.980          33.000                                                                                                                                  
R07  20651921.012    -2902903.3430        960.088          40.000                                                                                                                                  
C13  36324262.633     3642797.1430      -1491.182          35.000                                                                                                                                  
C16  36656779.533     1595766.8510       -462.680          39.000                                                                                                                                  
C19  23060811.418    -4745695.1370       1557.958          46.000                                                                                                                                  
C20  22440434.103      640409.8010       -480.902          39.000                                                                                                                                  
C29  25801451.422                       -2637.593          29.000                                                                                                                                  
C32  25512146.897                       -2282.390          24.000                                                                                                                                  
C35  26108280.607     2582116.9620      -1421.118          43.000                                                                                                                                  
C36  25918042.207                        3009.180          27.000                                                                                                                                  
C37  23224141.059     2206162.8820      -1532.308          35.000                                                                                                                                  
E03                                                                  24305478.056                        -585.514          19.000                                                                  
E08                                                                  23046919.335     -226434.8730        580.026          32.000                                                                  
E13                                                                  25740185.836      -16685.0240       -176.025          40.000                                                                  
E15                                                                  25156603.544      777986.2610      -1918.047          39.000                                                                  
> 2020 08 07 12 04 12.0000820  0 24
G10  21884552.027    -7580934.3270       2270.611          46.000                                                                    21884552.027    -1543685.7630       1695.584          38.000  
G15  23321761.576                       -2695.273          29.000                                                                                                                                  
G18  21769846.337     5808717.4560      -3096.891          41.000                                                                                                                                  
G20  19977342.258    -2942057.8070        378.142          40.000                                                                                                                                  
G21  23056997.169    -3914900.5250        852.359          41.000                                                                                                                                  
G24  20687504.137     3448123.3280      -2115.017          40.000                                                                    20687508.622      475918.5130      -1579.349          38.000  
G32  23356789.624                        1683.645          33.000                                                                    23356787.827     -764787.6230       1256.057          44.000  
R06  21058075.984     2935112.3170      -1301.781          35.000                                                                                                                                  
R09  20076212.801    -9161586.4140       2039.957          35.000                                                                                                                                  
R16  21356478.599     3451692.2290      -2752.782          33.000                                                                                                                                  
R07  20651456.070    -2904646.5920        960.091          39.000                                                                                                                                  
C13  36324246.145     3643526.2890      -1490.969          35.000                                                                                                                                  
C16  36656568.475     1595467.4040       -462.378          39.000                                                                                                                                  
C19  23060210.348    -4748015.0810       1558.119          46.000                                                                                                                                  
C20  22440226.640      640129.1830       -481.205          38.000                                                                                                                                  
C29  25801660.077     7602320.9880      -2637.871          31.000                                                                                                                                  
C32  25512282.714                       -2285.466          24.000                                                                                                                                  
C35  26108253.928     2582775.9910      -1420.853          42.000                                                                                                                                  
C36  25917166.801                        3008.096          27.000                                                                                                                                  
C37  23224139.561     2206933.8220      -1532.764          36.000                                                                                                                                  
E03                                                                  24305325.770                        -582.632          21.000                                                                  
E08                                                                  23046470.256     -227589.1510        580.164          32.000                                                                  
E13                                                                  25739930.105      -17083.1180       -176.020          40.000                                                                  
E15                                                                  25156793.004      779330.1250      -1917.977          39.000                                                                  
> 2020 08 07 12 04 13.0000820  0 22
G10  21884119.733    -7583205.0800       2270.753          47.000                                                                    21884119.436    -1545381.4350       1695.672          38.000  
G15  23322268.819                       -2694.209          28.000                                                                                                                                  
G18  21770433.641     5811814.4170      -3096.961          41.000                                                                                                                                  
G20  19977270.014    -2942435.8940        378.087          39.000                                                                                                                                  
G21  23056838.268    -3915752.7860        852.261          41.000                                                                                                                                  
G24  20687909.454     3450238.4150      -2115.087          40.000                                                                    20687910.344      477498.0730      -1579.560          37.000  
G32  23356465.242                        1680.145          35.000                                                                    23356466.743     -766043.8920       1256.268          44.000  
R06  21058311.021     2936413.9470      -1301.630          35.000                                                                                                                                  
R09  20075822.178    -9163626.0230       2039.608          34.000                                                                                                                                  
R16  21356994.253     3454445.3660      -2753.137          33.000                                                                                                                                  
R07  20651275.897    -2905606.9260        960.334          39.000                                                                                                                                  
C13  36324533.340     3645017.0400      -1490.752          35.000                                                                                                                                  
C16  36656658.710     1595929.3020       -461.897          39.000                                                                                                                                  
C19  23059912.647    -4749573.5080       1558.427          46.000                                                                                                                                  
C20  22440319.580      640610.2100       -481.027          38.000                                                                                                                                  
C29  25802169.117                       -2638.109          30.000                                                                                                                                  
C32  25512724.606                       -2287.406          25.000                                                                                                                                  
C35  26108526.134                       -1419.965          39.000                                                                                                                                  
C37  23224429.147     2208466.8710      -1533.048          35.000                                                                                                                                  
E08                                                                  23046320.952     -228169.6460        580.494          30.000                                                                  
E13                                                                  25739976.279      -16906.9700       -176.147          40.000                                                                  
E15                                                                  25157281.366      781247.9070      -1917.782          38.000                                                                  
> 2020 08 07 12 04 14.0000820  0 23
G10  21883690.126    -7585475.7830       2270.703          46.000                                                                    21883687.421    -1547077.1180       1695.683          37.000  
G15  23322781.175     5578819.8910      -2692.649          29.000                                                                                                                                  
G18  21771023.023     5814911.9970      -3097.580          41.000                                                                                                                                  
G20  19977200.458    -2942813.4320        377.538          39.000                                                                                                                                  
G21  23056675.195    -3916604.6060        851.820          41.000                                                                                                                                  
G24  20688310.268     3452354.2120      -2115.797          39.000                                                                    20688312.972      479077.9950      -1579.922          37.000  
G32  23356143.564                        1682.489          35.000                                                                    23356147.159                        1256.666          43.000  
R06  21058560.140     2937715.9530      -1302.006          35.000                                                                                                                                  
R09  20075456.735    -9165664.5850       2038.563          35.000                                                                                                                                  
R16  21357502.682     3457199.2300      -2753.864          33.000                                                                                                                                  
R07  20651093.926    -2906567.2680        960.342          40.000                                                                                                                                  
C13  36324822.647     3646508.1790      -1491.139          35.000                                                                                                                                  
C16  36656746.258     1596391.1540       -461.852          39.000                                                                                                                                  
C19  23059611.962    -4751132.1010       1558.593          46.000                                                                                                                                  
C20  22440410.722      641091.6670       -481.458          37.000                                                                                                                                  
C29  25802672.765                       -2636.913          31.000                                                                                                                                  
C32  25513162.903     6127104.2070      -2286.719          30.000                                                                                                                                  
C35  26108800.748                       -1421.633          39.000                                                                                                                                  
C37  23224726.551     2210000.4960      -1533.625          36.000                                                                                                                                  
E03                                                                  24305622.860    -1130342.0870       -586.978          23.000                                                                  
E08                                                                  23046175.260     -228750.2250        580.579          31.000                                                                  
E13                                                                  25740020.044      -16730.5790       -176.392          41.000                                                                  
E15                                                                  25157771.821      783166.0570      -1918.150          39.000                                                                  
> 2020 08 07 12 04 15.0000820  0 22
G10  21883255.127    -7586940.4780       2271.394          46.000                                                                    21883254.830    -1548170.8720       1696.159          37.000  
G15  23323293.809     5582319.1020      -2692.514          32.000                                                                                                                                  
G18  21771614.218     5818816.4850      -3097.791          41.000                                                                                                                                  
G20  19977126.713    -2942384.2030        377.469          39.000                                                                                                                                  
G21  23056509.994    -3916650.2670        852.359          41.000                                                                                                                                  
G24  20688715.287     3455276.5310      -2115.622          41.000                                                                    20688715.898      481260.2910      -1579.893          37.000  
G32                                                                                                                                  23355826.983     -767953.5790       1256.691          45.000  
R06  21058810.533     2939837.2250      -1302.116          34.000                                                                                                                                  
R09  20075067.962    -9166882.9000       2038.048          35.000                                                                                                                                  
R16  21358028.597     3460773.2840      -2754.035          35.000                                                                                                                                  
R07  20650926.107    -2906706.6320        961.113          40.000                                                                                                                                  
C13  36325105.341     3648798.3760      -1490.833          35.000                                                                                                                                  
C16  36656834.992     1597651.5520       -461.034          39.000                                                                                                                                  
C19  23059313.668    -4751892.0670       1559.331          46.000                                                                                                                                  
C20  22440504.849      642372.1630       -481.131          38.000                                                                                                                                  
C29  25803178.228                       -2634.840          31.000                                                                                                                                  
C32  25513600.886     6130190.2300      -2286.660          31.000                                                                                                                                  
C35  26109072.657     2587839.1860      -1420.733          40.000                                                                                                                                  
C37  23225017.341     2212333.5390      -1533.679          36.000                                                                                                                                  
E08                                                                  23046027.753     -228729.0340        581.213          31.000                                                                  
E13                                                                  25740064.420      -15952.0520       -176.122          40.000                                                                  
E15                                                                  25158258.700      785686.5020      -1918.041          38.000                                                                  
> 2020 08 07 12 04 16.0000820  0 24
G10  21882824.333    -7589213.0470       2272.569          46.000                                                                    21882822.536    -1549867.9080       1697.037          37.000  
G15  23323802.867     5585010.7200      -2691.618          31.000                                                                                                                                  
G18  21772203.617     5821914.1400      -3097.656          41.000                                                                                                                                  
G20  19977055.970    -2942762.2090        378.006          39.000                                                                                                                                  
G21  23056349.609    -3917503.2440        852.977          41.000                                                                                                                                  
G24  20689117.305     3457391.7950      -2115.264          41.000                                                                    20689118.213      482839.8060      -1579.515          37.000  
G32                                                                                                                                  23355506.806     -769211.1740       1257.595          44.000  
R06  21059057.262     2941138.5150      -1301.290          34.000                                                                                                                                  
R09  20074709.412    -9168920.7310       2037.831          35.000                                                                                                                                  
R16  21358544.233     3463526.9130      -2753.629          35.000                                                                                                                                  
R07  20650751.623    -2907668.9940        962.363          40.000                                                                                                                                  
C13  36325393.444     3650288.7180      -1490.342          35.000                                                                                                                                  
C16  36656921.929     1598111.4190       -459.868          38.000                                                                                                                                  
C19  23059012.966    -4753452.6800       1560.613          46.000                                                                                                                                  
C20  22440597.195      642852.5750       -480.412          39.000                                                                                                                                  
C29  25803685.471                       -2634.750          30.000                                                                                                                                  
C32  25514040.981     6132476.9960      -2286.766          34.000                                                                                                                                  
C35  26109346.067     2589259.1540      -1419.968          40.000                                                                                                                                  
C36  25914852.711                        3010.267          27.000                                                                                                                                  
C37  23225317.136     2213866.7740      -1533.234          37.000                                                                                                                                  
E03                                                                  24305924.156                        -586.720          23.000                                                                  
E08                                                                  23045879.967     -229311.1440        582.111          32.000                                                                  
