current_Start_Timestamp:2020_10_22_01_29_21.330
successful:{"high_accuracy_location":"$GPRMC,172922.00014500,A,3955.6125154,N,11619.2005513,E,0.00,0.00,211020,0.0,E,D*39\r\n$GPGGA,172922.00014500,3955.6125154,N,11619.2005513,E,5,11,1.1,54.988,M,-9.670,M,1.0,*63\r\n"}
current_End_Timestamp:2020_10_22_01_29_21.552	Interval:222(ms)
current_Start_Timestamp:2020_10_22_01_29_22.341
successful:{"high_accuracy_location":"$GPRMC,172923.00014500,A,3955.6110879,N,11619.2034339,E,0.00,0.00,211020,0.0,E,D*34\r\n$GPGGA,172923.00014500,3955.6110879,N,11619.2034339,E,5,09,1.1,56.686,M,-9.670,M,0.0,*65\r\n"}
current_End_Timestamp:2020_10_22_01_29_22.554	Interval:213(ms)
current_Start_Timestamp:2020_10_22_01_29_23.334
successful:{"high_accuracy_location":"$GPRMC,172924.00014500,A,3955.6115425,N,11619.2081627,E,0.00,0.00,211020,0.0,E,D*37\r\n$GPGGA,172924.00014500,3955.6115425,N,11619.2081627,E,5,08,1.1,54.487,M,-9.670,M,1.0,*67\r\n"}
current_End_Timestamp:2020_10_22_01_29_23.453	Interval:119(ms)
current_Start_Timestamp:2020_10_22_01_29_24.346
successful:{"high_accuracy_location":"$GPRMC,172925.00014500,A,3955.6111371,N,11619.2144922,E,0.00,0.00,211020,0.0,E,D*36\r\n$GPGGA,172925.00014500,3955.6111371,N,11619.2144922,E,5,08,1.1,54.833,M,-9.670,M,1.0,*65\r\n"}
current_End_Timestamp:2020_10_22_01_29_24.473	Interval:127(ms)
current_Start_Timestamp:2020_10_22_01_29_25.385
successful:{"high_accuracy_location":"$GPRMC,172926.00014500,A,3955.6114766,N,11619.2208014,E,0.00,0.00,211020,0.0,E,D*35\r\n$GPGGA,172926.00014500,3955.6114766,N,11619.2208014,E,5,09,1.1,54.611,M,-9.670,M,1.0,*69\r\n"}
current_End_Timestamp:2020_10_22_01_29_25.494	Interval:109(ms)
current_Start_Timestamp:2020_10_22_01_29_26.368
successful:{"high_accuracy_location":"$GPRMC,172927.00014500,A,3955.6117521,N,11619.2282551,E,0.00,0.00,211020,0.0,E,D*30\r\n$GPGGA,172927.00014500,3955.6117521,N,11619.2282551,E,5,08,1.1,53.642,M,-9.669,M,1.0,*64\r\n"}
current_End_Timestamp:2020_10_22_01_29_26.493	Interval:125(ms)
current_Start_Timestamp:2020_10_22_01_29_27.334
successful:{"high_accuracy_location":"$GPRMC,172928.00014500,A,3955.6111029,N,11619.2357276,E,0.00,0.00,211020,0.0,E,D*3F\r\n$GPGGA,172928.00014500,3955.6111029,N,11619.2357276,E,5,10,1.1,59.541,M,-9.669,M,1.0,*68\r\n"}
current_End_Timestamp:2020_10_22_01_29_27.464	Interval:130(ms)
current_Start_Timestamp:2020_10_22_01_29_28.351
successful:{"high_accuracy_location":"$GPRMC,172929.00014500,A,3955.6108630,N,11619.2434785,E,0.00,0.00,211020,0.0,E,D*33\r\n$GPGGA,172929.00014500,3955.6108630,N,11619.2434785,E,5,08,1.1,57.085,M,-9.669,M,1.0,*6E\r\n"}
current_End_Timestamp:2020_10_22_01_29_28.494	Interval:143(ms)
current_Start_Timestamp:2020_10_22_01_29_29.350
successful:{"high_accuracy_location":"$GPRMC,172930.00014500,A,3955.6106997,N,11619.2513418,E,0.00,0.00,211020,0.0,E,D*34\r\n$GPGGA,172930.00014500,3955.6106997,N,11619.2513418,E,5,07,1.1,58.125,M,-9.669,M,1.0,*62\r\n"}
current_End_Timestamp:2020_10_22_01_29_29.482	Interval:132(ms)
current_Start_Timestamp:2020_10_22_01_29_30.365
successful:{"high_accuracy_location":"$GPRMC,172931.00014500,A,3955.6106708,N,11619.2590910,E,0.00,0.00,211020,0.0,E,D*33\r\n$GPGGA,172931.00014500,3955.6106708,N,11619.2590910,E,5,07,1.1,56.186,M,-9.668,M,1.0,*63\r\n"}
current_End_Timestamp:2020_10_22_01_29_30.502	Interval:137(ms)
current_Start_Timestamp:2020_10_22_01_29_31.364
successful:{"high_accuracy_location":"$GPRMC,172932.00014500,A,3955.6106685,N,11619.2677260,E,0.00,0.00,211020,0.0,E,D*32\r\n$GPGGA,172932.00014500,3955.6106685,N,11619.2677260,E,5,07,1.1,57.026,M,-9.668,M,1.0,*68\r\n"}
current_End_Timestamp:2020_10_22_01_29_31.494	Interval:130(ms)
current_Start_Timestamp:2020_10_22_01_29_32.352
successful:{"high_accuracy_location":"$GPRMC,172933.00014500,A,3955.6105535,N,11619.2763217,E,0.00,0.00,211020,0.0,E,D*3C\r\n$GPGGA,172933.00014500,3955.6105535,N,11619.2763217,E,5,07,1.1,59.198,M,-9.668,M,1.0,*6C\r\n"}
current_End_Timestamp:2020_10_22_01_29_32.474	Interval:122(ms)
current_Start_Timestamp:2020_10_22_01_29_33.354
successful:{"high_accuracy_location":"$GPRMC,172934.00014500,A,3955.6103546,N,11619.2850817,E,0.00,0.00,211020,0.0,E,D*3C\r\n$GPGGA,172934.00014500,3955.6103546,N,11619.2850817,E,5,09,1.1,61.878,M,-9.668,M,1.0,*6E\r\n"}
current_End_Timestamp:2020_10_22_01_29_33.493	Interval:139(ms)
current_Start_Timestamp:2020_10_22_01_29_34.343
successful:{"high_accuracy_location":"$GPRMC,172935.00014500,A,3955.6105604,N,11619.2936666,E,0.00,0.00,211020,0.0,E,D*37\r\n$GPGGA,172935.00014500,3955.6105604,N,11619.2936666,E,5,09,1.1,60.415,M,-9.668,M,1.0,*63\r\n"}
current_End_Timestamp:2020_10_22_01_29_34.493	Interval:150(ms)
current_Start_Timestamp:2020_10_22_01_29_35.374
successful:{"high_accuracy_location":"$GPRMC,172936.00014500,A,3955.6105546,N,11619.3022296,E,0.00,0.00,211020,0.0,E,D*37\r\n$GPGGA,172936.00014500,3955.6105546,N,11619.3022296,E,5,09,1.1,58.275,M,-9.667,M,1.0,*67\r\n"}
current_End_Timestamp:2020_10_22_01_29_35.514	Interval:140(ms)
current_Start_Timestamp:2020_10_22_01_29_36.356
successful:{"high_accuracy_location":"$GPRMC,172937.00014500,A,3955.6133620,N,11619.3108980,E,0.00,0.00,211020,0.0,E,A*30\r\n$GPGGA,172937.00014500,3955.6133620,N,11619.3108980,E,1,15,1.1,59.530,M,-9.667,M,0.0,*6A\r\n"}
current_End_Timestamp:2020_10_22_01_29_36.513	Interval:157(ms)
current_Start_Timestamp:2020_10_22_01_29_37.359
successful:{"high_accuracy_location":"$GPRMC,172938.00014500,A,3955.6127770,N,11619.3199006,E,0.00,0.00,211020,0.0,E,A*31\r\n$GPGGA,172938.00014500,3955.6127770,N,11619.3199006,E,1,16,1.1,61.342,M,-9.667,M,0.0,*60\r\n"}
current_End_Timestamp:2020_10_22_01_29_37.642	Interval:283(ms)
current_Start_Timestamp:2020_10_22_01_29_38.364
successful:{"high_accuracy_location":"$GPRMC,172939.00014500,A,3955.6129795,N,11619.3288473,E,0.00,0.00,211020,0.0,E,A*30\r\n$GPGGA,172939.00014500,3955.6129795,N,11619.3288473,E,1,16,1.1,63.374,M,-9.666,M,0.0,*67\r\n"}
current_End_Timestamp:2020_10_22_01_29_38.518	Interval:154(ms)
current_Start_Timestamp:2020_10_22_01_29_39.343
successful:{"high_accuracy_location":"$GPRMC,172940.00014500,A,3955.6127725,N,11619.3381992,E,0.00,0.00,211020,0.0,E,A*31\r\n$GPGGA,172940.00014500,3955.6127725,N,11619.3381992,E,1,16,1.1,63.841,M,-9.666,M,0.0,*6B\r\n"}
current_End_Timestamp:2020_10_22_01_29_39.478	Interval:135(ms)
current_Start_Timestamp:2020_10_22_01_29_40.329
successful:{"high_accuracy_location":"$GPRMC,172941.00014500,A,3955.6124612,N,11619.3474346,E,0.00,0.00,211020,0.0,E,A*38\r\n$GPGGA,172941.00014500,3955.6124612,N,11619.3474346,E,1,16,1.1,63.134,M,-9.666,M,0.0,*69\r\n"}
current_End_Timestamp:2020_10_22_01_29_40.561	Interval:232(ms)
current_Start_Timestamp:2020_10_22_01_29_41.333
successful:{"high_accuracy_location":"$GPRMC,172942.00014500,A,3955.6064605,N,11619.3593154,E,0.00,0.00,211020,0.0,E,D*34\r\n$GPGGA,172942.00014500,3955.6064605,N,11619.3593154,E,5,09,1.1,1.983,M,-9.666,M,0.0,*5A\r\n"}
current_End_Timestamp:2020_10_22_01_29_41.818	Interval:485(ms)
current_Start_Timestamp:2020_10_22_01_29_42.338
successful:{"high_accuracy_location":"$GPRMC,172943.00014500,A,3955.6064937,N,11619.3686960,E,0.00,0.00,211020,0.0,E,D*33\r\n$GPGGA,172943.00014500,3955.6064937,N,11619.3686960,E,5,07,1.1,0.661,M,-9.666,M,0.0,*51\r\n"}
current_End_Timestamp:2020_10_22_01_29_42.728	Interval:390(ms)
current_Start_Timestamp:2020_10_22_01_29_43.360
successful:{"high_accuracy_location":"$GPRMC,172944.00014500,A,3955.6085924,N,11619.3772864,E,0.00,0.00,211020,0.0,E,D*36\r\n$GPGGA,172944.00014500,3955.6085924,N,11619.3772864,E,5,07,1.1,25.155,M,-9.665,M,0.0,*60\r\n"}
current_End_Timestamp:2020_10_22_01_29_43.628	Interval:268(ms)
current_Start_Timestamp:2020_10_22_01_29_44.357
successful:{"high_accuracy_location":"$GPRMC,172945.00014500,A,3955.6087144,N,11619.3867733,E,0.00,0.00,211020,0.0,E,D*3D\r\n$GPGGA,172945.00014500,3955.6087144,N,11619.3867733,E,5,07,1.1,25.048,M,-9.665,M,0.0,*66\r\n"}
current_End_Timestamp:2020_10_22_01_29_44.794	Interval:437(ms)
current_Start_Timestamp:2020_10_22_01_29_45.360
successful:{"high_accuracy_location":"$GPRMC,172946.00014500,A,3955.6090455,N,11619.3960564,E,0.00,0.00,211020,0.0,E,D*3B\r\n$GPGGA,172946.00014500,3955.6090455,N,11619.3960564,E,5,07,1.1,27.898,M,-9.665,M,0.0,*67\r\n"}
current_End_Timestamp:2020_10_22_01_29_45.714	Interval:354(ms)
current_Start_Timestamp:2020_10_22_01_29_46.359
successful:{"high_accuracy_location":"$GPRMC,172947.00014500,A,3955.6088995,N,11619.4054738,E,0.00,0.00,211020,0.0,E,D*30\r\n$GPGGA,172947.00014500,3955.6088995,N,11619.4054738,E,5,07,1.1,24.204,M,-9.664,M,0.0,*61\r\n"}
current_End_Timestamp:2020_10_22_01_29_46.599	Interval:240(ms)
current_Start_Timestamp:2020_10_22_01_29_47.391
successful:{"high_accuracy_location":"$GPRMC,172948.00014500,A,3955.6099717,N,11619.4144722,E,0.00,0.00,211020,0.0,E,D*30\r\n$GPGGA,172948.00014500,3955.6099717,N,11619.4144722,E,5,07,1.1,34.008,M,-9.664,M,0.0,*6E\r\n"}
current_End_Timestamp:2020_10_22_01_29_47.764	Interval:373(ms)
current_Start_Timestamp:2020_10_22_01_29_48.368
successful:{"high_accuracy_location":"$GPRMC,172949.00014500,A,3955.6096325,N,11619.4241732,E,0.00,0.00,211020,0.0,E,D*3C\r\n$GPGGA,172949.00014500,3955.6096325,N,11619.4241732,E,5,07,1.1,32.280,M,-9.664,M,0.0,*66\r\n"}
current_End_Timestamp:2020_10_22_01_29_48.674	Interval:306(ms)
current_Start_Timestamp:2020_10_22_01_29_49.359
successful:{"high_accuracy_location":"$GPRMC,172950.00014500,A,3955.6096307,N,11619.4335621,E,0.00,0.00,211020,0.0,E,D*35\r\n$GPGGA,172950.00014500,3955.6096307,N,11619.4335621,E,5,07,1.1,33.302,M,-9.664,M,1.0,*64\r\n"}
current_End_Timestamp:2020_10_22_01_29_49.508	Interval:149(ms)
current_Start_Timestamp:2020_10_22_01_29_50.359
successful:{"high_accuracy_location":"$GPRMC,172951.00014500,A,3955.6090493,N,11619.4434439,E,0.00,0.00,211020,0.0,E,D*35\r\n$GPGGA,172951.00014500,3955.6090493,N,11619.4434439,E,5,09,1.1,24.399,M,-9.663,M,0.0,*68\r\n"}
current_End_Timestamp:2020_10_22_01_29_50.664	Interval:305(ms)
current_Start_Timestamp:2020_10_22_01_29_51.361
successful:{"high_accuracy_location":"$GPRMC,172952.00014500,A,3955.6101988,N,11619.4527401,E,0.00,0.00,211020,0.0,E,D*30\r\n$GPGGA,172952.00014500,3955.6101988,N,11619.4527401,E,5,10,1.1,43.251,M,-9.663,M,0.0,*61\r\n"}
current_End_Timestamp:2020_10_22_01_29_51.659	Interval:298(ms)
current_Start_Timestamp:2020_10_22_01_29_52.391
successful:{"high_accuracy_location":"$GPRMC,172953.00014500,A,3955.6092385,N,11619.4625231,E,0.00,0.00,211020,0.0,E,D*39\r\n$GPGGA,172953.00014500,3955.6092385,N,11619.4625231,E,5,10,1.1,29.589,M,-9.663,M,1.0,*67\r\n"}
current_End_Timestamp:2020_10_22_01_29_52.503	Interval:112(ms)
current_Start_Timestamp:2020_10_22_01_29_53.372
successful:{"high_accuracy_location":"$GPRMC,172954.00014500,A,3955.6095490,N,11619.4716318,E,0.00,0.00,211020,0.0,E,D*31\r\n$GPGGA,172954.00014500,3955.6095490,N,11619.4716318,E,5,10,1.1,35.958,M,-9.663,M,1.0,*62\r\n"}
current_End_Timestamp:2020_10_22_01_29_53.503	Interval:131(ms)
current_Start_Timestamp:2020_10_22_01_29_54.349
successful:{"high_accuracy_location":"$GPRMC,172955.00014500,A,3955.6101419,N,11619.4807741,E,0.00,0.00,211020,0.0,E,D*3A\r\n$GPGGA,172955.00014500,3955.6101419,N,11619.4807741,E,5,10,1.1,41.744,M,-9.662,M,1.0,*68\r\n"}
current_End_Timestamp:2020_10_22_01_29_54.493	Interval:144(ms)
current_Start_Timestamp:2020_10_22_01_29_55.331
successful:{"high_accuracy_location":"$GPRMC,172956.00014500,A,3955.6106306,N,11619.4898007,E,0.00,0.00,211020,0.0,E,D*34\r\n$GPGGA,172956.00014500,3955.6106306,N,11619.4898007,E,5,09,1.1,49.933,M,-9.662,M,1.0,*68\r\n"}
current_End_Timestamp:2020_10_22_01_29_55.463	Interval:132(ms)
current_Start_Timestamp:2020_10_22_01_29_56.353
successful:{"high_accuracy_location":"$GPRMC,172957.00014500,A,3955.6106757,N,11619.4989091,E,0.00,0.00,211020,0.0,E,D*3B\r\n$GPGGA,172957.00014500,3955.6106757,N,11619.4989091,E,5,09,1.1,51.838,M,-9.662,M,1.0,*64\r\n"}
current_End_Timestamp:2020_10_22_01_29_56.493	Interval:140(ms)
current_Start_Timestamp:2020_10_22_01_29_57.344
successful:{"high_accuracy_location":"$GPRMC,172958.00014500,A,3955.6109093,N,11619.5077195,E,0.00,0.00,211020,0.0,E,D*38\r\n$GPGGA,172958.00014500,3955.6109093,N,11619.5077195,E,5,09,1.1,54.582,M,-9.662,M,0.0,*6F\r\n"}
current_End_Timestamp:2020_10_22_01_29_57.809	Interval:465(ms)
current_Start_Timestamp:2020_10_22_01_29_58.389
successful:{"high_accuracy_location":"$GPRMC,172959.00014500,A,3955.6108374,N,11619.5166433,E,0.00,0.00,211020,0.0,E,D*3A\r\n$GPGGA,172959.00014500,3955.6108374,N,11619.5166433,E,5,06,1.1,54.568,M,-9.661,M,0.0,*65\r\n"}
current_End_Timestamp:2020_10_22_01_29_58.661	Interval:272(ms)
current_Start_Timestamp:2020_10_22_01_29_59.350
successful:{"high_accuracy_location":"$GPRMC,173000.00014500,A,3955.6109701,N,11619.5252641,E,0.00,0.00,211020,0.0,E,D*3A\r\n$GPGGA,173000.00014500,3955.6109701,N,11619.5252641,E,5,08,1.1,54.988,M,-9.661,M,1.0,*68\r\n"}
current_End_Timestamp:2020_10_22_01_29_59.483	Interval:133(ms)
current_Start_Timestamp:2020_10_22_01_30_00.329
successful:{"high_accuracy_location":"$GPRMC,173001.00014500,A,3955.6110381,N,11619.5337552,E,0.00,0.00,211020,0.0,E,D*3C\r\n$GPGGA,173001.00014500,3955.6110381,N,11619.5337552,E,5,07,1.1,54.804,M,-9.661,M,0.0,*65\r\n"}
current_End_Timestamp:2020_10_22_01_30_00.972	Interval:643(ms)
current_Start_Timestamp:2020_10_22_01_30_01.335
successful:{"high_accuracy_location":"$GPRMC,173002.00014500,A,3955.6110693,N,11619.5422345,E,0.00,0.00,211020,0.0,E,D*3A\r\n$GPGGA,173002.00014500,3955.6110693,N,11619.5422345,E,5,07,1.1,54.565,M,-9.661,M,0.0,*69\r\n"}
current_End_Timestamp:2020_10_22_01_30_01.937	Interval:602(ms)
current_Start_Timestamp:2020_10_22_01_30_02.351
successful:{"high_accuracy_location":"$GPRMC,173003.00014500,A,3955.6109481,N,11619.5507798,E,0.00,0.00,211020,0.0,E,D*30\r\n$GPGGA,173003.00014500,3955.6109481,N,11619.5507798,E,5,07,1.1,53.430,M,-9.660,M,0.0,*64\r\n"}
current_End_Timestamp:2020_10_22_01_30_02.973	Interval:622(ms)
current_Start_Timestamp:2020_10_22_01_30_03.338
successful:{"high_accuracy_location":"$GPRMC,173004.00014500,A,3955.6134735,N,11619.5603521,E,0.00,0.00,211020,0.0,E,A*37\r\n$GPGGA,173004.00014500,3955.6134735,N,11619.5603521,E,1,14,1.1,61.894,M,-9.660,M,0.0,*63\r\n"}
current_End_Timestamp:2020_10_22_01_30_03.582	Interval:244(ms)
current_Start_Timestamp:2020_10_22_01_30_04.346
successful:{"high_accuracy_location":"$GPRMC,173005.00014500,A,3955.6137605,N,11619.5690717,E,0.00,0.00,211020,0.0,E,A*3A\r\n$GPGGA,173005.00014500,3955.6137605,N,11619.5690717,E,1,15,1.1,62.079,M,-9.660,M,0.0,*67\r\n"}
current_End_Timestamp:2020_10_22_01_30_04.732	Interval:386(ms)
current_Start_Timestamp:2020_10_22_01_30_05.367
successful:{"high_accuracy_location":"$GPRMC,173006.00014500,A,3955.6151297,N,11619.5764416,E,0.00,0.00,211020,0.0,E,A*3E\r\n$GPGGA,173006.00014500,3955.6151297,N,11619.5764416,E,1,15,1.1,67.636,M,-9.659,M,0.0,*61\r\n"}
current_End_Timestamp:2020_10_22_01_30_05.593	Interval:226(ms)
current_Start_Timestamp:2020_10_22_01_30_06.347
successful:{"high_accuracy_location":"$GPRMC,173007.00014500,A,3955.6161569,N,11619.5840268,E,0.00,0.00,211020,0.0,E,A*3C\r\n$GPGGA,173007.00014500,3955.6161569,N,11619.5840268,E,1,14,1.1,72.621,M,-9.659,M,0.0,*60\r\n"}
current_End_Timestamp:2020_10_22_01_30_06.564	Interval:217(ms)
current_Start_Timestamp:2020_10_22_01_30_07.332
successful:{"high_accuracy_location":"$GPRMC,173008.00014500,A,3955.6174226,N,11619.5905109,E,0.00,0.00,211020,0.0,E,A*3F\r\n$GPGGA,173008.00014500,3955.6174226,N,11619.5905109,E,1,14,1.1,69.836,M,-9.659,M,0.0,*61\r\n"}
current_End_Timestamp:2020_10_22_01_30_08.005	Interval:673(ms)
current_Start_Timestamp:2020_10_22_01_30_08.360
successful:{"high_accuracy_location":"$GPRMC,173009.00014500,A,3955.6161425,N,11619.5984114,E,0.00,0.00,211020,0.0,E,A*3A\r\n$GPGGA,173009.00014500,3955.6161425,N,11619.5984114,E,1,15,1.1,73.545,M,-9.659,M,0.0,*67\r\n"}
current_End_Timestamp:2020_10_22_01_30_08.485	Interval:125(ms)
current_Start_Timestamp:2020_10_22_01_30_09.371
successful:{"high_accuracy_location":"$GPRMC,173010.00014500,A,3955.6147271,N,11619.6054571,E,0.00,0.00,211020,0.0,E,A*31\r\n$GPGGA,173010.00014500,3955.6147271,N,11619.6054571,E,1,16,1.1,71.212,M,-9.659,M,0.0,*68\r\n"}
current_End_Timestamp:2020_10_22_01_30_09.729	Interval:358(ms)
current_Start_Timestamp:2020_10_22_01_30_10.352
successful:{"high_accuracy_location":"$GPRMC,173011.00014500,A,3955.6063713,N,11619.6059341,E,0.00,0.00,211020,0.0,E,D*3B\r\n$GPGGA,173011.00014500,3955.6063713,N,11619.6059341,E,5,06,1.1,26.371,M,-9.659,M,1.0,*65\r\n"}
current_End_Timestamp:2020_10_22_01_30_10.488	Interval:136(ms)
current_Start_Timestamp:2020_10_22_01_30_11.355
successful:{"high_accuracy_location":"$GPRMC,173012.00014500,A,3955.6115112,N,11619.6155841,E,0.00,0.00,211020,0.0,E,D*39\r\n$GPGGA,173012.00014500,3955.6115112,N,11619.6155841,E,5,06,1.1,77.060,M,-9.659,M,1.0,*60\r\n"}
current_End_Timestamp:2020_10_22_01_30_11.488	Interval:133(ms)
current_Start_Timestamp:2020_10_22_01_30_12.346
successful:{"high_accuracy_location":"$GPRMC,173013.00014500,A,3955.6104959,N,11619.6233062,E,0.00,0.00,211020,0.0,E,D*35\r\n$GPGGA,173013.00014500,3955.6104959,N,11619.6233062,E,5,06,1.1,63.085,M,-9.658,M,1.0,*63\r\n"}
current_End_Timestamp:2020_10_22_01_30_12.479	Interval:133(ms)
current_Start_Timestamp:2020_10_22_01_30_13.348
successful:{"high_accuracy_location":"$GPRMC,173014.00014500,A,3955.6178910,N,11619.6296467,E,0.00,0.00,211020,0.0,E,A*3F\r\n$GPGGA,173014.00014500,3955.6178910,N,11619.6296467,E,1,13,1.1,84.598,M,-9.658,M,0.0,*6D\r\n"}
current_End_Timestamp:2020_10_22_01_30_13.474	Interval:126(ms)
current_Start_Timestamp:2020_10_22_01_30_14.345
successful:{"high_accuracy_location":"$GPRMC,173015.00014500,A,3955.6090981,N,11619.6356384,E,0.00,0.00,211020,0.0,E,D*33\r\n$GPGGA,173015.00014500,3955.6090981,N,11619.6356384,E,5,07,1.1,54.711,M,-9.658,M,1.0,*6A\r\n"}
current_End_Timestamp:2020_10_22_01_30_14.475	Interval:130(ms)
current_Start_Timestamp:2020_10_22_01_30_15.333
successful:{"high_accuracy_location":"$GPRMC,173016.00014500,A,3955.6153914,N,11619.6427438,E,0.00,0.00,211020,0.0,E,A*36\r\n$GPGGA,173016.00014500,3955.6153914,N,11619.6427438,E,1,13,1.1,73.965,M,-9.658,M,0.0,*62\r\n"}
current_End_Timestamp:2020_10_22_01_30_15.464	Interval:131(ms)
current_Start_Timestamp:2020_10_22_01_30_16.351
successful:{"high_accuracy_location":"$GPRMC,173017.00014500,A,3955.6144965,N,11619.6493878,E,0.00,0.00,211020,0.0,E,A*30\r\n$GPGGA,173017.00014500,3955.6144965,N,11619.6493878,E,1,13,1.1,75.706,M,-9.657,M,0.0,*66\r\n"}
current_End_Timestamp:2020_10_22_01_30_16.475	Interval:124(ms)
current_Start_Timestamp:2020_10_22_01_30_17.384
successful:{"high_accuracy_location":"$GPRMC,173018.00014500,A,3955.6134994,N,11619.6564345,E,0.00,0.00,211020,0.0,E,A*3A\r\n$GPGGA,173018.00014500,3955.6134994,N,11619.6564345,E,1,14,1.1,72.648,M,-9.657,M,0.0,*67\r\n"}
current_End_Timestamp:2020_10_22_01_30_17.513	Interval:129(ms)
current_Start_Timestamp:2020_10_22_01_30_18.340
successful:{"high_accuracy_location":"$GPRMC,173019.00014500,A,3955.6118584,N,11619.6635177,E,0.00,0.00,211020,0.0,E,A*3C\r\n$GPGGA,173019.00014500,3955.6118584,N,11619.6635177,E,1,16,1.1,65.867,M,-9.657,M,0.0,*66\r\n"}
current_End_Timestamp:2020_10_22_01_30_18.447	Interval:107(ms)
current_Start_Timestamp:2020_10_22_01_30_19.325
successful:{"high_accuracy_location":"$GPRMC,173020.00014500,A,3955.6119603,N,11619.6706642,E,0.00,0.00,211020,0.0,E,A*3B\r\n$GPGGA,173020.00014500,3955.6119603,N,11619.6706642,E,1,17,1.1,60.428,M,-9.657,M,0.0,*62\r\n"}
current_End_Timestamp:2020_10_22_01_30_19.437	Interval:112(ms)
current_Start_Timestamp:2020_10_22_01_30_20.341
successful:{"high_accuracy_location":"$GPRMC,173021.00014500,A,3955.6110440,N,11619.6776832,E,0.00,0.00,211020,0.0,E,A*38\r\n$GPGGA,173021.00014500,3955.6110440,N,11619.6776832,E,1,16,1.1,58.465,M,-9.657,M,0.0,*62\r\n"}
current_End_Timestamp:2020_10_22_01_30_20.472	Interval:131(ms)
current_Start_Timestamp:2020_10_22_01_30_21.340
successful:{"high_accuracy_location":"$GPRMC,173022.00014500,A,3955.6086642,N,11619.6843294,E,0.00,0.00,211020,0.0,E,D*3F\r\n$GPGGA,173022.00014500,3955.6086642,N,11619.6843294,E,5,08,1.1,21.847,M,-9.657,M,1.0,*68\r\n"}
current_End_Timestamp:2020_10_22_01_30_21.492	Interval:152(ms)
current_Start_Timestamp:2020_10_22_01_30_22.340
successful:{"high_accuracy_location":"$GPRMC,173023.00014500,A,3955.6054689,N,11619.6896250,E,0.00,0.00,211020,0.0,E,D*36\r\n$GPGGA,173023.00014500,3955.6054689,N,11619.6896250,E,5,07,1.1,23.163,M,-9.657,M,1.0,*63\r\n"}
current_End_Timestamp:2020_10_22_01_30_22.472	Interval:132(ms)
current_Start_Timestamp:2020_10_22_01_30_23.351
successful:{"high_accuracy_location":"$GPRMC,173024.00014500,A,3955.6095213,N,11619.6954742,E,0.00,0.00,211020,0.0,E,D*32\r\n$GPGGA,173024.00014500,3955.6095213,N,11619.6954742,E,5,10,1.1,59.710,M,-9.656,M,1.0,*6F\r\n"}
current_End_Timestamp:2020_10_22_01_30_23.487	Interval:136(ms)
current_Start_Timestamp:2020_10_22_01_30_24.344
successful:{"high_accuracy_location":"$GPRMC,173025.00014500,A,3955.6094204,N,11619.7018426,E,0.00,0.00,211020,0.0,E,D*35\r\n$GPGGA,173025.00014500,3955.6094204,N,11619.7018426,E,5,08,1.1,56.485,M,-9.656,M,1.0,*61\r\n"}
current_End_Timestamp:2020_10_22_01_30_24.452	Interval:108(ms)
current_Start_Timestamp:2020_10_22_01_30_25.369
successful:{"high_accuracy_location":"$GPRMC,173026.00014500,A,3955.6107835,N,11619.7119795,E,0.00,0.00,211020,0.0,E,D*3E\r\n$GPGGA,173026.00014500,3955.6107835,N,11619.7119795,E,5,10,1.1,59.203,M,-9.656,M,1.0,*64\r\n"}
current_End_Timestamp:2020_10_22_01_30_25.527	Interval:158(ms)
current_Start_Timestamp:2020_10_22_01_30_26.345
successful:{"high_accuracy_location":"$GPRMC,173027.00014500,A,3955.6109331,N,11619.7210355,E,0.00,0.00,211020,0.0,E,D*3C\r\n$GPGGA,173027.00014500,3955.6109331,N,11619.7210355,E,5,10,1.1,61.693,M,-9.656,M,1.0,*60\r\n"}
current_End_Timestamp:2020_10_22_01_30_26.533	Interval:188(ms)
current_Start_Timestamp:2020_10_22_01_30_27.353
successful:{"high_accuracy_location":"$GPRMC,173028.00014500,A,3955.6106986,N,11619.7290811,E,0.00,0.00,211020,0.0,E,D*39\r\n$GPGGA,173028.00014500,3955.6106986,N,11619.7290811,E,5,09,1.1,60.933,M,-9.655,M,1.0,*6A\r\n"}
current_End_Timestamp:2020_10_22_01_30_27.478	Interval:125(ms)
current_Start_Timestamp:2020_10_22_01_30_28.369
successful:{"high_accuracy_location":"$GPRMC,173029.00014500,A,3955.6110230,N,11619.7369813,E,0.00,0.00,211020,0.0,E,D*3C\r\n$GPGGA,173029.00014500,3955.6110230,N,11619.7369813,E,5,09,1.1,58.949,M,-9.655,M,1.0,*69\r\n"}
current_End_Timestamp:2020_10_22_01_30_28.503	Interval:134(ms)
current_Start_Timestamp:2020_10_22_01_30_29.355
successful:{"high_accuracy_location":"$GPRMC,173030.00014500,A,3955.6114983,N,11619.7453515,E,0.00,0.00,211020,0.0,E,D*36\r\n$GPGGA,173030.00014500,3955.6114983,N,11619.7453515,E,5,09,1.1,55.718,M,-9.655,M,0.0,*65\r\n"}
current_End_Timestamp:2020_10_22_01_30_29.810	Interval:455(ms)
current_Start_Timestamp:2020_10_22_01_30_30.369
successful:{"high_accuracy_location":"$GPRMC,173031.00014500,A,3955.6113477,N,11619.7539087,E,0.00,0.00,211020,0.0,E,D*35\r\n$GPGGA,173031.00014500,3955.6113477,N,11619.7539087,E,5,07,1.1,54.761,M,-9.655,M,0.0,*67\r\n"}
current_End_Timestamp:2020_10_22_01_30_30.744	Interval:375(ms)
current_Start_Timestamp:2020_10_22_01_30_31.349
successful:{"high_accuracy_location":"$GPRMC,173032.00014500,A,3955.6130218,N,11619.7638103,E,0.00,0.00,211020,0.0,E,A*32\r\n$GPGGA,173032.00014500,3955.6130218,N,11619.7638103,E,1,17,1.1,61.387,M,-9.654,M,0.0,*6B\r\n"}
current_End_Timestamp:2020_10_22_01_30_31.589	Interval:240(ms)
current_Start_Timestamp:2020_10_22_01_30_32.352
successful:{"high_accuracy_location":"$GPRMC,173033.00014500,A,3955.6123238,N,11619.7731908,E,0.00,0.00,211020,0.0,E,A*38\r\n$GPGGA,173033.00014500,3955.6123238,N,11619.7731908,E,1,17,1.1,56.174,M,-9.654,M,0.0,*6B\r\n"}
current_End_Timestamp:2020_10_22_01_30_33.196	Interval:844(ms)
current_Start_Timestamp:2020_10_22_01_30_33.382
successful:{"high_accuracy_location":"$GPRMC,173034.00014500,A,3955.6126549,N,11619.7822795,E,0.00,0.00,211020,0.0,E,A*3C\r\n$GPGGA,173034.00014500,3955.6126549,N,11619.7822795,E,1,15,1.1,57.731,M,-9.654,M,0.0,*6B\r\n"}
current_End_Timestamp:2020_10_22_01_30_33.685	Interval:303(ms)
current_Start_Timestamp:2020_10_22_01_30_34.348
successful:{"high_accuracy_location":"$GPRMC,173035.00014500,A,3955.6123075,N,11619.7909633,E,0.00,0.00,211020,0.0,E,A*37\r\n$GPGGA,173035.00014500,3955.6123075,N,11619.7909633,E,1,14,1.1,59.319,M,-9.654,M,0.0,*61\r\n"}
current_End_Timestamp:2020_10_22_01_30_34.714	Interval:366(ms)
current_Start_Timestamp:2020_10_22_01_30_35.350
successful:{"high_accuracy_location":"$GPRMC,173036.00014500,A,3955.6128359,N,11619.8007555,E,0.00,0.00,211020,0.0,E,A*39\r\n$GPGGA,173036.00014500,3955.6128359,N,11619.8007555,E,1,14,1.1,57.659,M,-9.653,M,0.0,*67\r\n"}
current_End_Timestamp:2020_10_22_01_30_35.734	Interval:384(ms)
current_Start_Timestamp:2020_10_22_01_30_36.357
successful:{"high_accuracy_location":"$GPRMC,173037.00014500,A,3955.6124549,N,11619.8100351,E,0.00,0.00,211020,0.0,E,A*37\r\n$GPGGA,173037.00014500,3955.6124549,N,11619.8100351,E,1,17,1.1,55.191,M,-9.653,M,0.0,*6B\r\n"}
current_End_Timestamp:2020_10_22_01_30_36.603	Interval:246(ms)
current_Start_Timestamp:2020_10_22_01_30_37.348
successful:{"high_accuracy_location":"$GPRMC,173038.00014500,A,3955.6125721,N,11619.8198402,E,0.00,0.00,211020,0.0,E,A*35\r\n$GPGGA,173038.00014500,3955.6125721,N,11619.8198402,E,1,14,1.1,51.529,M,-9.653,M,0.0,*69\r\n"}
current_End_Timestamp:2020_10_22_01_30_37.734	Interval:386(ms)
current_Start_Timestamp:2020_10_22_01_30_38.352
successful:{"high_accuracy_location":"$GPRMC,173039.00014500,A,3955.6118815,N,11619.8297658,E,0.00,0.00,211020,0.0,E,A*33\r\n$GPGGA,173039.00014500,3955.6118815,N,11619.8297658,E,1,16,1.1,48.858,M,-9.653,M,0.0,*6E\r\n"}
current_End_Timestamp:2020_10_22_01_30_38.694	Interval:342(ms)
current_Start_Timestamp:2020_10_22_01_30_39.366
successful:{"high_accuracy_location":"$GPRMC,173040.00014500,A,3955.6108835,N,11619.8391687,E,0.00,0.00,211020,0.0,E,A*3B\r\n$GPGGA,173040.00014500,3955.6108835,N,11619.8391687,E,1,16,1.1,48.250,M,-9.652,M,0.0,*65\r\n"}
current_End_Timestamp:2020_10_22_01_30_39.576	Interval:210(ms)
current_Start_Timestamp:2020_10_22_01_30_40.377
successful:{"high_accuracy_location":"$GPRMC,173041.00014500,A,3955.6124566,N,11619.8473431,E,0.00,0.00,211020,0.0,E,A*3B\r\n$GPGGA,173041.00014500,3955.6124566,N,11619.8473431,E,1,15,1.1,51.285,M,-9.652,M,0.0,*66\r\n"}
current_End_Timestamp:2020_10_22_01_30_40.597	Interval:220(ms)
current_Start_Timestamp:2020_10_22_01_30_41.352
successful:{"high_accuracy_location":"$GPRMC,173042.00014500,A,3955.6132235,N,11619.8575817,E,0.00,0.00,211020,0.0,E,A*31\r\n$GPGGA,173042.00014500,3955.6132235,N,11619.8575817,E,1,15,1.1,55.142,M,-9.652,M,0.0,*60\r\n"}
current_End_Timestamp:2020_10_22_01_30_41.557	Interval:205(ms)
current_Start_Timestamp:2020_10_22_01_30_42.347
successful:{"high_accuracy_location":"$GPRMC,173043.00014500,A,3955.6134308,N,11619.8671386,E,0.00,0.00,211020,0.0,E,A*3D\r\n$GPGGA,173043.00014500,3955.6134308,N,11619.8671386,E,1,14,1.1,53.103,M,-9.651,M,0.0,*6D\r\n"}
current_End_Timestamp:2020_10_22_01_30_42.584	Interval:237(ms)
current_Start_Timestamp:2020_10_22_01_30_43.345
successful:{"high_accuracy_location":"$GPRMC,173044.00014500,A,3955.6132257,N,11619.8763855,E,0.00,0.00,211020,0.0,E,A*30\r\n$GPGGA,173044.00014500,3955.6132257,N,11619.8763855,E,1,15,1.1,55.438,M,-9.651,M,0.0,*6A\r\n"}
current_End_Timestamp:2020_10_22_01_30_43.572	Interval:227(ms)
current_Start_Timestamp:2020_10_22_01_30_44.285
successful:{"high_accuracy_location":"$GPRMC,173045.00014500,A,3955.6123344,N,11619.8846682,E,0.00,0.00,211020,0.0,E,A*3E\r\n$GPGGA,173045.00014500,3955.6123344,N,11619.8846682,E,1,16,1.1,55.935,M,-9.651,M,0.0,*67\r\n"}
current_End_Timestamp:2020_10_22_01_30_44.405	Interval:120(ms)
current_Start_Timestamp:2020_10_22_01_30_45.372
successful:{"high_accuracy_location":"$GPRMC,173046.00014500,A,3955.6125250,N,11619.8936965,E,0.00,0.00,211020,0.0,E,A*3F\r\n$GPGGA,173046.00014500,3955.6125250,N,11619.8936965,E,1,07,1.1,56.513,M,-9.651,M,0.0,*6D\r\n"}
current_End_Timestamp:2020_10_22_01_30_45.492	Interval:120(ms)
current_Start_Timestamp:2020_10_22_01_30_46.334
successful:{"high_accuracy_location":"$GPRMC,173047.00014500,A,3955.6100476,N,11619.9039359,E,0.00,0.00,211020,0.0,E,A*39\r\n$GPGGA,173047.00014500,3955.6100476,N,11619.9039359,E,1,16,1.1,61.779,M,-9.651,M,0.0,*61\r\n"}
current_End_Timestamp:2020_10_22_01_30_46.464	Interval:130(ms)
current_Start_Timestamp:2020_10_22_01_30_47.349
successful:{"high_accuracy_location":"$GPRMC,173048.00014500,A,3955.6114517,N,11619.9130841,E,0.00,0.00,211020,0.0,E,A*3F\r\n$GPGGA,173048.00014500,3955.6114517,N,11619.9130841,E,1,15,1.1,59.558,M,-9.650,M,0.0,*6F\r\n"}
current_End_Timestamp:2020_10_22_01_30_47.485	Interval:136(ms)
current_Start_Timestamp:2020_10_22_01_30_48.350
successful:{"high_accuracy_location":"$GPRMC,173049.00014500,A,3955.6110551,N,11619.9253099,E,0.00,0.00,211020,0.0,E,A*33\r\n$GPGGA,173049.00014500,3955.6110551,N,11619.9253099,E,1,16,1.1,57.778,M,-9.650,M,0.0,*6E\r\n"}
current_End_Timestamp:2020_10_22_01_30_48.605	Interval:255(ms)
current_Start_Timestamp:2020_10_22_01_30_49.350
successful:{"high_accuracy_location":"$GPRMC,173050.00014500,A,3955.6106153,N,11619.9339350,E,0.00,0.00,211020,0.0,E,A*31\r\n$GPGGA,173050.00014500,3955.6106153,N,11619.9339350,E,1,14,1.1,55.276,M,-9.650,M,0.0,*67\r\n"}
current_End_Timestamp:2020_10_22_01_30_49.584	Interval:234(ms)
current_Start_Timestamp:2020_10_22_01_30_50.357
successful:{"high_accuracy_location":"$GPRMC,173051.00014500,A,3955.6104138,N,11619.9439339,E,0.00,0.00,211020,0.0,E,A*37\r\n$GPGGA,173051.00014500,3955.6104138,N,11619.9439339,E,1,16,1.1,59.813,M,-9.649,M,0.0,*6E\r\n"}
current_End_Timestamp:2020_10_22_01_30_50.585	Interval:228(ms)
current_Start_Timestamp:2020_10_22_01_30_51.347
successful:{"high_accuracy_location":"$GPRMC,173052.00014500,A,3955.6106328,N,11619.9531780,E,0.00,0.00,211020,0.0,E,A*3A\r\n$GPGGA,173052.00014500,3955.6106328,N,11619.9531780,E,1,15,1.1,61.547,M,-9.649,M,0.0,*67\r\n"}
current_End_Timestamp:2020_10_22_01_30_51.782	Interval:435(ms)
current_Start_Timestamp:2020_10_22_01_30_52.358
successful:{"high_accuracy_location":"$GPRMC,173053.00014500,A,3955.6277971,N,11619.9595087,E,0.00,0.00,211020,0.0,E,D*33\r\n$GPGGA,173053.00014500,3955.6277971,N,11619.9595087,E,5,08,1.1,147.123,M,-9.648,M,0.0,*51\r\n"}
current_End_Timestamp:2020_10_22_01_30_52.584	Interval:226(ms)
current_Start_Timestamp:2020_10_22_01_30_53.345
successful:{"high_accuracy_location":"$GPRMC,173054.00014500,A,3955.6182499,N,11619.9690346,E,0.00,0.00,211020,0.0,E,D*3E\r\n$GPGGA,173054.00014500,3955.6182499,N,11619.9690346,E,5,10,1.1,82.701,M,-9.648,M,1.0,*6A\r\n"}
current_End_Timestamp:2020_10_22_01_30_53.473	Interval:128(ms)
current_Start_Timestamp:2020_10_22_01_30_54.349
successful:{"high_accuracy_location":"$GPRMC,173055.00014500,A,3955.6165824,N,11619.9783966,E,0.00,0.00,211020,0.0,E,D*37\r\n$GPGGA,173055.00014500,3955.6165824,N,11619.9783966,E,5,09,1.1,70.982,M,-9.648,M,0.0,*62\r\n"}
current_End_Timestamp:2020_10_22_01_30_54.785	Interval:436(ms)
current_Start_Timestamp:2020_10_22_01_30_55.365
successful:{"high_accuracy_location":"$GPRMC,173056.00014500,A,3955.6164611,N,11619.9875172,E,0.00,0.00,211020,0.0,E,D*36\r\n$GPGGA,173056.00014500,3955.6164611,N,11619.9875172,E,5,08,1.1,70.053,M,-9.648,M,0.0,*67\r\n"}
current_End_Timestamp:2020_10_22_01_30_55.575	Interval:210(ms)
current_Start_Timestamp:2020_10_22_01_30_56.340
successful:{"high_accuracy_location":"$GPRMC,173057.00014500,A,3955.6168197,N,11619.9967367,E,0.00,0.00,211020,0.0,E,D*36\r\n$GPGGA,173057.00014500,3955.6168197,N,11619.9967367,E,5,08,1.1,71.767,M,-9.648,M,1.0,*67\r\n"}
current_End_Timestamp:2020_10_22_01_30_56.544	Interval:204(ms)
current_Start_Timestamp:2020_10_22_01_30_57.342
successful:{"high_accuracy_location":"$GPRMC,173058.00014500,A,3955.6163812,N,11620.0064381,E,0.00,0.00,211020,0.0,E,D*37\r\n$GPGGA,173058.00014500,3955.6163812,N,11620.0064381,E,5,08,1.1,70.463,M,-9.647,M,0.0,*6E\r\n"}
current_End_Timestamp:2020_10_22_01_30_57.794	Interval:452(ms)
current_Start_Timestamp:2020_10_22_01_30_58.394
successful:{"high_accuracy_location":"$GPRMC,173059.00014500,A,3955.6158704,N,11620.0162311,E,0.00,0.00,211020,0.0,E,D*38\r\n$GPGGA,173059.00014500,3955.6158704,N,11620.0162311,E,5,07,1.1,67.399,M,-9.647,M,0.0,*6A\r\n"}
current_End_Timestamp:2020_10_22_01_30_58.624	Interval:230(ms)
current_Start_Timestamp:2020_10_22_01_30_59.359
successful:{"high_accuracy_location":"$GPRMC,173100.00014500,A,3955.6147545,N,11620.0257751,E,0.00,0.00,211020,0.0,E,D*39\r\n$GPGGA,173100.00014500,3955.6147545,N,11620.0257751,E,5,08,1.1,60.546,M,-9.647,M,1.0,*66\r\n"}
current_End_Timestamp:2020_10_22_01_30_59.583	Interval:224(ms)
current_Start_Timestamp:2020_10_22_01_31_00.328
successful:{"high_accuracy_location":"$GPRMC,173101.00014500,A,3955.6137467,N,11620.0349136,E,0.00,0.00,211020,0.0,E,D*37\r\n$GPGGA,173101.00014500,3955.6137467,N,11620.0349136,E,5,09,1.1,54.588,M,-9.647,M,1.0,*6C\r\n"}
current_End_Timestamp:2020_10_22_01_31_00.445	Interval:117(ms)
current_Start_Timestamp:2020_10_22_01_31_01.338
successful:{"high_accuracy_location":"$GPRMC,173102.00014500,A,3955.6131904,N,11620.0442338,E,0.00,0.00,211020,0.0,E,D*3A\r\n$GPGGA,173102.00014500,3955.6131904,N,11620.0442338,E,5,08,1.1,48.891,M,-9.647,M,1.0,*68\r\n"}
current_End_Timestamp:2020_10_22_01_31_01.462	Interval:124(ms)
current_Start_Timestamp:2020_10_22_01_31_02.329
successful:{"high_accuracy_location":"$GPRMC,173103.00014500,A,3955.6130139,N,11620.0534683,E,0.00,0.00,211020,0.0,E,D*39\r\n$GPGGA,173103.00014500,3955.6130139,N,11620.0534683,E,5,08,1.1,48.214,M,-9.646,M,1.0,*6D\r\n"}
current_End_Timestamp:2020_10_22_01_31_02.483	Interval:154(ms)
current_Start_Timestamp:2020_10_22_01_31_03.348
successful:{"high_accuracy_location":"$GPRMC,173104.00014500,A,3955.6129848,N,11620.0626112,E,0.00,0.00,211020,0.0,E,D*36\r\n$GPGGA,173104.00014500,3955.6129848,N,11620.0626112,E,5,09,1.1,50.066,M,-9.646,M,1.0,*6D\r\n"}
current_End_Timestamp:2020_10_22_01_31_03.480	Interval:132(ms)
current_Start_Timestamp:2020_10_22_01_31_04.344
successful:{"high_accuracy_location":"$GPRMC,173105.00014500,A,3955.6132454,N,11620.0716584,E,0.00,0.00,211020,0.0,E,D*35\r\n$GPGGA,173105.00014500,3955.6132454,N,11620.0716584,E,5,09,1.1,52.625,M,-9.646,M,1.0,*6D\r\n"}
current_End_Timestamp:2020_10_22_01_31_04.471	Interval:127(ms)
current_Start_Timestamp:2020_10_22_01_31_05.355
successful:{"high_accuracy_location":"$GPRMC,173106.00014500,A,3955.6129879,N,11620.0808512,E,0.00,0.00,211020,0.0,E,D*30\r\n$GPGGA,173106.00014500,3955.6129879,N,11620.0808512,E,5,08,1.1,51.825,M,-9.645,M,1.0,*67\r\n"}
current_End_Timestamp:2020_10_22_01_31_05.485	Interval:130(ms)
current_Start_Timestamp:2020_10_22_01_31_06.354
successful:{"high_accuracy_location":"$GPRMC,173107.00014500,A,3955.6124060,N,11620.0898224,E,0.00,0.00,211020,0.0,E,D*37\r\n$GPGGA,173107.00014500,3955.6124060,N,11620.0898224,E,5,09,1.1,48.291,M,-9.645,M,1.0,*6C\r\n"}
current_End_Timestamp:2020_10_22_01_31_06.479	Interval:125(ms)
current_Start_Timestamp:2020_10_22_01_31_07.350
successful:{"high_accuracy_location":"$GPRMC,173108.00014500,A,3955.6119684,N,11620.0987832,E,0.00,0.00,211020,0.0,E,D*38\r\n$GPGGA,173108.00014500,3955.6119684,N,11620.0987832,E,5,09,1.1,46.839,M,-9.645,M,1.0,*65\r\n"}
current_End_Timestamp:2020_10_22_01_31_07.484	Interval:134(ms)
current_Start_Timestamp:2020_10_22_01_31_08.377
successful:{"high_accuracy_location":"$GPRMC,173109.00014500,A,3955.6118512,N,11620.1072605,E,0.00,0.00,211020,0.0,E,D*3C\r\n$GPGGA,173109.00014500,3955.6118512,N,11620.1072605,E,5,09,1.1,46.008,M,-9.645,M,1.0,*6B\r\n"}
current_End_Timestamp:2020_10_22_01_31_08.503	Interval:126(ms)
current_Start_Timestamp:2020_10_22_01_31_09.350
successful:{"high_accuracy_location":"$GPRMC,173110.00014500,A,3955.6110648,N,11620.1156228,E,0.00,0.00,211020,0.0,E,D*3C\r\n$GPGGA,173110.00014500,3955.6110648,N,11620.1156228,E,5,09,1.1,40.545,M,-9.645,M,0.0,*60\r\n"}
current_End_Timestamp:2020_10_22_01_31_09.600	Interval:250(ms)
current_Start_Timestamp:2020_10_22_01_31_10.347
successful:{"high_accuracy_location":"$GPRMC,173111.00014500,A,3955.6105452,N,11620.1240243,E,0.00,0.00,211020,0.0,E,D*39\r\n$GPGGA,173111.00014500,3955.6105452,N,11620.1240243,E,5,10,1.1,36.522,M,-9.644,M,1.0,*6D\r\n"}
current_End_Timestamp:2020_10_22_01_31_10.504	Interval:157(ms)
current_Start_Timestamp:2020_10_22_01_31_11.336
successful:{"high_accuracy_location":"$GPRMC,173112.00014500,A,3955.6109033,N,11620.1328018,E,0.00,0.00,211020,0.0,E,D*36\r\n$GPGGA,173112.00014500,3955.6109033,N,11620.1328018,E,5,09,1.1,41.436,M,-9.644,M,0.0,*6F\r\n"}
current_End_Timestamp:2020_10_22_01_31_11.598	Interval:262(ms)
current_Start_Timestamp:2020_10_22_01_31_12.340
successful:{"high_accuracy_location":"$GPRMC,173113.00014500,A,3955.6110361,N,11620.1413150,E,0.00,0.00,211020,0.0,E,D*39\r\n$GPGGA,173113.00014500,3955.6110361,N,11620.1413150,E,5,09,1.1,43.336,M,-9.644,M,0.0,*65\r\n"}
current_End_Timestamp:2020_10_22_01_31_12.939	Interval:599(ms)
current_Start_Timestamp:2020_10_22_01_31_13.354
successful:{"high_accuracy_location":"$GPRMC,173114.00014500,A,3955.6126113,N,11620.1508815,E,0.00,0.00,211020,0.0,E,A*3A\r\n$GPGGA,173114.00014500,3955.6126113,N,11620.1508815,E,1,12,1.1,54.439,M,-9.644,M,0.0,*63\r\n"}
current_End_Timestamp:2020_10_22_01_31_13.999	Interval:645(ms)
current_Start_Timestamp:2020_10_22_01_31_14.341
successful:{"high_accuracy_location":"$GPRMC,173115.00014500,A,3955.6126199,N,11620.1587418,E,0.00,0.00,211020,0.0,E,A*3F\r\n$GPGGA,173115.00014500,3955.6126199,N,11620.1587418,E,1,12,1.1,61.398,M,-9.643,M,0.0,*6B\r\n"}
current_End_Timestamp:2020_10_22_01_31_14.963	Interval:622(ms)
current_Start_Timestamp:2020_10_22_01_31_15.344
successful:{"high_accuracy_location":"$GPRMC,173116.00014500,A,3955.6127801,N,11620.1657116,E,0.00,0.00,211020,0.0,E,A*30\r\n$GPGGA,173116.00014500,3955.6127801,N,11620.1657116,E,1,12,1.1,66.141,M,-9.643,M,0.0,*65\r\n"}
current_End_Timestamp:2020_10_22_01_31_15.980	Interval:636(ms)
current_Start_Timestamp:2020_10_22_01_31_16.356
successful:{"high_accuracy_location":"$GPRMC,173117.00014500,A,3955.6111974,N,11620.1743246,E,0.00,0.00,211020,0.0,E,A*35\r\n$GPGGA,173117.00014500,3955.6111974,N,11620.1743246,E,1,12,1.1,59.717,M,-9.643,M,0.0,*69\r\n"}
current_End_Timestamp:2020_10_22_01_31_17.049	Interval:693(ms)
current_Start_Timestamp:2020_10_22_01_31_17.335
successful:{"high_accuracy_location":"$GPRMC,173118.00014500,A,3955.6106087,N,11620.1826084,E,0.00,0.00,211020,0.0,E,A*39\r\n$GPGGA,173118.00014500,3955.6106087,N,11620.1826084,E,1,13,1.1,57.668,M,-9.643,M,0.0,*63\r\n"}
current_End_Timestamp:2020_10_22_01_31_18.036	Interval:701(ms)
current_Start_Timestamp:2020_10_22_01_31_18.341
successful:{"high_accuracy_location":"$GPRMC,173119.00014500,A,3955.6103327,N,11620.1904255,E,0.00,0.00,211020,0.0,E,A*3B\r\n$GPGGA,173119.00014500,3955.6103327,N,11620.1904255,E,1,15,1.1,54.142,M,-9.643,M,0.0,*6B\r\n"}
current_End_Timestamp:2020_10_22_01_31_18.584	Interval:243(ms)
current_Start_Timestamp:2020_10_22_01_31_19.355
successful:{"high_accuracy_location":"$GPRMC,173120.00014500,A,3955.6084998,N,11620.1971520,E,0.00,0.00,211020,0.0,E,D*33\r\n$GPGGA,173120.00014500,3955.6084998,N,11620.1971520,E,5,08,1.1,98.740,M,-9.642,M,0.0,*6B\r\n"}
current_End_Timestamp:2020_10_22_01_31_19.751	Interval:396(ms)
current_Start_Timestamp:2020_10_22_01_31_20.356
successful:{"high_accuracy_location":"$GPRMC,173121.00014500,A,3955.6113219,N,11620.2046747,E,0.00,0.00,211020,0.0,E,D*32\r\n$GPGGA,173121.00014500,3955.6113219,N,11620.2046747,E,5,09,1.1,119.816,M,-9.642,M,0.0,*5F\r\n"}
current_End_Timestamp:2020_10_22_01_31_20.564	Interval:208(ms)
current_Start_Timestamp:2020_10_22_01_31_21.331
successful:{"high_accuracy_location":"$GPRMC,173122.00014500,A,3955.6137042,N,11620.2150641,E,0.00,0.00,211020,0.0,E,D*3A\r\n$GPGGA,173122.00014500,3955.6137042,N,11620.2150641,E,5,09,1.1,46.149,M,-9.642,M,1.0,*6E\r\n"}
current_End_Timestamp:2020_10_22_01_31_21.473	Interval:142(ms)
current_Start_Timestamp:2020_10_22_01_31_22.356
successful:{"high_accuracy_location":"$GPRMC,173123.00014500,A,3955.6134624,N,11620.2187085,E,0.00,0.00,211020,0.0,E,D*3A\r\n$GPGGA,173123.00014500,3955.6134624,N,11620.2187085,E,5,09,1.1,64.423,M,-9.642,M,1.0,*67\r\n"}
current_End_Timestamp:2020_10_22_01_31_22.477	Interval:121(ms)
current_Start_Timestamp:2020_10_22_01_31_23.358
successful:{"high_accuracy_location":"$GPRMC,173124.00014500,A,3955.6163256,N,11620.2223314,E,0.00,0.00,211020,0.0,E,D*38\r\n$GPGGA,173124.00014500,3955.6163256,N,11620.2223314,E,5,09,1.1,93.431,M,-9.641,M,0.0,*6C\r\n"}
current_End_Timestamp:2020_10_22_01_31_23.811	Interval:453(ms)
current_Start_Timestamp:2020_10_22_01_31_24.373
successful:{"high_accuracy_location":"$GPRMC,173125.00014500,A,3955.6124361,N,11620.2291314,E,0.00,0.00,211020,0.0,E,D*36\r\n$GPGGA,173125.00014500,3955.6124361,N,11620.2291314,E,5,10,1.1,82.488,M,-9.641,M,0.0,*68\r\n"}
current_End_Timestamp:2020_10_22_01_31_24.782	Interval:409(ms)
current_Start_Timestamp:2020_10_22_01_31_25.394
successful:{"high_accuracy_location":"$GPRMC,173126.00014500,A,3955.6128457,N,11620.2335386,E,0.00,0.00,211020,0.0,E,D*3F\r\n$GPGGA,173126.00014500,3955.6128457,N,11620.2335386,E,5,09,1.1,79.193,M,-9.641,M,0.0,*62\r\n"}
current_End_Timestamp:2020_10_22_01_31_25.769	Interval:375(ms)
current_Start_Timestamp:2020_10_22_01_31_26.385
successful:{"high_accuracy_location":"$GPRMC,173127.00014500,A,3955.6126494,N,11620.2364610,E,0.00,0.00,211020,0.0,E,D*31\r\n$GPGGA,173127.00014500,3955.6126494,N,11620.2364610,E,5,09,1.1,75.586,M,-9.641,M,0.0,*60\r\n"}
current_End_Timestamp:2020_10_22_01_31_26.798	Interval:413(ms)
current_Start_Timestamp:2020_10_22_01_31_27.370
successful:{"high_accuracy_location":"$GPRMC,173128.00014500,A,3955.6122592,N,11620.2389126,E,0.00,0.00,211020,0.0,E,D*3C\r\n$GPGGA,173128.00014500,3955.6122592,N,11620.2389126,E,5,10,1.1,71.362,M,-9.641,M,0.0,*6D\r\n"}
current_End_Timestamp:2020_10_22_01_31_27.765	Interval:395(ms)
current_Start_Timestamp:2020_10_22_01_31_28.376
successful:{"high_accuracy_location":"$GPRMC,173129.00014500,A,3955.6124629,N,11620.2414502,E,0.00,0.00,211020,0.0,E,D*39\r\n$GPGGA,173129.00014500,3955.6124629,N,11620.2414502,E,5,10,1.1,76.399,M,-9.641,M,0.0,*6B\r\n"}
current_End_Timestamp:2020_10_22_01_31_28.601	Interval:225(ms)
current_Start_Timestamp:2020_10_22_01_31_29.358
successful:{"high_accuracy_location":"$GPRMC,173130.00014500,A,3955.6119619,N,11620.2429061,E,0.00,0.00,211020,0.0,E,D*32\r\n$GPGGA,173130.00014500,3955.6119619,N,11620.2429061,E,5,09,1.1,76.605,M,-9.641,M,1.0,*69\r\n"}
current_End_Timestamp:2020_10_22_01_31_29.564	Interval:206(ms)
current_Start_Timestamp:2020_10_22_01_31_30.341
successful:{"high_accuracy_location":"$GPRMC,173131.00014500,A,3955.6100652,N,11620.2438916,E,0.00,0.00,211020,0.0,E,D*3D\r\n$GPGGA,173131.00014500,3955.6100652,N,11620.2438916,E,5,11,1.1,71.406,M,-9.641,M,0.0,*68\r\n"}
current_End_Timestamp:2020_10_22_01_31_30.609	Interval:268(ms)
current_Start_Timestamp:2020_10_22_01_31_31.358
successful:{"high_accuracy_location":"$GPRMC,173132.00014500,A,3955.6096473,N,11620.2439089,E,0.00,0.00,211020,0.0,E,D*3F\r\n$GPGGA,173132.00014500,3955.6096473,N,11620.2439089,E,5,11,1.1,68.992,M,-9.641,M,0.0,*62\r\n"}
current_End_Timestamp:2020_10_22_01_31_31.572	Interval:214(ms)
current_Start_Timestamp:2020_10_22_01_31_32.340
successful:{"high_accuracy_location":"$GPRMC,173133.00014500,A,3955.6086924,N,11620.2438165,E,0.00,0.00,211020,0.0,E,D*32\r\n$GPGGA,173133.00014500,3955.6086924,N,11620.2438165,E,5,12,1.1,62.333,M,-9.641,M,1.0,*66\r\n"}
current_End_Timestamp:2020_10_22_01_31_32.461	Interval:121(ms)
current_Start_Timestamp:2020_10_22_01_31_33.341
successful:{"high_accuracy_location":"$GPRMC,173134.00014500,A,3955.6080784,N,11620.2435639,E,0.00,0.00,211020,0.0,E,D*34\r\n$GPGGA,173134.00014500,3955.6080784,N,11620.2435639,E,5,14,1.1,57.712,M,-9.641,M,0.0,*66\r\n"}
current_End_Timestamp:2020_10_22_01_31_33.785	Interval:444(ms)
current_Start_Timestamp:2020_10_22_01_31_34.378
successful:{"high_accuracy_location":"$GPRMC,173135.00014500,A,3955.6075773,N,11620.2435959,E,0.00,0.00,211020,0.0,E,D*3E\r\n$GPGGA,173135.00014500,3955.6075773,N,11620.2435959,E,5,14,1.1,53.710,M,-9.641,M,0.0,*6A\r\n"}
current_End_Timestamp:2020_10_22_01_31_34.795	Interval:417(ms)
current_Start_Timestamp:2020_10_22_01_31_35.354
successful:{"high_accuracy_location":"$GPRMC,173136.00014500,A,3955.6076649,N,11620.2436159,E,0.00,0.00,211020,0.0,E,D*3D\r\n$GPGGA,173136.00014500,3955.6076649,N,11620.2436159,E,5,13,1.1,52.796,M,-9.641,M,0.0,*61\r\n"}
current_End_Timestamp:2020_10_22_01_31_35.591	Interval:237(ms)
current_Start_Timestamp:2020_10_22_01_31_36.345
successful:{"high_accuracy_location":"$GPRMC,173137.00014500,A,3955.6081389,N,11620.2433132,E,0.00,0.00,211020,0.0,E,D*35\r\n$GPGGA,173137.00014500,3955.6081389,N,11620.2433132,E,5,14,1.1,51.511,M,-9.641,M,0.0,*60\r\n"}
current_End_Timestamp:2020_10_22_01_31_36.757	Interval:412(ms)
current_Start_Timestamp:2020_10_22_01_31_37.370
successful:{"high_accuracy_location":"$GPRMC,173138.00014500,A,3955.6084335,N,11620.2429578,E,0.00,0.00,211020,0.0,E,D*39\r\n$GPGGA,173138.00014500,3955.6084335,N,11620.2429578,E,5,14,1.1,49.543,M,-9.641,M,0.0,*62\r\n"}
current_End_Timestamp:2020_10_22_01_31_37.755	Interval:385(ms)
current_Start_Timestamp:2020_10_22_01_31_38.368
successful:{"high_accuracy_location":"$GPRMC,173139.00014500,A,3955.6086914,N,11620.2426126,E,0.00,0.00,211020,0.0,E,D*33\r\n$GPGGA,173139.00014500,3955.6086914,N,11620.2426126,E,5,14,1.1,49.207,M,-9.641,M,0.0,*6F\r\n"}
current_End_Timestamp:2020_10_22_01_31_38.712	Interval:344(ms)
current_Start_Timestamp:2020_10_22_01_31_39.356
successful:{"high_accuracy_location":"$GPRMC,173140.00014500,A,3955.6090303,N,11620.2424605,E,0.00,0.00,211020,0.0,E,D*32\r\n$GPGGA,173140.00014500,3955.6090303,N,11620.2424605,E,5,14,1.1,49.920,M,-9.641,M,0.0,*60\r\n"}
current_End_Timestamp:2020_10_22_01_31_39.753	Interval:397(ms)
current_Start_Timestamp:2020_10_22_01_31_40.367
successful:{"high_accuracy_location":"$GPRMC,173141.00014500,A,3955.6088222,N,11620.2427774,E,0.00,0.00,211020,0.0,E,D*3C\r\n$GPGGA,173141.00014500,3955.6088222,N,11620.2427774,E,5,14,1.1,49.367,M,-9.641,M,0.0,*67\r\n"}
current_End_Timestamp:2020_10_22_01_31_40.803	Interval:436(ms)
current_Start_Timestamp:2020_10_22_01_31_41.390
successful:{"high_accuracy_location":"$GPRMC,173142.00014500,A,3955.6087393,N,11620.2434382,E,0.00,0.00,211020,0.0,E,D*34\r\n$GPGGA,173142.00014500,3955.6087393,N,11620.2434382,E,5,14,1.1,49.333,M,-9.641,M,0.0,*6E\r\n"}
current_End_Timestamp:2020_10_22_01_31_41.602	Interval:212(ms)
current_Start_Timestamp:2020_10_22_01_31_42.355
successful:{"high_accuracy_location":"$GPRMC,173143.00014500,A,3955.6089233,N,11620.2450181,E,0.00,0.00,211020,0.0,E,D*33\r\n$GPGGA,173143.00014500,3955.6089233,N,11620.2450181,E,5,14,1.1,49.915,M,-9.641,M,0.0,*67\r\n"}
current_End_Timestamp:2020_10_22_01_31_42.621	Interval:266(ms)
current_Start_Timestamp:2020_10_22_01_31_43.378
successful:{"high_accuracy_location":"$GPRMC,173144.00014500,A,3955.6086887,N,11620.2473489,E,0.00,0.00,211020,0.0,E,D*32\r\n$GPGGA,173144.00014500,3955.6086887,N,11620.2473489,E,5,14,1.1,50.499,M,-9.641,M,0.0,*67\r\n"}
current_End_Timestamp:2020_10_22_01_31_43.754	Interval:376(ms)
current_Start_Timestamp:2020_10_22_01_31_44.363
successful:{"high_accuracy_location":"$GPRMC,173145.00014500,A,3955.6086567,N,11620.2501816,E,0.00,0.00,211020,0.0,E,D*3E\r\n$GPGGA,173145.00014500,3955.6086567,N,11620.2501816,E,5,14,1.1,51.771,M,-9.641,M,0.0,*6F\r\n"}
current_End_Timestamp:2020_10_22_01_31_44.730	Interval:367(ms)
current_Start_Timestamp:2020_10_22_01_31_45.358
successful:{"high_accuracy_location":"$GPRMC,173146.00014500,A,3955.6086947,N,11620.2539781,E,0.00,0.00,211020,0.0,E,D*39\r\n$GPGGA,173146.00014500,3955.6086947,N,11620.2539781,E,5,13,1.1,51.578,M,-9.641,M,0.0,*64\r\n"}
current_End_Timestamp:2020_10_22_01_31_45.573	Interval:215(ms)
current_Start_Timestamp:2020_10_22_01_31_46.350
successful:{"high_accuracy_location":"$GPRMC,173147.00014500,A,3955.6088001,N,11620.2584701,E,0.00,0.00,211020,0.0,E,D*33\r\n$GPGGA,173147.00014500,3955.6088001,N,11620.2584701,E,5,14,1.1,52.590,M,-9.641,M,1.0,*6D\r\n"}
current_End_Timestamp:2020_10_22_01_31_46.470	Interval:120(ms)
current_Start_Timestamp:2020_10_22_01_31_47.354
successful:{"high_accuracy_location":"$GPRMC,173148.00014500,A,3955.6089234,N,11620.2630134,E,0.00,0.00,211020,0.0,E,D*35\r\n$GPGGA,173148.00014500,3955.6089234,N,11620.2630134,E,5,12,1.1,52.382,M,-9.641,M,1.0,*68\r\n"}
current_End_Timestamp:2020_10_22_01_31_47.477	Interval:123(ms)
current_Start_Timestamp:2020_10_22_01_31_48.353
successful:{"high_accuracy_location":"$GPRMC,173149.00014500,A,3955.6090259,N,11620.2678047,E,0.00,0.00,211020,0.0,E,D*3E\r\n$GPGGA,173149.00014500,3955.6090259,N,11620.2678047,E,5,12,1.1,53.668,M,-9.640,M,1.0,*62\r\n"}
current_End_Timestamp:2020_10_22_01_31_48.470	Interval:117(ms)
current_Start_Timestamp:2020_10_22_01_31_49.353
successful:{"high_accuracy_location":"$GPRMC,173150.00014500,A,3955.6091592,N,11620.2726072,E,0.00,0.00,211020,0.0,E,D*3B\r\n$GPGGA,173150.00014500,3955.6091592,N,11620.2726072,E,5,12,1.1,54.158,M,-9.640,M,1.0,*64\r\n"}
current_End_Timestamp:2020_10_22_01_31_49.471	Interval:118(ms)
current_Start_Timestamp:2020_10_22_01_31_50.355
successful:{"high_accuracy_location":"$GPRMC,173151.00014500,A,3955.6091861,N,11620.2778857,E,0.00,0.00,211020,0.0,E,D*3F\r\n$GPGGA,173151.00014500,3955.6091861,N,11620.2778857,E,5,12,1.1,54.805,M,-9.640,M,1.0,*61\r\n"}
current_End_Timestamp:2020_10_22_01_31_50.462	Interval:107(ms)
current_Start_Timestamp:2020_10_22_01_31_51.328
successful:{"high_accuracy_location":"$GPRMC,173152.00014500,A,3955.6091641,N,11620.2834502,E,0.00,0.00,211020,0.0,E,D*3A\r\n$GPGGA,173152.00014500,3955.6091641,N,11620.2834502,E,5,10,1.1,54.832,M,-9.640,M,1.0,*62\r\n"}
current_End_Timestamp:2020_10_22_01_31_51.441	Interval:113(ms)
current_Start_Timestamp:2020_10_22_01_31_52.348
successful:{"high_accuracy_location":"$GPRMC,173153.00014500,A,3955.6091295,N,11620.2895628,E,0.00,0.00,211020,0.0,E,D*36\r\n$GPGGA,173153.00014500,3955.6091295,N,11620.2895628,E,5,09,1.1,54.785,M,-9.640,M,0.0,*64\r\n"}
current_End_Timestamp:2020_10_22_01_31_52.589	Interval:241(ms)
current_Start_Timestamp:2020_10_22_01_31_53.375
successful:{"high_accuracy_location":"$GPRMC,173154.00014500,A,3955.6093462,N,11620.2960510,E,0.00,0.00,211020,0.0,E,D*3E\r\n$GPGGA,173154.00014500,3955.6093462,N,11620.2960510,E,5,08,1.1,55.228,M,-9.640,M,0.0,*6E\r\n"}
current_End_Timestamp:2020_10_22_01_31_53.973	Interval:598(ms)
current_Start_Timestamp:2020_10_22_01_31_54.330
successful:{"high_accuracy_location":"$GPRMC,173155.00014500,A,3955.6096270,N,11620.3026477,E,0.00,0.00,211020,0.0,E,D*35\r\n$GPGGA,173155.00014500,3955.6096270,N,11620.3026477,E,5,07,1.1,55.146,M,-9.639,M,0.0,*6F\r\n"}
current_End_Timestamp:2020_10_22_01_31_54.606	Interval:276(ms)
current_Start_Timestamp:2020_10_22_01_31_55.345
successful:{"high_accuracy_location":"$GPRMC,173156.00014500,A,3955.6102051,N,11620.3083830,E,0.00,0.00,211020,0.0,E,A*3E\r\n$GPGGA,173156.00014500,3955.6102051,N,11620.3083830,E,1,14,1.1,53.569,M,-9.639,M,0.0,*68\r\n"}
current_End_Timestamp:2020_10_22_01_31_55.987	Interval:642(ms)
current_Start_Timestamp:2020_10_22_01_31_56.330
successful:{"high_accuracy_location":"$GPRMC,173157.00014500,A,3955.6102135,N,11620.3164484,E,0.00,0.00,211020,0.0,E,A*37\r\n$GPGGA,173157.00014500,3955.6102135,N,11620.3164484,E,1,14,1.1,53.579,M,-9.639,M,0.0,*60\r\n"}
current_End_Timestamp:2020_10_22_01_31_56.468	Interval:138(ms)
current_Start_Timestamp:2020_10_22_01_31_57.357
successful:{"high_accuracy_location":"$GPRMC,173158.00014500,A,3955.6101514,N,11620.3244908,E,0.00,0.00,211020,0.0,E,A*34\r\n$GPGGA,173158.00014500,3955.6101514,N,11620.3244908,E,1,14,1.1,51.700,M,-9.639,M,0.0,*6D\r\n"}
current_End_Timestamp:2020_10_22_01_31_57.998	Interval:641(ms)
current_Start_Timestamp:2020_10_22_01_31_58.344
successful:{"high_accuracy_location":"$GPRMC,173159.00014500,A,3955.6103793,N,11620.3330248,E,0.00,0.00,211020,0.0,E,A*37\r\n$GPGGA,173159.00014500,3955.6103793,N,11620.3330248,E,1,14,1.1,53.683,M,-9.639,M,0.0,*66\r\n"}
current_End_Timestamp:2020_10_22_01_31_58.483	Interval:139(ms)
current_Start_Timestamp:2020_10_22_01_31_59.368
successful:{"high_accuracy_location":"$GPRMC,173200.00014500,A,3955.6115050,N,11620.3395534,E,0.00,0.00,211020,0.0,E,A*34\r\n$GPGGA,173200.00014500,3955.6115050,N,11620.3395534,E,1,15,1.1,54.604,M,-9.638,M,0.0,*6D\r\n"}
current_End_Timestamp:2020_10_22_01_31_59.754	Interval:386(ms)
current_Start_Timestamp:2020_10_22_01_32_00.349
successful:{"high_accuracy_location":"$GPRMC,173201.00014500,A,3955.6117269,N,11620.3474744,E,0.00,0.00,211020,0.0,E,A*32\r\n$GPGGA,173201.00014500,3955.6117269,N,11620.3474744,E,1,15,1.1,57.753,M,-9.638,M,0.0,*6B\r\n"}
current_End_Timestamp:2020_10_22_01_32_00.785	Interval:436(ms)
current_Start_Timestamp:2020_10_22_01_32_01.368
successful:{"high_accuracy_location":"$GPRMC,173202.00014500,A,3955.6123670,N,11620.3548907,E,0.00,0.00,211020,0.0,E,A*3D\r\n$GPGGA,173202.00014500,3955.6123670,N,11620.3548907,E,1,14,1.1,58.984,M,-9.638,M,0.0,*6E\r\n"}
current_End_Timestamp:2020_10_22_01_32_02.030	Interval:662(ms)
current_Start_Timestamp:2020_10_22_01_32_02.339
successful:{"high_accuracy_location":"$GPRMC,173203.00014500,A,3955.6126365,N,11620.3622080,E,0.00,0.00,211020,0.0,E,A*31\r\n$GPGGA,173203.00014500,3955.6126365,N,11620.3622080,E,1,13,1.1,60.641,M,-9.638,M,0.0,*68\r\n"}
current_End_Timestamp:2020_10_22_01_32_02.471	Interval:132(ms)
current_Start_Timestamp:2020_10_22_01_32_03.347
successful:{"high_accuracy_location":"$GPRMC,173204.00014500,A,3955.6124035,N,11620.3705790,E,0.00,0.00,211020,0.0,E,A*30\r\n$GPGGA,173204.00014500,3955.6124035,N,11620.3705790,E,1,15,1.1,60.570,M,-9.637,M,0.0,*61\r\n"}
current_End_Timestamp:2020_10_22_01_32_03.757	Interval:410(ms)
current_Start_Timestamp:2020_10_22_01_32_04.366
successful:{"high_accuracy_location":"$GPRMC,173205.00014500,A,3955.6125489,N,11620.3783064,E,0.00,0.00,211020,0.0,E,A*31\r\n$GPGGA,173205.00014500,3955.6125489,N,11620.3783064,E,1,14,1.1,62.302,M,-9.637,M,0.0,*60\r\n"}
current_End_Timestamp:2020_10_22_01_32_04.514	Interval:148(ms)
current_Start_Timestamp:2020_10_22_01_32_05.359
successful:{"high_accuracy_location":"$GPRMC,173206.00014500,A,3955.6130594,N,11620.3855794,E,0.00,0.00,211020,0.0,E,A*37\r\n$GPGGA,173206.00014500,3955.6130594,N,11620.3855794,E,1,15,1.1,65.560,M,-9.637,M,0.0,*62\r\n"}
current_End_Timestamp:2020_10_22_01_32_05.579	Interval:220(ms)
current_Start_Timestamp:2020_10_22_01_32_06.340
successful:{"high_accuracy_location":"$GPRMC,173207.00014500,A,3955.6136161,N,11620.3926206,E,0.00,0.00,211020,0.0,E,A*35\r\n$GPGGA,173207.00014500,3955.6136161,N,11620.3926206,E,1,15,1.1,65.093,M,-9.637,M,0.0,*69\r\n"}
current_End_Timestamp:2020_10_22_01_32_06.465	Interval:125(ms)
current_Start_Timestamp:2020_10_22_01_32_07.352
successful:{"high_accuracy_location":"$GPRMC,173208.00014500,A,3955.6140525,N,11620.3997880,E,0.00,0.00,211020,0.0,E,A*31\r\n$GPGGA,173208.00014500,3955.6140525,N,11620.3997880,E,1,15,1.1,65.336,M,-9.637,M,0.0,*61\r\n"}
current_End_Timestamp:2020_10_22_01_32_07.488	Interval:136(ms)
current_Start_Timestamp:2020_10_22_01_32_08.391
successful:{"high_accuracy_location":"$GPRMC,173209.00014500,A,3955.6139230,N,11620.4082706,E,0.00,0.00,211020,0.0,E,A*36\r\n$GPGGA,173209.00014500,3955.6139230,N,11620.4082706,E,1,14,1.1,66.466,M,-9.636,M,0.0,*67\r\n"}
current_End_Timestamp:2020_10_22_01_32_08.508	Interval:117(ms)
current_Start_Timestamp:2020_10_22_01_32_09.356
successful:{"high_accuracy_location":"$GPRMC,173210.00014500,A,3955.6141392,N,11620.4170921,E,0.00,0.00,211020,0.0,E,A*3F\r\n$GPGGA,173210.00014500,3955.6141392,N,11620.4170921,E,1,14,1.1,65.306,M,-9.636,M,0.0,*6C\r\n"}
current_End_Timestamp:2020_10_22_01_32_09.478	Interval:122(ms)
current_Start_Timestamp:2020_10_22_01_32_10.370
successful:{"high_accuracy_location":"$GPRMC,173211.00014500,A,3955.6144364,N,11620.4265022,E,0.00,0.00,211020,0.0,E,A*3F\r\n$GPGGA,173211.00014500,3955.6144364,N,11620.4265022,E,1,15,1.1,67.543,M,-9.636,M,0.0,*68\r\n"}
current_End_Timestamp:2020_10_22_01_32_10.489	Interval:119(ms)
current_Start_Timestamp:2020_10_22_01_32_11.392
successful:{"high_accuracy_location":"$GPRMC,173212.00014500,A,3955.6141153,N,11620.4356768,E,0.00,0.00,211020,0.0,E,A*37\r\n$GPGGA,173212.00014500,3955.6141153,N,11620.4356768,E,1,15,1.1,65.496,M,-9.636,M,0.0,*6B\r\n"}
current_End_Timestamp:2020_10_22_01_32_11.523	Interval:131(ms)
current_Start_Timestamp:2020_10_22_01_32_12.327
successful:{"high_accuracy_location":"$GPRMC,173213.00014500,A,3955.6136919,N,11620.4458804,E,0.00,0.00,211020,0.0,E,A*3C\r\n$GPGGA,173213.00014500,3955.6136919,N,11620.4458804,E,1,16,1.1,65.614,M,-9.635,M,0.0,*68\r\n"}
current_End_Timestamp:2020_10_22_01_32_12.543	Interval:216(ms)
current_Start_Timestamp:2020_10_22_01_32_13.346
successful:{"high_accuracy_location":"$GPRMC,173214.00014500,A,3955.6140160,N,11620.4547206,E,0.00,0.00,211020,0.0,E,A*3B\r\n$GPGGA,173214.00014500,3955.6140160,N,11620.4547206,E,1,15,1.1,64.158,M,-9.635,M,0.0,*62\r\n"}
current_End_Timestamp:2020_10_22_01_32_13.482	Interval:136(ms)
current_Start_Timestamp:2020_10_22_01_32_14.347
successful:{"high_accuracy_location":"$GPRMC,173215.00014500,A,3955.6105080,N,11620.4628667,E,0.00,0.00,211020,0.0,E,D*38\r\n$GPGGA,173215.00014500,3955.6105080,N,11620.4628667,E,5,07,1.1,130.216,M,-9.635,M,0.0,*5A\r\n"}
current_End_Timestamp:2020_10_22_01_32_14.618	Interval:271(ms)
current_Start_Timestamp:2020_10_22_01_32_15.355
successful:{"high_accuracy_location":"$GPRMC,173216.00014500,A,3955.6126204,N,11620.4789239,E,0.00,0.00,211020,0.0,E,D*31\r\n$GPGGA,173216.00014500,3955.6126204,N,11620.4789239,E,5,08,1.1,39.271,M,-9.634,M,0.0,*64\r\n"}
current_End_Timestamp:2020_10_22_01_32_15.758	Interval:403(ms)
current_Start_Timestamp:2020_10_22_01_32_16.395
successful:{"high_accuracy_location":"$GPRMC,173217.00014500,A,3955.6090243,N,11620.4876789,E,0.00,0.00,211020,0.0,E,D*3E\r\n$GPGGA,173217.00014500,3955.6090243,N,11620.4876789,E,5,06,1.1,-59.249,M,-9.634,M,0.0,*45\r\n"}
current_End_Timestamp:2020_10_22_01_32_16.647	Interval:252(ms)
current_Start_Timestamp:2020_10_22_01_32_17.355
successful:{"high_accuracy_location":"$GPRMC,173218.00014500,A,3955.6053409,N,11620.4931411,E,0.00,0.00,211020,0.0,E,D*36\r\n$GPGGA,173218.00014500,3955.6053409,N,11620.4931411,E,5,06,1.1,-57.890,M,-9.634,M,0.0,*4D\r\n"}
current_End_Timestamp:2020_10_22_01_32_17.574	Interval:219(ms)
current_Start_Timestamp:2020_10_22_01_32_18.356
successful:{"high_accuracy_location":"$GPRMC,173219.00014500,A,3955.6113879,N,11620.5025273,E,0.00,0.00,211020,0.0,E,A*33\r\n$GPGGA,173219.00014500,3955.6113879,N,11620.5025273,E,1,15,1.1,56.535,M,-9.634,M,0.0,*65\r\n"}
current_End_Timestamp:2020_10_22_01_32_18.482	Interval:126(ms)
current_Start_Timestamp:2020_10_22_01_32_19.355
successful:{"high_accuracy_location":"$GPRMC,173220.00014500,A,3955.6116618,N,11620.5117081,E,0.00,0.00,211020,0.0,E,A*3A\r\n$GPGGA,173220.00014500,3955.6116618,N,11620.5117081,E,1,15,1.1,58.322,M,-9.634,M,0.0,*62\r\n"}
current_End_Timestamp:2020_10_22_01_32_19.528	Interval:173(ms)
current_Start_Timestamp:2020_10_22_01_32_20.344
successful:{"high_accuracy_location":"$GPRMC,173221.00014500,A,3955.6116336,N,11620.5202874,E,0.00,0.00,211020,0.0,E,A*37\r\n$GPGGA,173221.00014500,3955.6116336,N,11620.5202874,E,1,14,1.1,57.056,M,-9.633,M,0.0,*66\r\n"}
current_End_Timestamp:2020_10_22_01_32_20.463	Interval:119(ms)
current_Start_Timestamp:2020_10_22_01_32_21.345
successful:{"high_accuracy_location":"$GPRMC,173222.00014500,A,3955.6113317,N,11620.5285439,E,0.00,0.00,211020,0.0,E,A*38\r\n$GPGGA,173222.00014500,3955.6113317,N,11620.5285439,E,1,14,1.1,58.388,M,-9.633,M,0.0,*66\r\n"}
current_End_Timestamp:2020_10_22_01_32_21.999	Interval:654(ms)
current_Start_Timestamp:2020_10_22_01_32_22.337
